     2.10           OBSERVATION DATA    GPS                 RINEX VERSION / TYPE
Assistant 1.0                           20220623 121022 LCL PGM / RUN BY / DATE 
       G = GPS       R = GLONASS       C = COMPASS          COMMENT             
       S = SBAS      J = QZSS          E = GALILEO          COMMENT             
TPKL                                                        MARKER NAME         
1                                                           MARKER NUMBER       
                                                            OBSERVER / AGENCY   
MP81190100019       Stonex S9           G973-170405RU       REC # / TYPE / VERS 
0                   MP8SX001A                               ANT # / TYPE        
   937429.6846  4619604.6444  4285027.6572                  APPROX POSITION XYZ 
        0.0957        0.0000        0.0000                  ANTENNA: DELTA H/E/N
     8    C1    L1    D1    S1    P2    L2    D2    S2      # / TYPES OF OBSERV 
     1     1                                                WAVELENGTH FACT L1/2
     30.000                                                 INTERVAL            
  2022    06    17    03    46    0.0000000     GPS         TIME OF FIRST OBS   
  2022    06    20    02    15    0.0000000     GPS         TIME OF LAST OBS    
     0                                                      RCV CLOCK OFFS APPL 
    18                                                      LEAP SECONDS        
*** Above antenna height is from mark to PHASE CENTER.      COMMENT             
CARRIER PHASE MEASUREMENTS: PHASE SHIFTS REMOVED            COMMENT             
    19     4        0.0000        ANT MEASURE TYPE/HEIGT    COMMENT             
    0.0930    0.0680    0.0957    0.0867    0.0000          COMMENT             
                    BASE STATION                            COMMENT             
                                                            END OF HEADER                                      
 22  6 20  0  0  0.0000000  0  8G01G07G08G13G14G17G21G30             0.000000000
  23280513.602 6 122339926.709 6      3069.229 6        41.564    23280528.754 7
  95329881.663 7      2391.949 7        44.741                                  
  20484645.262 8 107647564.724 8     -1037.898 8        50.180    20484654.262 7
  83881235.201 7      -808.752 7        44.741                                  
  22159002.762 7 116446364.986 7     -2788.953 7        46.294    22159014.551 7
  90737449.971 7     -2172.990 7        44.741                                  
  22736303.113 7 119480088.869 7      1941.084 7        46.377    22736311.328 6
  93101400.881 6      1512.496 6        38.601                                  
  21171797.855 8 111258572.227 8      1557.217 8        49.177    21171808.344 7
  86695019.163 7      1213.375 7        44.741                                  
  22838777.820 7 120018592.753 7      3286.787 7        42.751    22838788.512 7
  93521016.866 7      2561.188 7        44.741                                  
  22754476.789 7 119575585.464 7       678.662 7        45.031    22754487.277 6
  93175810.025 6       528.551 6        39.553                                  
  20410065.895 8 107255655.391 8       657.393 8        53.189                  
         0.000 0         0.000 0         0.000                                  
 22  6 20  0  0 30.0000000  0  8G01G07G08G13G14G17G21G30             0.000000000
  23263016.469 6 122247979.742 6      3060.971 6        41.656    23263030.777 7
  95258234.743 7      2384.820 7        44.741                                  
  20490616.203 8 107678943.437 8     -1053.658 8        50.223    20490625.590 7
  83905686.107 7      -820.902 7        44.741                                  
  22174958.086 7 116530210.239 7     -2800.375 7        45.642    22174970.434 7
  90802783.896 7     -2182.035 7        44.741                                  
  22725273.734 7 119422128.300 7      1923.646 7        46.731    22725283.148 6
  93056236.784 6      1499.039 6        39.731                                  
  21162934.887 8 111211996.320 8      1548.529 8        49.703    21162945.461 7
  86658726.260 7      1206.344 7        44.741                                  
  22820040.938 7 119920131.901 7      3278.100 7        42.171    22820051.543 7
  93444294.147 7      2554.273 7        44.741                                  
  22750653.664 7 119555494.702 7       661.361 7        45.017    22750663.207 6
  93160154.838 6       515.289 6        38.993                                  
  20406356.957 8 107236165.746 8       642.533 8        52.886    20406368.418 7
  83560667.186 7       500.582 7        42.211                                  
 22  6 20  0  1  0.0000000  0  8G01G07G08G13G14G17G21G30             0.000000000
  23245570.363 6 122156299.209 6      3052.645 6        41.747    23245585.273 7
  95186795.368 7      2378.055 7        44.741                                  
  20496672.520 8 107710771.034 8     -1068.293 8        49.957    20496682.180 7
  83930486.799 7      -832.551 7        44.741                                  
  22190977.605 7 116614394.433 7     -2811.828 7        45.581    22190990.672 7
  90868381.909 7     -2191.045 7        44.741                                  
  22714342.895 7 119364684.467 7      1906.277 7        46.978    22714351.594 6
  93011475.380 6      1485.438 6        39.464                                  
  21154121.090 8 111165678.972 8      1539.773 8        49.741    21154131.020 7
  86622634.805 7      1199.852 7        44.741                                  
  22801352.656 7 119821922.879 7      3269.637 7        43.092    22801363.887 7
  93367767.631 7      2547.840 7        44.741                                  
  22746930.074 7 119535926.384 7       643.504 7        45.327    22746939.719 6
  93144906.754 6       501.258 6        39.489                                  
  20402732.387 8 107217119.286 8       627.625 8        52.543    20402743.805 7
  83545824.771 7       489.305 7        44.741                                  
 22  6 20  0  1 30.0000000  0  8G01G07G08G13G14G17G21G30             0.000000000
  23228175.621 6 122064888.947 6      3041.902 6        41.806    23228190.574 7
  95115566.614 7      2370.213 7        44.741                                  
  20502814.680 8 107743048.098 8     -1084.133 8        49.993    20502824.480 7
  83955639.728 7      -844.709 7        44.741                                  
  22207061.078 7 116698915.096 7     -2823.740 7        45.235    22207074.141 7
  90934242.123 7     -2200.217 7        44.741                                  
  22703509.773 7 119307760.136 7      1887.820 7        46.241    22703518.785 6
  92967118.750 6      1471.092 6        39.899                                  
  21145356.793 8 111119620.775 8      1530.164 8        50.240    21145366.438 7
  86586745.294 7      1192.479 7        44.741                                  
  22782712.727 7 119723968.009 7      3260.223 7        43.814    22782722.898 7
  93291439.179 7      2540.447 7        44.741                                  
  22743306.066 7 119516881.870 7       625.555 7        44.682    22743316.113 6
  93130066.816 6       487.322 6        39.079                                  
  20399192.805 8 107198517.751 8       612.078 8        52.852    20399204.453 7
  83531333.060 7       476.971 7        44.741                                  
 22  6 20  0  2  0.0000000  0  8G01G07G08G13G14G17G21G30             0.000000000
  23210833.297 7 121973752.060 7      3032.527 7        42.680    23210847.176 7
  95044550.883 7      2363.592 7        44.741                                  
  20509042.316 8 107775774.258 8     -1098.545 8        49.866    20509052.145 7
  83981140.592 7      -856.113 7        44.741                                  
  22223208.559 7 116783769.748 7     -2834.150 7        45.314    22223221.293 7
  91000362.563 7     -2208.164 7        44.741                                  
  22692776.863 7 119251356.694 7      1871.121 7        46.263    22692785.965 6
  92923168.021 6      1458.025 6        39.656                                  
  21136641.480 8 111073821.409 8      1522.215 8        50.282    21136651.770 7
  86551057.478 7      1185.994 7        44.741                                  
  22764121.066 7 119626269.161 7      3251.844 7        42.171    22764132.770 7
  93215310.221 7      2534.080 7        44.741                                  
  22739781.844 7 119498362.045 7       608.563 7        45.072    22739791.988 6
  93115635.806 6       474.236 6        39.570                                  
  20395737.551 8 107180362.008 8       597.664 8        52.570    20395749.285 7
  83517184.705 7       465.779 7        44.741                                  
 22  6 20  0  2 30.0000000  0  8G01G07G08G13G14G17G21G30             0.000000000
  23193543.598 7 121882892.267 7      3023.578 7        42.845    23193557.766 7
  94973751.053 7      2356.393 7        44.741                                  
  20515356.344 8 107808949.936 8     -1113.141 8        50.176    20515365.145 7
  84006990.714 7      -867.260 7        44.741                                  
  22239419.254 7 116868955.036 7     -2844.996 7        45.392    22239431.961 7
  91066740.654 7     -2216.813 7        44.741                                  
  22682143.086 7 119195476.371 7      1854.125 7        45.820    22682152.316 6
  92879624.893 6      1444.791 6        40.193                                  
  21127975.074 8 111028281.233 8      1513.949 8        49.830    21127985.105 7
  86515571.634 7      1179.713 7        44.741                                  
  22745578.883 7 119528828.044 7      3243.539 7        43.977    22745589.500 7
  93139382.070 7      2527.545 7        44.741                                  
  22736357.895 7 119480368.217 7       590.609 7        44.946    22736367.125 6
  93101614.623 6       460.299 6        38.826                                  
  20392368.121 8 107162653.615 8       583.031 8        52.999    20392379.625 7
  83503384.944 7       454.264 7        44.741                                  
 22  6 20  0  3  0.0000000  0  8G01G07G08G13G14G17G21G30             0.000000000
  23176306.656 7 121792313.050 7      3015.023 7        43.199    23176321.066 7
  94903169.910 7      2349.074 7        44.741                                  
  20521754.754 8 107842574.916 8     -1128.063 8        49.957                  
         0.000 0         0.000 0         0.000                                  
  22255691.293 7 116954468.706 7     -2855.150 7        45.248    22255704.633 7
  91133374.648 7     -2225.201 7        44.741                                  
  22671609.145 7 119140120.973 7      1837.172 7        46.325    22671618.387 6
  92836490.802 6      1431.574 6        40.208                                  
  21119358.563 8 110983000.376 8      1505.473 8        50.193    21119369.082 7
  86480287.831 7      1172.961 7        44.741                                  
  22727086.023 7 119431647.020 7      3235.434 7        43.739    22727096.613 7
  93063656.603 7      2521.516 7        44.741                                  
  22733033.785 7 119462901.423 7       573.949 7        44.786    22733043.559 6
  93088004.082 6       447.043 6        38.028                                  
  20389083.789 8 107145393.843 8       568.090 8        52.954    20389095.078 7
  83489936.737 7       442.707 7        44.741                                  
 22  6 20  0  3 30.0000000  0  8G01G07G08G13G14G17G21G30             0.000000000
  23159124.652 7 121702018.253 7      3005.730 7        42.891    23159137.516 7
  94832810.309 7      2341.939 7        44.741                                  
  20528238.434 8 107876650.188 8     -1143.115 8        49.172    20528248.078 7
  84059745.087 7      -890.695 7        44.741                                  
  22272026.566 7 117040308.281 7     -2866.279 7        45.353    22272039.461 7
  91200262.564 7     -2233.215 7        44.741                                  
  22661175.066 7 119085292.688 7      1819.268 7        45.154    22661186.039 6
  92793767.472 6      1417.525 6        40.743                                  
  21110791.262 8 110937979.184 8      1496.689 8        49.811    21110801.695 7
  86445206.370 7      1166.236 7        44.741                                  
  22708642.805 7 119334728.177 7      3226.590 7        43.795    22708652.523 7
  92988135.448 7      2514.342 7        44.741                                  
  22729810.965 7 119445962.806 7       556.553 7        45.366    22729819.680 6
  93074805.139 6       433.678 6        40.064                                  
  20385884.723 8 107128584.187 8       553.330 8        52.299    20385896.199 7
  83476837.284 7       431.119 7        44.741                                  
 22  6 20  0  4  0.0000000  0  8G01G07G08G13G14G17G21G30             0.000000000
  23141996.242 6 121612011.446 6      2994.857 6        41.978    23142009.992 7
  94762675.125 7      2334.027 7        44.741                                  
  20534808.625 8 107911176.026 8     -1158.363 8        49.289    20534818.297 7
  84086648.292 7      -902.555 7        44.741                                  
  22288423.023 7 117126470.849 7     -2877.387 7        45.666    22288436.043 7
  91267402.188 7     -2242.301 7        44.741                                  
  22650843.094 7 119030993.432 7      1801.322 7        45.924    22650852.926 6
  92751456.355 6      1403.656 6        40.572                                  
  21102273.410 8 110893217.934 8      1487.553 8        49.641    21102283.984 7
  86410327.469 7      1159.438 7        44.741                                  
  22690250.609 7 119238073.430 7      3217.396 7        44.559    22690260.613 7
  92912820.067 7      2507.016 7        44.741                                  
  22726688.680 7 119429553.772 7       539.018 7        45.182    22726697.813 6
  93062018.888 6       419.770 6        39.087                                  
  20382771.883 8 107112226.097 8       537.768 8        52.677    20382783.289 7
  83464089.707 7       418.930 7        44.741                                  
 22  6 20  0  4 30.0000000  0  8G01G07G08G13G14G17G21G30             0.000000000
  23124923.457 6 121522296.253 6      2985.479 6        41.717    23124937.863 7
  94692767.177 7      2326.492 7        44.741                                  
  20541464.340 8 107946152.403 8     -1173.486 8        49.423    20541474.387 7
  84113904.575 7      -914.213 7        44.741                                  
  22304879.965 7 117212953.922 7     -2888.076 7        45.738    22304892.711 7
  91334791.551 7     -2250.248 7        44.741                                  
  22640610.672 7 118977225.074 7      1783.564 7        45.208    22640621.418 6
  92709558.933 6      1389.734 6        40.913                                  
  21093805.313 8 110848716.877 8      1479.150 8        49.397    21093815.402 7
  86375651.313 7      1152.645 7        44.741                                  
  22671907.738 7 119141684.858 7      3208.760 7        44.433    22671916.652 7
  92837712.092 7      2500.398 7        44.741                                  
  22723666.949 7 119413675.543 7       520.576 7        44.682    22723677.250 6
  93049646.382 6       405.262 6        40.599                                  
  20379745.570 8 107096320.944 8       522.627 8        52.521    20379756.246 7
  83451694.051 7       407.332 7        44.741                                  
 22  6 20  0  5  0.0000000  0  8G01G07G08G13G14G17G21G30             0.000000000
  23107908.352 7 121432875.892 7      2975.830 7        42.959    23107921.328 7
  94623088.958 7      2319.125 7        44.741                                  
  20548206.359 8 107981578.620 8     -1188.076 8        49.871    20548215.414 7
  84141507.376 7      -925.521 7        44.741                                  
  22321397.305 7 117299754.430 7     -2897.977 7        45.431    22321410.414 7
  91402428.262 7     -2258.471 7        44.741                                  
  22630481.152 7 118923989.176 7      1766.357 7        45.901    22630490.852 6
  92668076.424 6      1376.412 6        40.804                                  
  21085386.453 8 110804475.848 8      1470.830 8        50.103    21085396.941 7
  86341177.800 7      1145.904 7        44.741                                  
  22653617.539 7 119045564.331 7      3200.166 7        45.912    22653627.387 7
  92762812.986 7      2493.832 7        44.741                                  
  22720745.680 7 119398328.685 7       503.975 7        43.644    22720756.957 6
  93037687.772 6       392.584 6        39.145                                  
  20376804.844 8 107080869.645 8       507.686 8        52.335    20376816.320 7
  83439656.059 7       395.768 7        44.741                                  
 22  6 20  0  5 30.0000000  0  8G01G07G08G13G14G17G21G30             0.000000000
  23090948.805 7 121343753.444 7      2965.488 7        42.483    23090962.215 7
  94553642.874 7      2310.820 7        44.741                                  
  20555032.984 8 108017454.586 8     -1203.537 8        49.866    20555042.941 7
  84169464.634 7      -937.678 7        44.741                                  
  22337975.215 7 117386869.578 7     -2909.025 7        45.494    22337987.922 7
  91470310.133 7     -2266.682 7        44.741                                  
  22620452.406 7 118871287.304 7      1747.832 7        46.178    22620462.266 6
  92627010.030 6      1361.934 6        41.431                                  
  21077017.148 8 110760494.513 8      1461.875 8        50.180    21077027.852 7
  86306906.633 7      1138.965 7        44.741                                  
  22635377.465 7 118949713.520 7      3190.566 7        45.773    22635387.512 7
  92688124.058 7      2486.309 7        44.741                                  
  22717926.910 7 119383513.864 7       484.043 7        44.543    22717937.527 6
  93026143.789 6       376.934 6        39.493                                  
  20373951.445 8 107065873.017 8       492.246 8        52.913    20373962.590 7
  83427971.370 7       383.516 7        44.741                                  
 22  6 20  0  6  0.0000000  0  8G01G07G08G13G14G17G21G30             0.000000000
  23074046.484 7 121254933.721 7      2955.486 7        42.090    23074060.492 7
  94484432.713 7      2303.146 7        44.741                                  
  20561946.309 8 108053781.860 8     -1218.555 8        49.839    20561955.609 7
  84197770.576 7      -949.840 7        44.741                                  
  22354612.211 7 117474297.468 7     -2919.395 7        45.379    22354625.117 7
  91538435.693 7     -2274.996 7        44.741                                  
  22610524.816 7 118819121.986 7      1729.744 7        45.678    22610536.090 6
  92586361.758 6      1347.814 6        41.605                                  
  21068697.051 8 110716774.334 8      1452.439 8        49.806    21068708.109 7
  86272838.936 7      1131.896 7        44.741                                  
  22617189.605 7 118854134.973 7      3181.346 7        46.178    22617199.680 7
  92613647.287 7      2478.752 7        44.741                                  
  22715210.008 7 119369233.234 7       467.049 7        45.456    22715219.680 6
  93015016.047 6       364.008 6        40.271                                  
  20371184.746 8 107051333.642 8       476.814 8        52.718                  
         0.000 0         0.000 0         0.000                                  
 22  6 20  0  6 30.0000000  0  8G01G07G08G13G14G17G21G30             0.000000000
  23057202.609 7 121166419.331 7      2945.361 7        42.144    23057216.703 7
  94415460.470 7      2295.010 7        44.741                                  
  20568943.980 8 108090559.558 8     -1233.996 8        49.558    20568954.199 7
  84226429.478 7      -961.357 7        44.741                                  
  22371307.652 7 117562034.590 7     -2929.816 7        45.003    22371321.117 7
  91606802.227 7     -2283.252 7        44.741                                  
  22600700.457 7 118767494.749 7      1711.553 7        46.241    22600710.129 6
  92546132.772 6      1333.701 6        41.485                                  
  21060427.672 8 110673314.458 8      1443.896 8        50.433    21060437.375 7
  86238974.082 7      1125.186 7        44.741                                  
  22599054.043 7 118758830.326 7      3172.139 7        46.304    22599064.000 7
  92539383.927 7      2471.455 7        44.741                                  
  22712594.047 7 119355486.803 7       449.266 7        45.878    22712604.207 6
  93004304.594 6       350.049 6        40.716                                  
  20368504.824 8 107037251.742 8       461.551 8        53.102    20368516.199 7
  83405668.033 7       359.697 7        44.741                                  
 22  6 20  0  7  0.0000000  0  8G01G07G08G13G14G17G21G30             0.000000000
  23040417.621 7 121078214.140 7      2935.752 7        42.251    23040431.984 7
  94346729.138 7      2287.438 7        44.741                                  
  20576028.297 8 108127787.982 8     -1247.979 8        49.493    20576038.430 7
  84255437.618 7      -972.758 7        42.617                                  
  22388061.691 7 117650078.510 7     -2939.443 7        44.219    22388075.441 7
  91675407.808 7     -2290.727 7        44.741                                  
  22590979.199 7 118716407.507 7      1694.033 7        46.167    22590988.344 6
  92506324.527 6      1320.016 6        41.147                                  
  21052207.020 8 110630115.548 8      1436.084 8        49.993    21052217.309 7
  86205312.590 7      1118.824 7        44.741                                  
  22580969.922 7 118663801.643 7      3163.525 7        45.866    22580979.508 7
  92465335.642 7      2464.801 7        44.741                                  
  22710079.902 7 119342276.175 7       431.592 7        45.100    22710090.230 6
  92994010.656 6       336.090 6        40.892                                  
  20365912.836 8 107023629.064 8       446.455 8        53.085    20365923.727 7
  83395053.930 7       348.063 7        44.741                                  
 22  6 20  0  7 30.0000000  0  8G01G07G08G13G14G17G21G30             0.000000000
  23023692.281 7 120990321.489 7      2924.574 7        42.508    23023706.434 7
  94278241.345 7      2278.764 7        44.741                                  
  20583199.027 8 108165466.724 8     -1263.395 8        49.774    20583208.484 7
  84284797.644 7      -984.635 7        44.741                                  
  22404874.238 7 117738426.666 7     -2949.605 7        45.340    22404887.344 7
  91744250.460 7     -2298.463 7        44.741                                  
  22581360.379 7 118665861.912 7      1675.824 7        45.405    22581370.770 6
  92466938.362 6      1305.854 6        41.118                                  
  21044036.004 8 110587177.425 8      1427.230 8        49.650    21044046.379 7
  86171854.295 7      1111.889 7        44.741                                  
  22562939.871 7 118569050.424 7      3153.949 7        46.124    22562949.242 7
  92391503.536 7      2457.689 7        44.741                                  
  22707667.621 7 119329602.050 7       413.246 7        44.974    22707678.121 6
  92984134.754 6       321.908 6        40.910                                  
  20363408.258 8 107010466.507 8       431.117 8        52.936    20363419.094 7
  83384797.375 7       335.814 7        44.741                                  
 22  6 20  0  8  0.0000000  0  8G01G07G08G13G14G17G21G30             0.000000000
  23007027.875 7 120902745.070 7      2913.768 7        43.242    23007042.285 7
  94209999.949 7      2270.656 7        44.741                                  
  20590454.867 8 108203596.242 8     -1278.576 8        50.401    20590464.281 7
  84314508.915 7      -996.162 7        44.741                                  
  22421743.566 7 117827076.062 7     -2959.650 7        44.236    22421756.488 7
  91813327.845 7     -2306.475 7        44.741                                  
  22571845.563 7 118615859.781 7      1657.791 7        46.241    22571855.004 6
  92427975.665 6      1291.809 6        41.257                                  
  21035915.188 8 110544500.510 8      1418.143 8        49.857    21035924.945 7
  86138599.531 7      1105.205 7        44.741                                  
  22544962.883 7 118474579.138 7      3144.373 7        46.796    22544972.598 7
  92317889.550 7      2450.031 7        44.741                                  
  22705358.336 7 119317465.413 7       395.955 7        46.036    22705369.242 6
  92974677.702 6       308.506 6        41.130                                  
  20360991.656 8 106997765.515 8       415.818 8        53.315    20361002.375 7
  83374900.472 7       323.877 7        44.741                                  
 22  6 20  0  8 30.0000000  0  8G01G07G08G13G14G17G21G30             0.000000000
  22990423.008 7 120815488.479 7      2903.350 7        43.026    22990437.332 7
  94142007.821 7      2262.100 7        44.741                                  
  20597797.004 8 108242176.754 8     -1293.428 8        50.785    20597806.348 7
  84344574.622 7     -1007.783 7        44.741                                  
  22438670.145 7 117916024.617 7     -2969.482 7        44.065    22438683.449 7
  91882638.325 7     -2313.895 7        44.741                                  
  22562434.211 7 118566402.840 7      1639.326 7        45.843    22562444.055 6
  92389437.806 6      1277.412 6        41.814                                  
  21027843.605 8 110502085.036 8      1409.893 8        49.361    21027853.793 7
  86105548.504 7      1098.369 7        44.741                                  
  22527038.707 7 118380389.814 7      3135.010 7        46.002    22527049.652 7
  92244495.274 7      2442.920 7        44.741                                  
  22703151.094 7 119305867.122 7       377.314 7        45.208    22703161.223 6
  92965640.114 6       294.131 6        41.465                                  
  20358662.215 8 106985527.429 8       400.400 8        52.651                  
         0.000 0         0.000 0         0.000                                  
 22  6 20  0  9  0.0000000  0  8G01G07G08G13G14G17G21G30             0.000000000
  22973880.648 7 120728555.265 7      2892.518 7        42.959    22973894.125 7
  94074267.604 7      2253.971 7        44.741                                  
  20605223.543 8 108281208.113 8     -1308.615 8        50.024    20605233.086 7
  84374985.642 7     -1019.621 7        44.741                                  
  22455652.648 7 118005269.497 7     -2979.805 7        44.065    22455665.941 7
  91952179.729 7     -2321.750 7        44.741                                  
  22553126.719 7 118517492.928 7      1621.209 7        45.353    22553136.621 6
  92351326.169 6      1263.248 6        40.991                                  
  21019821.797 8 110459931.232 8      1400.623 8        48.985    21019831.813 7
  86072701.371 7      1091.568 7        44.741                                  
  22509169.598 7 118286483.716 7      3125.213 7        46.778    22509179.043 7
  92171321.729 7      2435.592 7        44.741                                  
  22701046.133 7 119294808.336 7       359.764 7        45.086    22701057.324 6
  92957022.950 6       280.318 6        41.957                                  
  20356421.605 8 106973753.451 8       384.842 8        52.821    20356433.152 7
  83356191.728 7       299.791 7        44.741                                  
 22  6 20  0  9 30.0000000  0  8G01G07G08G13G14G17G21G30             0.000000000
  22957398.547 6 120641948.799 6      2880.895 6        41.175    22957413.844 7
  94006782.046 7      2245.328 7        44.741                                  
  20612737.098 8 108320689.995 8     -1323.305 8        50.294    20612746.457 7
  84405750.724 7     -1031.410 7        44.741                                  
  22472691.117 7 118094807.454 7     -2989.631 7        43.701    22472704.637 7
  92021949.498 7     -2329.281 7        44.741                                  
  22543924.133 7 118469131.601 7      1602.906 7        45.690    22543933.680 7
  92313642.018 7      1248.941 7        42.019                                  
  21011849.801 8 110418038.996 8      1392.008 8        48.996    21011860.203 7
  86040058.069 7      1084.762 7        44.741                                  
  22491353.738 7 118192863.513 7      3115.875 7        46.488    22491364.195 7
  92098370.905 7      2427.984 7        44.741                                  
  22699044.508 7 119284289.391 7       341.578 7        45.248    22699055.754 6
  92948826.418 6       266.402 6        41.678                                  
  20354269.730 8 106962444.566 8       369.273 8        52.673                  
         0.000 0         0.000 0         0.000                                  
 22  6 20  0 10  0.0000000  0  8G01G07G08G13G14G17G21G30             0.000000000
  22940980.250 6 120555672.49316      2870.252 6        40.356    22940995.746 7
  93939553.77517      2236.559 7        44.741                                  
  20620335.922 8 108360622.28818     -1338.711 8        49.844    20620345.566 7
  84436867.74517     -1042.971 7        44.741                                  
  22489784.805 7 118184635.969 7     -2999.473 7        43.547    22489797.969 7
  92091945.661 7     -2337.346 7        44.741                                  
  22534826.133 7 118421320.508 7      1584.297 7        44.960    22534835.938 6
  92276386.583 6      1234.488 6        41.822                                  
  21003927.875 8 110376408.52618      1383.125 8        48.554    21003937.777 7
  86007618.73417      1077.926 7        44.741                                  
  22473594.098 7 118099530.827 7      3106.326 7        47.204    22473603.184 7
  92025644.167 7      2420.289 7        44.741                                  
  22697145.746 7 119274311.22817       323.711 7        45.127    22697156.492 6
  92941051.27816       252.281 6        41.652                                  
  20352206.270 8 106951601.98718       353.594 8        51.950    20352217.875 7
  83338929.82117       275.465 7        44.741                                  
 22  6 20  0 10 30.0000000  0  8G01G07G08G13G14G17G21G30             0.000000000
  22924625.547 6 120469730.109 6      2858.908 6        40.103    22924641.344 7
  93872585.701 7      2227.781 7        44.741                                  
  20628020.520 8 108401005.097 8     -1353.670 8        49.428    20628029.992 7
  84468333.838 7     -1054.797 7        44.741                                  
  22506933.504 7 118274752.530 7     -3009.217 7        43.366    22506946.852 7
  92162166.280 7     -2344.465 7        44.741                                  
  22525832.512 7 118374061.122 7      1565.959 7        44.303    22525842.887 6
  92239561.092 6      1220.320 6        41.865                                  
  20996055.949 8 110335040.173 8      1374.357 8        48.548    20996066.094 7
  85975383.639 7      1071.199 7        44.741                                  
  22455887.320 7 118006487.668 7      3096.506 7        45.738    22455898.207 7
  91953143.000 7      2412.957 7        44.741                                  
  22695349.934 7 119264874.611 7       305.588 7        44.465    22695360.363 6
  92933698.093 6       238.348 6        41.672                                  
  20350232.023 8 106941227.006 8       338.186 8        52.179                  
         0.000 0         0.000 0         0.000                                  
 22  6 20  0 11  0.0000000  0  8G01G07G08G13G14G17G21G30             0.000000000
  22908336.598 6 120384125.256 6      2848.168 6        41.309    22908351.738 7
  93805880.615 7      2219.391 7        44.741                                  
  20635791.047 8 108441838.867 8     -1368.201 8        49.997    20635800.477 7
  84500152.336 7     -1066.137 7        44.741                                  
  22524136.648 7 118365154.998 7     -3017.381 7        43.527    22524150.355 7
  92232609.709 7     -2351.508 7        44.741                                  
  22516944.277 7 118327355.620 7      1548.480 7        44.202    22516954.980 6
  92203167.199 6      1206.695 6        41.267                                  
  20988233.746 8 110293934.191 8      1366.234 8        49.057    20988243.594 7
  85943353.004 7      1064.703 7        44.741                                  
  22438237.422 7 117913735.468 7      3087.094 7        45.889    22438246.910 7
  91880868.531 7      2405.816 7        44.741                                  
  22693657.363 7 119255980.708 7       288.148 7        44.605    22693667.492 6
  92926767.831 6       224.508 6        41.943                                  
  20348346.848 8 106931320.916 8       322.855 8        52.020    20348358.469 7
  83323126.354 7       251.617 7        44.741                                  
 22  6 20  0 11 30.0000000  0  8G01G07G08G13G14G17G21G30             0.000000000
  22892110.598 6 120298860.990 6      2836.357 6        40.634    22892126.250 7
  93739440.926 7      2210.152 7        44.741                                  
  20643646.988 8 108483122.863 8     -1383.975 8        49.866    20643656.590 7
  84532322.667 7     -1078.617 7        42.708                                  
  22541394.586 7 118455840.201 7     -3028.035 7        45.058    22541407.105 7
  92303273.421 7     -2359.535 7        44.741                                  
  22508162.918 7 118281205.549 7      1528.857 7        45.519    22508172.777 6
  92167206.123 6      1191.285 6        41.323                                  
  20980461.332 8 110253090.403 8      1356.689 8        48.905    20980471.449 7
  85911526.675 7      1057.281 7        44.741                                  
  22420641.891 7 117821276.497 7      3076.670 7        44.742    22420653.207 7
  91808822.681 7      2397.516 7        44.741                                  
  22692068.805 7 119247629.842 7       269.053 7        45.519    22692079.207 7
  92920260.696 7       209.801 7        42.043                                  
  20346551.098 8 106921884.476 8       306.357 8        51.981    20346562.773 7
  83315772.279 7       238.590 7        44.741                                  
 22  6 20  0 12  0.0000000  0  8G01G07G08G13G14G17G21G30             0.000000000
  22875951.395 6 120213941.072 6      2824.984 6        40.517    22875967.023 7
  93673269.575 7      2201.055 7        44.741                                  
  20651588.613 8 108524857.098 8     -1398.881 8        49.769    20651598.758 7
  84564844.810 7     -1089.900 7        44.741                                  
  22558704.156 7 118546804.987 7     -3037.240 7        44.048    22558717.176 7
  92374154.984 7     -2366.209 7        44.741                                  
  22499486.996 7 118235612.134 7      1510.375 7        45.750    22499495.809 6
  92131678.778 6      1176.877 6        41.394                                  
  20972738.828 8 110212509.158 8      1348.227 8        48.272    20972749.402 7
  85879904.911 7      1050.686 7        44.741                                  
  22403104.855 7 117729112.467 7      3067.191 7        46.438    22403115.230 7
  91737006.522 7      2389.883 7        44.741                                  
  22690583.109 7 119239823.044 7       251.078 7        45.340    22690593.527 7
  92914177.511 7       195.588 7        42.360                                  
  20344845.180 8 106912919.152 8       291.039 8        52.275    20344856.813 7
  83308788.297 7       226.779 7        44.741                                  
 22  6 20  0 12 30.0000000  0  8G01G07G08G13G14G17G21G30             0.000000000
  22859857.543 6 120129368.826 6      2813.375 6        40.517    22859873.367 7
  93607369.146 7      2192.156 7        44.741                                  
  20659616.195 8 108567041.292 8     -1413.479 8        49.746    20659626.211 7
  84597716.570 7     -1101.318 7        44.741                                  
  22576067.055 7 118638047.058 7     -3045.783 7        44.528    22576079.820 6
  92445252.635 6     -2373.525 6        41.536                                  
  22490916.484 7 118190577.051 7      1491.912 7        45.327    22490926.602 7
  92096586.480 7      1162.605 7        42.219                                  
  20965066.652 8 110172190.450 8      1339.803 8        48.609    20965076.883 7
  85848487.745 7      1043.914 7        44.741                                  
  22385622.867 7 117637244.975 7      3057.047 7        45.855    22385634.574 7
  91665421.445 7      2382.742 7        44.741                                  
  22689200.965 7 119232560.826 7       233.104 7        45.379    22689211.512 7
  92908518.678 7       181.434 7        42.066                                  
  20343228.508 8 106904425.671 8       275.389 8        51.953    20343240.430 7
  83302168.984 7       214.910 7        44.741                                  
 22  6 20  0 13  0.0000000  0  8G01G07G08G13G14G17G21G30             0.000000000
  22843831.063 6 120045147.992 6      2801.346 6        40.858    22843846.656 7
  93541742.523 7      2182.684 7        44.741                                  
  20667729.180 8 108609675.827 8     -1428.828 8        49.335    20667739.207 7
  84630936.261 7     -1113.547 7        44.741                                  
  22593482.156 7 118729564.082 7     -3055.293 7        43.959    22593494.922 6
  92516564.561 6     -2381.006 6        40.023                                  
  22482453.414 7 118146102.214 7      1472.889 7        45.100    22482463.199 7
  92061930.784 7      1147.684 7        42.082                                  
  20957444.387 8 110132134.753 8      1330.527 8        48.357    20957454.418 7
  85817275.513 7      1036.746 7        44.741                                  
  22368197.520 7 117545676.271 7      3046.932 7        45.456    22368207.895 7
  91594069.277 7      2374.266 7        44.741                                  
  22687923.109 7 119225844.158 7       214.688 7        45.481    22687932.883 7
  92903284.942 7       167.332 7        42.402                                  
  20341702.961 8 106896405.527 8       259.160 8        52.070                  
         0.000 0         0.000 0         0.000                                  
 22  6 20  0 13 30.0000000  0  8G01G07G08G13G14G17G21G30             0.000000000
  22827872.527 6 119961281.725 6      2789.711 6        41.374    22827887.836 7
  93476392.214 7      2173.922 7        44.741                                  
  20675927.852 8 108652760.266 8     -1443.395 8        49.262    20675937.496 7
  84664507.518 7     -1124.848 7        44.741                                  
  22610948.895 7 118821353.163 7     -3064.076 7        43.507    22610962.258 6
  92588088.415 6     -2387.250 6        39.863                                  
  22474097.496 7 118102188.622 7      1454.926 7        45.556    22474107.184 7
  92027712.383 7      1133.648 7        42.892                                  
  20949871.754 7 110092341.893 7      1322.270 7        47.870    20949882.473 7
  85786268.086 7      1030.309 7        44.741                                  
  22350829.242 7 117454408.007 7      3036.762 7        44.368    22350839.961 7
  91522951.089 7      2366.891 7        44.741                                  
  22686748.691 7 119219673.224 7       196.938 7        45.058    22686759.223 7
  92898476.460 7       153.355 7        42.627                                  
  20340267.113 8 106888859.501 8       243.988 8        51.598    20340278.734 7
  83290040.450 7       190.035 7        44.741                                  
 22  6 20  0 14  0.0000000  0  8G01G07G08G13G14G17G21G30             0.000000000
  22811980.727 7 119877774.001 7      2777.932 7        42.034    22811996.469 7
  93411321.310 7      2164.301 7        44.741                                  
  20684212.289 8 108696294.827 8     -1458.631 8        49.679    20684221.805 7
  84698430.503 7     -1136.500 7        44.741                                  
  22628467.055 7 118913411.818 7     -3072.889 7        44.621    22628480.547 6
  92659822.386 6     -2394.625 6        40.030                                  
  22465848.094 7 118058838.582 7      1435.568 7        45.785    22465857.480 7
  91993933.134 7      1118.559 7        42.612                                  
  20942349.402 8 110052812.628 8      1313.615 8        48.396    20942360.035 7
  85755466.065 7      1023.422 7        44.741                                  
  22333520.117 7 117363442.532 7      3027.268 7        45.678    22333531.094 7
  91452068.932 7      2358.695 7        44.741                                  
  22685677.922 7 119214049.351 7       178.342 7        45.519    22685688.184 7
  92894094.253 7       139.125 7        42.260                                  
  20338921.324 8 106881789.228 8       227.834 8        51.803    20338933.242 7
  83284531.130 7       177.758 7        44.741                                  
 22  6 20  0 14 30.0000000  0  8G01G07G08G13G14G17G21G30             0.000000000
  22796159.707 7 119794627.934 7      2765.602 7        42.632    22796174.789 7
  93346532.188 7      2154.547 7        44.741                                  
  20692582.246 8 108740279.011 8     -1473.520 8        49.503    20692591.633 7
  84732702.871 7     -1148.461 7        44.741                                  
  22646036.105 7 119005737.257 7     -3081.977 7        44.319    22646049.156 6
  92731764.203 6     -2401.488 6        39.414                                  
  22457706.102 7 118016052.865 7      1416.930 7        46.210    22457716.848 7
  91960593.634 7      1104.059 7        43.206                                  
  20934877.652 8 110013546.691 8      1304.215 8        48.718    20934887.926 7
  85724869.195 7      1016.461 7        44.741                                  
  22316267.176 7 117272781.051 7      3016.813 7        45.045    22316278.324 7
  91381423.599 7      2351.148 7        44.741                                  
  22684712.422 7 119208972.576 7       160.094 7        45.924    22684721.906 7
  92890138.357 7       124.840 7        42.277                                  
  20337666.918 8 106875195.409 8       211.910 8        52.410    20337678.352 7
  83279393.077 7       164.879 7        43.970                                  
 22  6 20  0 15  0.0000000  0  8G01G07G08G13G14G17G21G30             0.000000000
  22780406.555 7 119711846.990 7      2753.264 7        43.304    22780421.883 7
  93282027.593 7      2145.246 7        44.741                                  
  20701038.246 8 108784712.694 8     -1488.885 8        50.572    20701047.133 7
  84767326.488 7     -1160.184 7        44.741                                  
  22663655.137 7 119098326.899 7     -3090.877 7        44.168    22663668.590 6
  92803911.938 6     -2408.465 6        39.636                                  
  22449672.043 7 117973833.205 7      1397.424 7        46.102    22449681.789 7
  91927695.192 7      1088.918 7        42.917                                  
  20927455.598 8 109974544.249 8      1295.080 8        48.900    20927465.645 7
  85694477.686 7      1009.387 7        44.741                                  
  22299072.660 7 117182425.492 7      3006.350 7        44.202    22299083.078 7
  91311016.704 7      2342.629 7        44.741                                  
  22683850.844 7 119204443.764 7       141.682 7        46.113    22683860.590 7
  92886609.436 7       110.500 7        42.446                                  
  20336503.133 8 106869079.063 8       195.568 8        52.428    20336514.551 7
  83274628.065 7       152.316 7        44.741                                  
 22  6 20  0 15 30.0000000  0  8G01G07G08G13G14G17G21G30             0.000000000
  22764724.375 7 119629434.471 7      2740.873 7        43.048    22764738.527 7
  93217810.049 7      2135.580 7        44.741                                  
  20709578.523 8 108829595.260 8     -1503.697 8        49.935    20709588.410 7
  84802302.901 7     -1171.764 7        44.741                                  
  22681324.535 7 119191178.058 7     -3099.615 7        44.465    22681337.785 6
  92876263.411 6     -2415.318 6        39.876                                  
  22441745.730 7 117932180.854 7      1379.057 7        45.506    22441755.590 7
  91895238.813 7      1074.545 7        42.620                                  
  20920084.055 8 109935805.370 8      1286.693 8        48.996    20920093.512 7
  85664291.534 7      1002.670 7        44.741                                  
  22281937.238 7 117092377.801 7      2996.674 7        44.352    22281948.730 7
  91240849.667 7      2334.896 7        44.741                                  
  22683093.152 7 119200463.053 7       123.607 7        45.678    22683103.039 7
  92883507.605 7        96.498 7        42.369                                  
  20335430.352 8 106863441.145 8       179.779 8        52.796    20335441.840 7
  83270234.863 7       140.150 7        44.741                                  
 22  6 20  0 16  0.0000000  0  8G01G07G08G13G14G17G21G30             0.000000000
  22749112.586 7 119547394.042 7      2728.854 7        43.325    22749126.223 7
  93153882.449 7      2126.350 7        44.741                                  
  20718204.930 8 108874926.985 8     -1518.059 8        50.090    20718214.402 7
  84837625.286 7     -1182.986 7        44.741                                  
  22699043.148 7 119284287.985 7     -3107.395 7        45.275    22699055.227 6
  92948816.541 6     -2421.266 6        39.738                                  
  22433927.445 7 117891097.408 7      1360.340 7        45.878    22433938.234 7
  91863225.735 7      1060.002 7        43.065                                  
  20912762.727 8 109897330.388 8      1278.367 8        48.990    20912772.414 7
  85634311.015 7       996.174 7        44.741                                  
  22264861.047 7 117002639.737 7      2986.471 7        44.368    22264872.152 7
  91170923.902 7      2327.189 7        44.741                                  
  22682439.477 7 119197031.317 7       105.770 7        45.654    22682449.922 7
  92880833.578 7        82.580 7        42.097                                  
  20334448.422 8 106858282.879 8       164.188 8        52.746                  
         0.000 0         0.000 0         0.000                                  
 22  6 20  0 16 30.0000000  0  8G01G07G08G13G14G17G21G30             0.000000000
  22733572.176 7 119465729.010 7      2716.221 7        43.468    22733586.082 7
  93090247.366 7      2116.693 7        44.741                                  
  20726917.027 8 108920707.218 8     -1533.156 8        50.385                  
         0.000 0         0.000 0         0.000                                  
  22716809.672 7 119377653.906 7     -3115.773 7        44.831    22716823.238 6
  93021569.164 6     -2428.170 6        39.840                                  
  22426218.168 7 117850584.359 7      1341.182 7        45.222    22426228.398 7
  91831657.127 7      1045.209 7        43.020                                  
  20905491.453 8 109859119.396 8      1269.658 8        49.433    20905501.055 7
  85604536.194 7       989.447 7        44.741                                  
  22247842.926 7 116913212.884 7      2976.025 7        43.586    22247854.301 7
  91101240.647 7      2319.291 7        44.741                                  
  22681891.809 7 119194148.868 7        87.139 7        45.832    22681901.754 7
  92878587.517 7        67.826 7        42.146                                  
  20333558.480 8 106853605.145 8       148.506 8        52.359    20333570.383 7
  83262572.368 7       115.756 7        44.741                                  
 22  6 20  0 17  0.0000000  0  8G01G07G08G13G14G17G21G30             0.000000000
  22718102.984 7 119384443.076 7      2703.383 7        43.092    22718117.797 7
  93026907.729 7      2106.500 7        44.741                                  
  20735714.082 8 108966936.220 8     -1548.590 8        50.055    20735722.867 7
  84909319.715 7     -1206.781 7        44.741                                  
  22734625.238 7 119471273.671 7     -3125.014 7        44.667    22734638.117 6
  93094519.552 6     -2435.080 6        40.226                                  
  22418618.176 7 117810643.320 7      1321.410 7        46.178    22418627.918 7
  91800534.232 7      1029.703 7        43.359                                  
  20898270.082 8 109821172.865 8      1260.316 8        49.236    20898280.371 7
  85574967.458 7       982.047 7        44.741                                  
  22230885.578 7 116824099.325 7      2965.316 7        43.346    22230896.813 7
  91031801.513 7      2310.680 7        44.741                                  
  22681448.129 7 119191816.450 7        68.402 7        46.263    22681458.074 7
  92876770.089 7        53.258 7        42.444                                  
  20332760.219 8 106849409.331 8       131.566 8        52.568    20332771.879 7
  83259301.902 7       102.555 7        44.741                                  
 22  6 20  0 17 30.0000000  0  8G01G07G08G13G14G17G21G30             0.000000000
  22702708.453 7 119303539.218 7      2690.742 7        43.923    22702723.379 7
  92963865.773 7      2096.326 7        44.741                                  
  20744596.094 8 109013613.207 8     -1563.145 8        49.387    20744605.539 7
  84945692.349 7     -1218.051 7        44.741                                  
  22752487.699 7 119565143.869 7     -3133.066 7        44.134    22752501.578 6
  93167665.095 6     -2441.215 6        40.632                                  
  22411126.465 7 117771275.252 7      1302.773 7        46.113    22411136.168 7
  91769857.829 7      1015.193 7        42.980                                  
  20891099.613 8 109783490.411 8      1251.641 8        49.533    20891109.801 7
  85545604.504 7       975.330 7        44.741                                  
  22213986.863 7 116735300.446 7      2954.570 7        43.304    22213999.141 7
  90962607.621 7      2302.557 7        44.741                                  
  22681109.012 7 119190034.253 7        50.449 7        45.702    22681119.102 7
  92875381.384 7        39.354 7        42.503                                  
  20332053.070 8 106845695.852 8       115.938 8        52.001    20332065.016 7
  83256407.270 7        90.252 7        44.741                                  
 22  6 20  0 18  0.0000000  0  8G01G07G08G13G14G17G21G30             0.000000000
  22687386.758 7 119223020.953 7      2677.467 7        44.012    22687400.895 7
  92901124.272 7      2086.072 7        44.741                                  
  20753564.109 8 109060738.092 8     -1578.510 8        49.669    20753573.625 7
  84982414.989 7     -1230.080 7        44.741                                  
  22770398.242 7 119659262.453 7     -3141.537 7        43.701    22770411.965 6
  93241004.190 6     -2447.775 6        40.247                                  
  22403743.938 7 117732481.569 7      1283.170 7        45.617    22403754.055 7
  91739628.998 7       999.881 7        42.601                                  
  20883979.375 8 109746072.413 8      1242.662 8        48.962    20883989.234 7
  85516447.611 7       968.416 7        44.741                                  
  22197151.113 7 116646818.240 7      2944.146 7        44.667    22197160.473 7
  90893660.466 7      2294.098 7        44.741                                  
  22680874.355 7 119188802.913 7        31.607 7        45.114    22680884.129 7
  92874421.904 7        24.666 7        42.181                                  
  20331438.504 8 106842465.866 8        99.439 8        51.899    20331450.422 7
  83253891.372 7        77.518 7        44.741                                  
 22  6 20  0 18 30.0000000  0  8G01G07G08G13G14G17G21G30             0.000000000
  22672138.980 7 119142891.568 7      2664.672 7        44.742    22672151.871 7
  92838685.785 7      2076.623 7        44.741                                  
  20762616.773 8 109108310.181 8     -1592.885 8        50.125    20762626.402 7
  85019484.106 7     -1241.266 7        44.741                                  
  22788353.945 7 119753626.552 7     -3149.525 7        43.026    22788368.383 6
  93314534.601 6     -2453.883 6        40.294                                  
  22396471.246 7 117694263.090 7      1264.516 7        46.220    22396480.191 7
  91709848.365 7       985.434 7        42.241                                  
  20876908.727 8 109708918.813 8      1234.418 8        49.236    20876918.945 7
  85487496.765 7       961.781 7        44.741                                  
  22180372.824 7 116558654.102 7      2933.734 7        43.026    22180383.973 7
  90824961.119 7      2286.096 7        44.741                                  
  22680744.383 7 119188122.486 7        13.656 7        45.058    22680754.859 6
  92873891.725 6        10.609 6        41.629                                  
  20330916.172 8 106839720.135 8        83.754 8        52.222    20330928.137 7
  83251751.822 7        65.063 7        44.741                                  
 22  6 20  0 19  0.0000000  0  8G01G07G08G13G14G17G21G30             0.000000000
  22656964.844 7 119063154.878 7      2651.057 7        44.253    22656978.781 7
  92776553.306 7      2065.559 7        44.741                                  
  20771754.246 8 109156329.720 8     -1608.318 8        49.669    20771764.105 7
  85056900.878 7     -1253.055 7        44.741                                  
  22806357.535 7 119848233.983 7     -3157.674 7        43.644    22806372.242 6
  93388254.618 6     -2460.418 6        40.327                                  
  22389308.258 7 117656622.095 7      1245.061 7        45.666    22389318.230 7
  91680517.707 7       970.148 7        42.357                                  
  20869889.117 8 109672030.320 8      1224.943 8        49.289    20869899.648 7
  85458752.467 7       954.621 7        44.741                                  
  22163657.020 7 116470810.106 7      2922.404 7        44.757    22163668.137 7
  90756511.276 7      2277.590 7        44.741                                  
  22680719.680 7 119187993.975 7        -4.959 7        44.528    22680730.238 6
  92873791.584 6        -3.836 6        41.680                                  
  20330486.375 8 106837460.115 8        67.268 8        52.441                  
         0.000 0         0.000 0         0.000                                  
 22  6 20  0 19 30.0000000  0  8G01G07G08G13G14G17G21G30             0.000000000
  22641866.629 7 118983814.147 7      2638.283 7        44.253    22641881.523 7
  92714729.377 7      2055.762 7        44.741                                  
  20780977.219 8 109204796.238 8     -1622.674 8        49.746    20780987.063 7
  85094667.957 7     -1264.766 7        44.741                                  
  22824406.848 7 119943081.944 7     -3165.525 7        43.905    22824421.844 6
  93462162.041 6     -2466.346 6        39.863                                  
  22382255.238 7 117619559.427 7      1226.057 7        45.275    22382265.973 7
  91651637.698 7       955.371 7        42.281                                  
  20862919.949 8 109635406.932 8      1216.564 8        49.528    20862930.527 7
  85430214.763 7       947.949 7        44.741                                  
  22147002.391 7 116383287.901 7      2912.131 7        44.697    22147013.223 7
  90688312.157 7      2269.141 7        44.741                                  
  22680800.793 7 119188417.628 7       -23.045 7        45.314    22680810.969 6
  92874121.692 6       -17.988 6        41.853                                  
  20330148.660 8 106835686.604 8        51.135 8        52.341    20330160.449 7
  83248607.748 7        39.844 7        44.741                                  
 22  6 20  0 20  0.0000000  0  8G01G07G08G13G14G17G21G30             0.000000000
  22626844.492 7 118904873.213 7      2624.934 7        43.850    22626859.102 7
  92653216.961 7      2045.293 7        44.741                                  
  20790285.430 8 109253710.015 8     -1637.527 8        49.315                  
         0.000 0         0.000 0         0.000                                  
  22842501.617 7 120038168.475 7     -3173.133 7        43.026    22842516.215 6
  93536255.369 6     -2472.771 6        39.938                                  
  22375313.648 7 117583076.930 7      1206.945 7        45.761    22375322.734 7
  91623209.756 7       940.508 7        42.798                                  
  20856001.824 8 109599049.239 8      1207.805 8        49.473    20856011.770 7
  85401884.086 7       941.191 7        44.741                                  
  22130408.676 7 116296089.102 7      2901.730 7        44.512    22130418.676 7
  90620365.075 7      2261.035 7        44.741                                  
  22680986.898 7 119189394.206 7       -41.258 7        45.556    22680997.473 7
  92874882.672 7       -32.205 7        42.325                                  
  20329903.770 8 106834400.888 8        35.148 8        51.806    20329915.988 7
  83247607.873 7        27.443 7        44.741                                  
 22  6 20  0 20 30.0000000  0  8G01G07G08G13G14G17G21G30             0.000000000
  22611898.918 7 118826334.716 7      2611.258 7        43.869    22611913.840 7
  92592018.176 7      2034.512 7        44.741                                  
  20799678.504 8 109303069.983 8     -1652.844 8        49.764    20799688.105 7
  85171245.769 7     -1287.559 7        44.741                                  
  22860640.898 7 120133489.813 7     -3181.379 7        43.758    22860654.895 6
  93610531.646 6     -2479.063 6        39.341                                  
  22368481.672 7 117547174.887 7      1186.785 7        46.047    22368491.344 7
  91595234.123 7       924.746 7        42.483                                  
  20849133.504 8 109562956.684 8      1198.641 8        49.533    20849143.938 7
  85373760.003 7       933.945 7        44.741                                  
  22113877.930 7 116209216.094 7      2890.203 7        46.167    22113888.703 7
  90552671.821 7      2252.363 7        44.741                                  
  22681277.750 7 119190923.158 7       -60.012 7        45.275    22681287.926 6
  92876074.063 6       -46.797 6        41.761                                  
  20329751.898 8 106833603.283 8        18.406 8        52.090                  
         0.000 0         0.000 0         0.000                                  
 22  6 20  0 21  0.0000000  0  8G01G07G08G13G14G17G21G30             0.000000000
  22597030.703 7 118748202.232 7      2597.449 7        44.202    22597045.113 7
