     2.10           OBSERVATION DATA    GPS                 RINEX VERSION / TYPE
Assistant 1.0                           20220623 121022 LCL PGM / RUN BY / DATE 
       G = GPS       R = GLONASS       C = COMPASS          COMMENT             
       S = SBAS      J = QZSS          E = GALILEO          COMMENT             
TPKL                                                        MARKER NAME         
1                                                           MARKER NUMBER       
                                                            OBSERVER / AGENCY   
MP81190100019       Stonex S9           G973-170405RU       REC # / TYPE / VERS 
0                   MP8SX001A                               ANT # / TYPE        
   937429.6846  4619604.6444  4285027.6572                  APPROX POSITION XYZ 
        0.0957        0.0000        0.0000                  ANTENNA: DELTA H/E/N
     8    C1    L1    D1    S1    P2    L2    D2    S2      # / TYPES OF OBSERV 
     1     1                                                WAVELENGTH FACT L1/2
     30.000                                                 INTERVAL            
  2022    06    17    03    46    0.0000000     GPS         TIME OF FIRST OBS   
  2022    06    20    02    15    0.0000000     GPS         TIME OF LAST OBS    
     0                                                      RCV CLOCK OFFS APPL 
    18                                                      LEAP SECONDS        
*** Above antenna height is from mark to PHASE CENTER.      COMMENT             
CARRIER PHASE MEASUREMENTS: PHASE SHIFTS REMOVED            COMMENT             
    19     4        0.0000        ANT MEASURE TYPE/HEIGT    COMMENT             
    0.0930    0.0680    0.0957    0.0867    0.0000          COMMENT             
                    BASE STATION                            COMMENT             
                                                            END OF HEADER       
 22  6 17  3 46  0.0000000  0 10G01G02G03G06G11G12G14G17G19G24       0.000000000
  24922232.289 6 130967187.586 6     -3860.498 6        36.635    24922247.828 6
 102052408.430 6     -3008.354 6        40.541                                  
  23607791.898 6 124059793.823 6      3306.768 6        40.672    23607802.688 5
  96670012.092 5      2576.723 5        35.982                                  
  23917013.539 5 125684772.365 5       308.018 5        35.785    23917028.293 6
  97936256.259 6       240.219 6        38.896                                  
  20774000.762 8 109168124.503 8      2001.494 8        50.891    20774014.043 7
  85066115.345 7      1559.691 7        44.741                                  
  23644483.813 7 124252599.243 7      3685.439 7        44.082    23644497.234 6
  96820269.051 6      2871.566 6        38.308                                  
  23748063.906 6 124796922.983 6      3320.361 6        41.864    23748076.785 7
  97244404.247 7      2587.387 7        44.741                                  
  22372630.582 7 117568948.396 7     -2670.752 7        45.031    22372643.289 7
  91612209.006 7     -2081.146 7        42.570                                  
  21225934.563 8 111543037.347 8     -1623.252 8        49.283    21225944.906 7
  86916696.671 7     -1264.838 7        44.741                                  
  20119707.227 8 105729778.599 8      -261.748 8        50.611    20119714.895 7
  82386875.646 7      -203.922 7        44.741                                  
  22124190.383 7 116263410.983 7       449.346 7        47.246    22124202.500 7
  90594925.076 7       350.258 7        44.741                                  
 22  6 17  3 46 30.0000000  0 10G01G02G03G06G11G12G14G17G19G24       0.000000000
  24944282.125 6 131083054.838 6     -3864.314 6        38.795    24944295.789 6
 102142694.525 6     -3011.680 6        39.546                                  
  23588933.898 7 123960691.989 7      3299.281 7        42.981    23588945.977 6
  96592789.964 6      2570.842 6        37.887                                  
  23915309.832 5 125675822.123 5       288.205 5        34.575    23915325.316 6
  97929282.062 6       225.412 6        38.539                                  
  20762622.039 8 109108330.362 8      1984.260 8        50.417    20762635.273 7
  85019520.562 7      1545.881 7        44.741                                  
  23623459.262 7 124142119.001 7      3679.613 7        43.682    23623474.316 6
  96734180.684 6      2867.326 6        39.873                                  
  23729114.473 7 124697343.867 7      3317.914 7        43.070    23729126.781 7
  97166810.222 7      2585.432 7        44.741                                  
  22387905.445 7 117649214.813 7     -2680.838 7        45.058    22387917.711 7
  91674754.195 7     -2088.924 7        42.473                                  
  21235218.883 8 111591824.396 8     -1629.764 8        49.612    21235229.141 7
  86954713.531 7     -1269.861 7        44.741                                  
  20121236.109 8 105737813.049 8      -274.354 8        50.699    20121243.879 7
  82393136.257 7      -213.787 7        44.741                                  
  22121681.637 7 116250230.344 7       428.869 7        47.722    22121696.078 7
  90584654.458 7       334.279 7        44.741                                  
 22  6 17  3 47  0.0000000  0 10G01G02G03G06G11G12G14G17G19G24       0.000000000
  24966351.387 6 131199033.441 6     -3867.893 6        37.507    24966365.813 6
 102233067.475 6     -3013.816 6        38.601                                  
  23570117.363 6 123861813.849 6      3292.264 6        41.656    23570130.156 6
  96515742.191 6      2565.422 6        39.311                                  
  23913715.410 6 125667440.832 6       269.607 6        36.438    23913730.438 6
  97922751.241 6       209.934 6        39.028                                  
  20751340.867 8 109049047.615 8      1967.283 8        50.421    20751353.645 7
  84973323.232 7      1533.098 7        44.741                                  
  23602466.012 7 124031794.666 7      3674.666 7        45.392    23602479.535 6
  96648213.859 6      2863.352 6        41.034                                  
  23710178.457 7 124597834.163 7      3315.838 7        43.003    23710190.707 7
  97089270.263 7      2583.605 7        44.741                                  
  22403231.934 7 117729757.045 7     -2689.650 7        44.816    22403244.410 7
  91737514.327 7     -2095.828 7        42.335                                  
  21244536.078 8 111640787.755 8     -1635.295 8        49.231    21244546.195 7
  86992864.783 7     -1273.797 7        44.741                                  
  20122833.496 8 105746208.376 8      -285.783 8        50.653    20122841.664 7
  82399678.074 7      -222.684 7        44.741                                  
  22119286.047 7 116237643.090 7       409.646 7        46.387    22119299.270 7
  90574846.209 7       319.035 7        44.741                                  
 22  6 17  3 47 30.0000000  0 10G01G02G03G06G11G12G14G17G19G24       0.000000000
  24988442.164 6 131315120.476 6     -3871.275 6        36.538    24988456.730 6
 102323524.873 6     -3016.285 6        38.308                                  
  23551345.238 7 123763161.047 7      3284.760 7        44.100    23551357.172 6
  96438869.996 6      2559.496 6        41.472                                  
  23912229.789 6 125659629.158 6       251.283 6        38.795    23912243.699 6
  97916664.173 6       196.449 6        41.565                                  
  20740157.047 8 108990277.412 8      1950.482 8        50.020    20740170.770 7
  84927532.298 7      1519.965 7        44.741                                  
  23581501.430 7 123921628.271 7      3669.291 7        44.697    23581514.641 6
  96562370.056 6      2859.301 6        39.650                                  
  23691255.652 7 124498395.006 7      3314.135 7        42.981    23691267.703 7
  97011785.277 7      2582.230 7        44.741                                  
  22418610.840 7 117810574.012 7     -2698.717 7        44.712    22418623.617 7
  91800488.520 7     -2102.867 7        42.082                                  
  21253886.668 8 111689926.089 8     -1640.494 8        49.241    21253896.914 7
  87031154.393 7     -1278.336 7        44.741                                  
  20124499.332 8 105754963.553 8      -297.838 8        50.653    20124507.816 7
  82406500.294 7      -232.105 7        44.741                                  
  22117004.262 7 116225649.178 7       389.896 7        46.759    22117017.641 7
  90565500.291 7       303.852 7        44.741                                  
 22  6 17  3 48  0.0000000  0 10G01G02G03G06G11G12G14G17G19G24       0.000000000
  25010552.473 6 131431312.267 6     -3875.314 6        37.507    25010566.211 6
 102414063.900 6     -3019.889 6        38.175                                  
  23532614.965 7 123664734.940 7      3276.561 7        42.062    23532624.938 6
  96362174.420 6      2553.217 6        37.511                                  
  23910851.844 6 125652387.017 6       231.814 6        39.294    23910867.387 7
  97911021.005 7       180.443 7        43.928                                  
  20729071.031 8 108932020.251 8      1933.455 8        50.618    20729085.012 7
  84882138.158 7      1506.771 7        42.542                                  
  23560568.402 7 123811621.223 7      3664.236 7        45.726    23560580.449 6
  96476650.408 6      2855.092 6        40.563                                  
  23672345.801 6 124399027.268 6      3311.268 6        41.342    23672358.707 7
  96934355.942 7      2579.799 7        44.741                                  
  22434041.188 7 117891663.880 7     -2707.424 7        44.605    22434054.578 7
  91863675.368 7     -2109.693 7        42.651                                  
  21263270.523 8 111739237.420 8     -1646.604 8        49.289    21263280.496 7
  87069578.786 7     -1282.896 7        44.741                                  
  20126234.207 8 105764076.814 8      -309.826 8        50.599    20126242.520 7
  82413601.533 7      -241.354 7        44.741                                  
  22114834.730 7 116214247.820 7       370.135 7        46.547    22114848.184 7
  90556616.106 7       288.646 7        44.741                                  
 22  6 17  3 48 30.0000000  0 10G01G02G03G06G11G12G14G17G19G24       0.000000000
  25032682.992 6 131547609.485 6     -3876.807 6        37.346    25032698.215 6
 102504685.087 6     -3021.027 6        37.404                                  
  23513929.512 7 123566540.346 7      3270.596 7        43.795    23513939.961 6
  96285659.268 6      2548.563 6        39.514                                  
  23909582.398 6 125645718.667 6       212.900 6        39.079    23909598.238 7
  97905824.914 7       166.629 7        43.869                                  
  20718083.926 8 108874280.960 8      1917.002 8        50.638    20718097.359 7
  84837144.548 7      1493.758 7        44.741                                  
  23539665.742 7 123701779.147 7      3659.482 7        44.697    23539677.504 6
  96391059.292 6      2851.668 6        37.871                                  
  23653451.723 7 124299736.030 7      3309.697 7        42.483    23653464.473 7
  96856986.251 7      2578.602 7        44.741                                  
  22449524.656 7 117973029.314 7     -2715.908 7        45.418    22449537.734 7
  91927076.934 7     -2116.203 7        42.582                                  
  21272687.609 8 111788724.351 8     -1651.436 8        49.215    21272697.797 7
  87108140.027 7     -1287.102 7        44.741                                  
  20128036.801 8 105773550.591 8      -321.006 8        51.138    20128044.973 7
  82420983.685 7      -250.031 7        44.741                                  
  22112778.852 7 116203442.593 7       351.064 7        47.229    22112791.688 7
  90548196.443 7       273.699 7        44.741                                  
 22  6 17  3 49  0.0000000  0 10G01G02G03G06G11G12G14G17G19G24       0.000000000
  25054832.703 6 131664007.736 6     -3881.688 6        36.014    25054848.188 6
 102595384.936 6     -3024.535 6        37.793                                  
  23495288.016 7 123468577.967 7      3261.982 7        43.814    23495298.359 6
  96209325.042 6      2541.773 6        39.145                                  
  23908423.012 6 125639623.091 6       194.016 6        41.502    23908437.164 7
  97901075.166 7       150.758 7        44.741                                  
  20707194.574 8 108817059.111 8      1898.896 8        50.352    20707208.211 7
  84792555.125 7      1479.723 7        44.741                                  
  23518794.297 7 123592102.645 7      3653.486 7        43.941    23518807.203 6
  96305597.242 6      2846.598 6        38.670                                  
  23634572.117 7 124200521.056 7      3305.869 7        42.868    23634584.379 7
  96779675.920 7      2576.129 7        44.741                                  
  22465059.801 7 118054667.531 7     -2725.242 7        44.219    22465073.566 7
  91990691.075 7     -2123.578 7        42.586                                  
  21282137.344 8 111838383.983 8     -1657.859 8        48.628    21282147.375 7
  87146835.828 7     -1292.074 7        44.741                                  
  20129907.387 8 105783382.483 8      -333.621 8        50.489    20129915.543 7
  82428644.904 7      -259.965 7        44.741                                  
  22110835.605 7 116193231.854 7       330.342 7        47.427    22110848.629 7
  90540240.030 7       257.535 7        44.741                                  
 22  6 17  3 49 30.0000000  0 10G01G02G03G06G11G12G14G17G19G24       0.000000000
  25077002.000 6 131780504.602 6     -3884.770 6        37.005    25077016.738 6
 102686161.674 6     -3026.820 6        40.123                                  
  23476689.563 6 123370849.883 6      3254.098 6        41.978    23476700.895 6
  96133173.410 6      2535.678 6        37.299                                  
  23907372.637 6 125634101.576 6       174.352 6        41.687    23907386.445 7
  97896772.698 7       135.816 7        44.741                                  
  20696403.930 8 108760356.438 8      1881.949 8        49.797    20696417.598 7
  84748371.271 7      1466.227 7        44.741                                  
  23497956.168 7 123482594.433 7      3646.988 7        45.168    23497968.504 6
  96220266.188 6      2842.338 6        39.161                                  
  23615706.656 7 124101384.282 7      3303.180 7        42.751    23615718.805 7
  96702426.569 7      2574.662 7        44.741                                  
  22480647.297 7 118136578.142 7     -2734.789 7        44.757    22480660.449 7
  92054517.459 7     -2131.059 7        42.577                                  
  21291619.820 8 111888215.739 8     -1663.930 8        48.807    21291629.938 7
  87185665.738 7     -1296.410 7        44.741                                  
  20131846.629 8 105793572.293 8      -345.570 8        50.618    20131854.398 7
  82436585.012 7      -269.301 7        44.741                                  
  22109005.953 7 116183616.130 7       310.797 7        47.841    22109019.418 7
  90532747.249 7       242.008 7        44.741                                  
 22  6 17  3 50  0.0000000  0 10G01G02G03G06G11G12G14G17G19G24       0.000000000
  25099189.441 6 131897097.708 6     -3888.611 6        39.024    25099203.910 7
 102777013.369 7     -3029.607 7        42.559                                  
  23458138.879 7 123273358.164 7      3246.076 7        44.449    23458150.297 6
  96057205.934 6      2529.395 6        41.255                                  
  23906430.414 6 125629154.937 6       155.490 6        39.741    23906444.641 7
  97892918.172 7       120.879 7        44.348                                  
  20685713.145 8 108704174.462 8      1864.182 8        50.202    20685726.453 7
  84704591.147 7      1452.520 7        44.741                                  
  23477148.926 7 123373256.832 7      3641.701 7        44.465    23477163.293 6
  96135068.275 6      2837.559 6        40.300                                  
  23596856.910 7 124002327.006 7      3300.842 7        43.199    23596867.742 7
  96625239.168 7      2571.758 7        44.741                                  
  22496286.426 7 118218760.372 7     -2744.100 7        44.946    22496298.918 7
  92118555.498 7     -2138.260 7        42.013                                  
  21301135.332 8 111938218.808 8     -1669.510 8        48.928    21301145.461 7
  87224629.161 7     -1300.996 7        44.741                                  
  20133853.391 8 105804119.300 8      -357.420 8        50.634    20133861.691 7
  82444803.456 7      -278.574 7        44.741                                  
  22107288.891 7 116174595.597 7       290.822 7        47.538    22107301.898 7
  90525718.270 7       226.719 7        44.741                                  
 22  6 17  3 50 30.0000000  0 10G01G02G03G06G11G12G14G17G19G24       0.000000000
  25121394.207 6 132013783.716 6     -3891.555 6        38.232    25121409.105 6
 102867937.510 6     -3032.061 6        41.828                                  
  23439631.559 7 123176104.071 7      3238.193 7        43.304    23439643.535 6
  95981423.653 6      2523.254 6        40.092                                  
  23905598.383 6 125624783.430 6       136.531 6        39.294    23905612.563 7
  97889511.820 7       106.242 7        44.050                                  
  20675121.242 8 108648514.015 8      1846.729 8        50.077    20675135.004 7
  84661221.395 7      1439.094 7        44.741                                  
  23456376.320 7 123264091.791 7      3636.045 7        44.801    23456388.395 6
  96050004.661 6      2832.785 6        38.526                                  
  23578021.910 7 123903351.192 7      3297.744 7        43.507    23578034.402 7
  96548115.192 7      2569.797 7        44.741                                  
  22511976.074 7 118301212.796 7     -2752.766 7        45.222    22511989.035 7
  92182804.086 7     -2144.932 7        42.382                                  
  21310683.043 8 111988391.700 8     -1675.305 8        48.905    21310692.844 7
  87263724.886 7     -1305.049 7        44.741                                  
  20135928.555 8 105815022.155 8      -369.113 8        50.774    20135936.484 7
  82453299.188 7      -287.605 7        44.741                                  
  22105685.449 7 116166169.862 7       270.945 7        46.654    22105700.246 7
  90519152.760 7       211.164 7        44.741                                  
 22  6 17  3 51  0.0000000  0 10G01G02G03G06G11G12G14G17G19G24       0.000000000
  25143615.398 6 132130559.806 6     -3895.822 6        37.812    25143630.422 6
 102958931.800 6     -3034.615 6        40.936                                  
  23421169.711 7 123079089.293 7      3229.197 7        42.798    23421180.129 6
  95905827.884 6      2516.244 6        37.709                                  
  23904875.496 6 125620987.383 6       116.600 6        40.822    23904889.820 7
  97886553.872 7        91.225 7        44.741                                  
  20664628.469 8 108593375.969 8      1828.846 8        49.866    20664642.648 7
  84618257.738 7      1425.092 7        44.741                                  
  23435635.590 7 123155101.210 7      3629.314 7        43.777    23435648.840 6
  95965077.050 6      2827.982 6        39.860                                  
  23559203.906 7 123804458.195 7      3294.900 7        43.995    23559215.441 7
  96471055.769 7      2567.572 7        44.741                                  
  22527717.773 7 118383934.233 7     -2762.209 7        45.366    22527730.496 7
  92247262.291 7     -2152.467 7        42.533                                  
  21320262.492 8 112038732.902 8     -1681.389 8        48.616    21320272.648 7
  87302951.780 7     -1310.201 7        44.741                                  
  20138070.801 8 105826279.642 8      -381.311 8        50.974    20138078.930 7
  82462071.259 7      -297.076 7        44.741                                  
  22104195.305 7 116158338.502 7       250.525 7        47.040    22104209.313 7
  90513050.413 7       195.424 7        44.741                                  
 22  6 17  3 51 30.0000000  0 10G01G02G03G06G11G12G14G17G19G24       0.000000000
  25165854.512 5 132247423.604 5     -3896.588 5        35.901    25165869.281 6
 103049994.445 6     -3036.289 6        37.567                                  
  23402754.980 7 122982316.091 7      3221.633 7        44.417    23402764.352 6
  95830420.258 6      2510.410 6        37.426                                  
  23904262.977 6 125617767.913 6        97.883 6        41.656    23904278.230 7
  97884045.262 7        75.938 7        44.741                                  
  20654235.898 8 108538762.140 8      1811.438 8        49.607    20654249.180 7
  84575698.529 7      1411.719 7        44.741                                  
  23414929.527 7 123046287.770 7      3623.762 7        45.141    23414942.805 6
  95880287.466 6      2823.672 6        40.023                                  
  23540401.254 7 123705650.064 7      3291.965 7        42.868    23540413.387 7
  96394062.482 7      2565.215 7        44.741                                  
  22543510.313 7 118466924.186 7     -2771.102 7        45.556    22543523.305 7
  92311929.718 7     -2159.238 7        43.005                                  
  21329874.316 8 112089242.533 8     -1686.941 8        48.974    21329884.289 7
  87342309.923 7     -1314.375 7        44.741                                  
  20140280.766 8 105837891.701 8      -393.191 8        51.131    20140288.410 7
  82471119.597 7      -306.309 7        44.741                                  
  22102818.242 7 116151102.081 7       230.852 7        46.448    22102832.809 7
  90507411.623 7       179.941 7        44.741                                  
 22  6 17  3 52  0.0000000  0 10G01G02G03G06G11G12G14G17G19G24       0.000000000
  25188109.008 5 132364372.444 5     -3898.377 5        33.720    25188124.047 5
 103141123.413 5     -3038.768 5        32.996                                  
  23384384.250 6 122885786.383 6      3213.852 6        38.232    23384396.383 5
  95755202.363 5      2504.320 5        35.302                                  
  23903760.418 6 125615125.732 6        78.049 6        41.656    23903774.844 7
  97881986.399 7        61.174 7        44.741                                  
  20643943.852 8 108484673.677 8      1794.475 8        50.397    20643956.945 7
  84533552.718 7      1398.227 7        44.741                                  
  23394256.875 7 122937653.772 7      3618.500 7        44.433    23394269.570 6
  95795637.728 6      2819.574 6        39.821                                  
  23521615.125 7 123606928.003 7      3289.203 7        43.113    23521627.059 7
  96317136.286 7      2563.070 7        44.741                                  
  22559354.148 7 118550181.684 7     -2779.998 7        45.878    22559366.852 7
  92376805.612 7     -2166.189 7        43.577                                  
  21339518.266 8 112139919.417 8     -1691.854 8        49.299    21339527.695 7
  87381798.386 7     -1318.396 7        44.741                                  
  20142557.770 8 105849857.487 8      -404.725 8        50.906    20142565.398 7
  82480443.584 7      -315.369 7        44.741                                  
  22101554.152 7 116144460.437 7       211.545 7        46.508    22101568.016 7
  90502236.327 7       164.709 7        44.741                                  
 22  6 17  3 52 30.0000000  0 10G01G02G03G06G11G12G14G17G19G24       0.000000000
  25210379.500 5 132481404.308 5     -3901.439 5        32.144    25210394.352 4
 103232317.044 4     -3040.887 4        28.953                                  
  23366062.422 7 122789502.313 7      3205.729 7        42.704    23366074.215 6
  95680176.042 6      2497.939 6        38.127                                  
  23903367.297 6 125613061.807 6        59.693 6        41.978    23903382.176 7
  97880378.188 7        46.086 7        44.741                                  
  20633751.223 8 108431112.297 8      1776.646 8        50.189                  
         0.000 0         0.000 0         0.000                                  
  23373618.820 7 122829201.969 7      3612.311 7        44.889    23373632.113 6
  95711129.898 6      2814.814 6        40.462                                  
  23502845.422 7 123508294.072 7      3286.373 7        42.680    23502857.098 7
  96240278.720 7      2560.811 7        44.741                                  
  22575248.176 7 118633706.278 7     -2788.373 7        45.100    22575260.566 7
  92441889.656 7     -2172.684 7        43.145                                  
  21349193.230 8 112190762.580 8     -1697.025 8        49.315    21349202.617 7
  87421416.416 7     -1322.410 7        44.741                                  
  20144901.422 8 105862176.565 8      -416.186 8        50.622    20144909.766 7
  82490042.867 7      -324.266 7        44.741                                  
  22100403.641 7 116138414.050 7       192.193 7        46.397    22100417.180 7
  90497524.863 7       149.387 7        44.741                                  
 22  6 17  3 53  0.0000000  0  9G02G03G06G11G12G14G17G19G24          0.000000000
  23347788.070 7 122693465.527 7      3196.529 7        44.168    23347796.953 6
  95605342.255 6      2490.771 6        37.275                                  
  23903085.176 7 125611576.065 7        40.045 7        42.533    23903100.516 7
  97879220.505 7        31.338 7        44.741                                  
  20623658.863 8 108378078.462 8      1758.854 8        49.788    20623672.602 7
  84450492.578 7      1370.537 7        44.741                                  
  23353015.789 7 122720933.914 7      3605.768 7        44.932    23353029.898 6
  95626765.340 6      2809.658 6        40.594                                  
  23484092.570 6 123409749.453 6      3283.619 6        40.710    23484104.891 7
  96163490.810 7      2558.213 7        44.741                                  
  22591193.109 7 118717496.317 7     -2797.689 7        45.843    22591206.172 7
  92507180.530 7     -2180.010 7        43.262                                  
  21358899.645 8 112241770.466 8     -1703.158 8        49.315    21358909.430 7
  87461162.788 7     -1327.100 7        44.741                                  
  20147312.723 8 105874847.255 8      -428.295 8        50.825    20147321.039 7
  82499916.127 7      -333.740 7        44.741                                  
  22099365.996 7 116132962.068 7       171.686 7        46.616    22099379.461 7
  90493276.565 7       133.662 7        44.741                                  
 22  6 17  3 53 30.0000000  0  9G02G03G06G11G12G14G17G19G24          0.000000000
  23329559.359 7 122597677.957 7      3188.721 7        42.171    23329571.207 6
  95530702.656 6      2484.717 6        36.807                                  
  23902912.523 7 125610669.468 7        20.713 7        42.171    23902927.660 7
  97878514.078 7        16.592 7        44.741                                  
  20613667.672 8 108325573.790 8      1741.494 8        49.935    20613681.105 7
  84409577.891 7      1356.865 7        44.741                                  
  23332448.672 7 122612852.267 7      3599.756 7        44.816    23332461.406 6
  95542545.942 6      2804.795 6        39.684                                  
  23465357.602 6 123311296.103 6      3280.557 6        41.002    23465369.621 7
  96086773.929 7      2556.299 7        44.741                                  
  22607187.980 7 118801551.213 7     -2805.771 7        45.843    22607201.230 7
  92572677.795 7     -2186.436 7        43.356                                  
  21368637.820 8 112292942.683 8     -1708.232 8        49.528    21368647.309 7
  87501037.219 7     -1331.025 7        44.741                                  
  20149790.848 8 105887869.386 8      -439.717 8        50.649    20149799.031 7
  82510063.236 7      -342.607 7        44.741                                  
  22098441.824 7 116128104.820 7       152.100 7        46.273    22098455.531 7
  90489491.673 7       118.896 7        44.741                                  
 22  6 17  3 54  0.0000000  0  9G02G03G06G11G12G14G17G19G24          0.000000000
  23311379.965 7 122502141.161 7      3180.666 7        44.082    23311390.266 6
  95456258.524 6      2478.480 6        40.014                                  
  23902850.281 7 125610342.419 7         0.959 7        42.382    23902864.563 7
  97878259.270 7         1.332 7        44.741                                  
  20603777.305 8 108273599.353 8      1723.635 8        50.112    20603790.254 6
  84369077.360 6      1343.051 6        40.422                                  
  23311917.133 7 122504959.186 7      3593.303 7        44.575    23311930.254 6
  95458473.562 6      2799.926 6        39.840                                  
  23446639.750 6 123212935.850 6      3276.838 6        40.015    23446652.355 7
  96010129.688 7      2553.363 7        44.741                                  
  22623232.738 7 118885870.013 7     -2815.176 7        44.831    22623246.820 7
  92638380.660 7     -2193.729 7        43.334                                  
  21378406.566 8 112344278.058 8     -1714.004 8        49.848    21378416.199 7
  87541038.793 7     -1335.330 7        44.741                                  
  20152335.598 8 105901242.048 8      -451.658 8        50.974    20152343.867 7
  82520483.492 7      -351.988 7        44.741                                  
  22097631.211 7 116123842.025 7       132.307 7        47.014    22097644.348 7
  90486170.024 7       102.855 7        44.741                                  
 22  6 17  3 54 30.0000000  0  9G02G03G06G11G12G14G17G19G24          0.000000000
  23293246.746 6 122406857.530 6      3171.273 6        41.470    23293258.406 6
  95382011.652 6      2471.084 6        36.356                                  
  23902899.035 7 125610595.679 7       -18.609 7        42.198    23902912.328 7
  97878456.627 7       -13.916 7        44.741                                  
  20593987.918 8 108222156.491 8      1705.512 8        50.120    20594001.727 7
  84328995.048 7      1329.014 7        44.741                                  
  23291421.320 7 122397257.146 7      3585.688 7        43.346    23291433.211 6
  95374549.945 6      2795.107 6        38.303                                  
  23427940.602 6 123114670.476 6      3273.773 6        39.926    23427952.922 7
  95933559.288 7      2551.221 7        44.741                                  
  22639329.395 7 118970451.884 7     -2823.883 7        45.773    22639341.816 7
  92704288.519 7     -2200.400 7        43.502                                  
  21388206.035 8 112395776.120 8     -1719.820 8        49.453    21388216.051 7
  87581167.133 7     -1340.186 7        44.741                                  
  20154946.844 8 105914964.371 8      -463.375 8        50.934    20154955.098 7
  82531176.212 7      -361.104 7        44.741                                  
  22096932.742 7 116120173.721 7       111.898 7        46.915    22096946.348 7
  90483311.609 7        87.158 7        44.741                                  
 22  6 17  3 55  0.0000000  0  9G02G03G06G11G12G14G17G19G24          0.000000000
  23275163.543 7 122311828.286 7      3163.725 7        42.433    23275174.004 6
  95307963.005 6      2465.232 6        37.119                                  
  23903057.336 7 125611429.421 7       -36.295 7        42.407    23903071.746 7
  97879106.375 7       -28.986 7        44.741                                  
  20584300.063 8 108171246.037 8      1689.193 8        50.376    20584313.797 7
  84289324.613 7      1315.896 7        44.741                                  
  23270963.367 7 122289748.089 7      3581.264 7        44.012    23270976.773 6
  95290776.781 6      2790.623 6        40.425                                  
  23409259.703 6 123016501.448 6      3271.303 6        39.693    23409271.523 7
  95857064.065 7      2548.807 7        44.741                                  
  22655474.355 7 119055295.619 7     -2831.900 7        45.605    22655487.492 7
  92770400.440 7     -2206.623 7        43.191                                  
  21398036.492 8 112447435.599 8     -1724.361 8        48.865    21398045.977 7
  87621421.236 7     -1343.576 7        44.741                                  
  20157624.703 8 105929035.254 8      -474.264 8        50.924    20157632.859 7
  82542140.515 7      -369.514 7        44.741                                  
  22096348.395 7 116117099.520 7        92.982 7        47.075    22096361.445 7
  90480916.104 7        72.674 7        44.741                                  
 22  6 17  3 55 30.0000000  0  9G02G03G06G11G12G14G17G19G24          0.000000000
  23257128.941 7 122217055.431 7      3153.199 7        42.751    23257140.719 6
  95234114.134 6      2457.002 6        39.570                                  
  23903325.910 6 125612844.168 6       -57.760 6        41.687    23903341.020 7
  97880208.782 7       -45.068 7        44.741                                  
  20574713.324 8 108120869.155 8      1669.430 8        50.529    20574727.215 7
  84250068.933 7      1300.850 7        44.741                                  
  23250542.137 7 122182434.405 7      3573.023 7        44.151    23250555.172 6
  95207155.867 6      2784.229 6        40.376                                  
  23390596.789 6 122918430.169 6      3266.852 6        39.926    23390610.023 7
  95780644.963 7      2545.264 7        44.741                                  
  22671668.918 7 119140400.245 7     -2841.744 7        45.593    22671682.453 7
  92836715.641 7     -2214.365 7        43.063                                  
  21407897.805 8 112499255.589 8     -1730.670 8        49.558    21407907.277 7
  87661800.465 7     -1348.721 7        44.741                                  
  20160368.484 8 105943454.276 8      -487.428 8        50.755    20160376.410 7
  82553376.120 7      -379.775 7        44.741                                  
  22095875.895 7 116114619.192 7        72.064 7        47.411    22095889.875 7
  90478983.390 7        56.006 7        44.741                                  
 22  6 17  3 56  0.0000000  0  9G02G03G06G11G12G14G17G19G24          0.000000000
  23239143.574 6 122122542.273 6      3145.832 6        41.687    23239154.465 6
  95160467.630 6      2451.283 6        37.216                                  
  23903706.391 6 125614841.696 6       -76.473 6        41.175    23903721.141 7
  97881765.309 7       -59.693 7        44.741                                  
  20565229.188 8 108071028.320 8      1652.121 8        50.664    20565242.395 7
  84211228.946 7      1287.357 7        44.741                                  
  23230159.406 7 122075319.649 7      3566.848 7        45.017    23230172.082 6
  95123689.904 6      2779.486 6        40.785                                  
  23371953.484 6 122820460.177 6      3263.332 6        40.477    23371966.633 7
  95704304.793 7      2543.236 7        44.741                                  
  22687914.141 7 119225766.184 7     -2850.262 7        45.761    22687926.805 7
  92903234.476 7     -2220.982 7        42.196                                  
  21417788.746 8 112551236.495 8     -1735.574 8        48.940    21417798.832 7
  87702305.044 7     -1352.389 7        44.741                                  
  20163178.234 8 105958221.824 8      -498.172 8        50.421    20163186.734 7
  82564883.301 7      -388.248 7        44.741                                  
  22095516.305 7 116112733.886 7        52.941 7        45.714    22095531.098 7
  90477514.313 7        41.010 7        44.741                                  
 22  6 17  3 56 30.0000000  0  9G02G03G06G11G12G14G17G19G24          0.000000000
  23221208.289 7 122028289.019 7      3138.113 7        43.003    23221218.836 6
  95087023.653 6      2445.299 6        38.809                                  
  23904196.910 6 125617421.118 6       -95.111 6        40.397    23904212.277 7
  97883775.283 7       -74.486 7        44.741                                  
  20555846.938 8 108021723.248 8      1634.617 8        50.163    20555859.902 7
  84172810.438 7      1273.697 7        44.741                                  
  23209813.164 7 121968404.786 7      3560.379 7        43.003    23209827.945 6
  95040379.756 6      2774.752 6        41.945                                  
  23353330.785 6 122722591.822 6      3260.535 6        41.406    23353342.934 7
  95628043.764 7      2540.787 7        44.741                                  
  22704207.445 7 119311391.099 7     -2858.432 7        44.543    22704220.840 7
  92969955.091 7     -2227.396 7        42.019                                  
  21427710.738 8 112603375.811 8     -1740.307 8        48.676    21427721.113 7
  87742933.054 7     -1356.342 7        44.741                                  
  20166054.523 8 105973335.985 8      -509.467 8        49.844    20166062.969 7
  82576660.573 7      -396.986 7        44.741                                  
  22095271.188 7 116111442.030 7        33.385 7        46.220    22095284.652 7
  90476507.652 7        26.080 7        44.741                                  
 22  6 17  3 57  0.0000000  0  9G02G03G06G11G12G14G17G19G24          0.000000000
  23203322.277 7 121934297.455 7      3128.428 7        43.959    23203332.047 6
  95013783.571 6      2437.711 6        40.321                                  
  23904799.516 6 125620582.503 6      -115.225 6        41.502    23904813.496 7
  97886238.706 7       -89.926 7        44.741                                  
  20546566.469 8 107972954.625 8      1616.396 8        50.837    20546579.949 7
  84134810.946 7      1259.352 7        44.741                                  
  23189506.465 7 121861691.690 7      3553.447 7        42.845    23189519.027 6
  94957226.805 6      2768.941 6        39.744                                  
  23334726.305 6 122624826.493 6      3256.006 6        40.710    23334738.012 7
  95551863.096 7      2537.691 7        44.741                                  
  22720550.449 7 119397273.706 7     -2867.646 7        44.845    22720563.973 7
  93036876.507 7     -2234.613 7        42.510                                  
  21437662.398 8 112655672.479 8     -1746.455 8        48.682    21437673.102 7
  87783683.654 7     -1360.590 7        44.741                                  
  20168996.398 8 105988795.204 8      -521.416 8        49.944    20169004.641 7
  82588706.701 7      -406.352 7        44.741                                  
  22095138.156 7 116110742.977 7        13.252 7        45.808    22095152.195 7
  90475962.944 7        10.113 7        44.741                                  
 22  6 17  3 57 30.0000000  0  9G02G03G06G11G12G14G17G19G24          0.000000000
  23185486.328 7 121840569.813 7      3120.340 7        43.995    23185496.188 6
  94940749.163 6      2431.418 6        39.677                                  
  23905511.715 7 125624326.71817      -134.484 7        42.006    23905526.426 7
  97889156.30417      -104.736 7        44.741                                  
  20537388.156 8 107924724.105 8      1598.914 8        50.920    20537402.066 7
  84097228.755 7      1246.047 7        44.741                                  
  23169238.527 7 121755183.19317      3547.078 7        43.366    23169251.648 6
  94874233.27016      2764.016 6        41.103                                  
  23316141.703 6 122527166.402 6      3253.758 6        40.437    23316155.039 7
  95475764.400 7      2535.363 7        44.741                                  
  22736942.949 7 119483413.55917     -2875.715 7        44.989    22736954.684 6
  93103998.37216     -2240.791 6        41.281                                  
  21447644.238 8 112708126.38818     -1750.891 8        48.742    21447654.598 7
  87824556.81717     -1363.916 7        44.741                                  
  20172003.938 8 106004599.415 8      -532.121 8        50.298    20172011.965 7
  82601021.678 7      -414.619 7        44.741                                  
  22095118.441 7 116110637.052 7        -5.969 7        46.740    22095132.008 7
  90475880.363 7        -4.639 7        44.741                                  
 22  6 17  3 58  0.0000000  0  9G02G03G06G11G12G14G17G19G24          0.000000000
  23167701.621 7 121747108.979 7      3110.365 7        44.465    23167710.766 6
  94867922.605 6      2423.574 6        39.478                                  
  23906335.543 6 125628655.297 6      -154.400 6        41.470    23906349.551 7
  97892529.204 7      -119.883 7        44.741                                  
  20528313.172 8 107877033.802 8      1580.424 8        51.155    20528326.992 6
  84060066.521 6      1231.426 6        41.451                                  
  23149009.523 7 121648882.650 7      3539.330 7        43.135    23149024.121 6
  94791401.808 6      2758.027 6        40.309                                  
  23297578.289 6 122429614.500 6      3249.486 6        40.931    23297590.598 7
  95399749.996 7      2532.383 7        44.741                                  
  22753384.258 7 119569810.729 7     -2884.068 7        45.222    22753396.148 6
  93171320.770 6     -2247.363 6        41.768                                  
  21457655.996 8 112760737.490 8     -1756.549 8        49.558    21457666.129 7
  87865552.469 7     -1368.711 7        44.741                                  
  20175077.168 8 106020749.010 8      -544.322 8        50.120    20175084.867 7
  82613605.762 7      -424.199 7        44.741                                  
  22095211.785 7 116111124.958 7       -26.295 7        47.305    22095224.277 7
  90476260.559 7       -20.684 7        44.741                                  
 22  6 17  3 58 30.0000000  0  9G02G03G06G11G12G14G17G19G24          0.000000000
  23149967.051 7 121653914.977 7      3102.102 7        43.850    23149977.539 6
  94795303.983 6      2417.234 6        40.668                                  
  23907270.316 6 125633566.836 6      -173.777 6        40.858    23907284.270 7
  97896356.391 7      -135.070 7        44.741                                  
  20519341.121 8 107829882.998 8      1562.941 8        51.355    20519354.500 7
  84023326.663 7      1217.801 7        44.741                                  
  23128820.641 7 121542790.638 7      3533.098 7        42.680    23128834.250 6
  94708732.835 6      2753.074 6        38.562                                  
  23279035.535 7 122332170.710 7      3246.262 7        42.198    23279048.801 7
  95323819.872 7      2529.813 7        44.741                                  
  22769872.840 7 119656462.576 7     -2892.217 7        44.202    22769886.348 6
  93238841.580 6     -2253.664 6        41.834                                  
  21467697.141 8 112813503.645 8     -1761.201 8        49.315    21467707.059 7
  87906668.945 7     -1372.590 7        44.741                                  
  20178215.559 8 106037241.631 8      -555.242 8        50.046    20178223.430 7
  82626457.157 7      -432.707 7        44.741                                  
  22095417.223 7 116112204.723 7       -45.633 7        47.263    22095429.426 7
  90477101.916 7       -35.578 7        44.741                                  
 22  6 17  3 59  0.0000000  0  9G02G03G06G11G12G14G17G19G24          0.000000000
  23132282.695 7 121560990.414 7      3092.703 7        42.251    23132295.273 6
  94722895.373 6      2409.932 6        40.172                                  
  23908315.406 6 125639062.470 6      -194.150 6        39.397    23908331.246 7
  97900638.688 7      -150.771 7        44.741                                  
  20510471.371 8 107783273.528 8      1544.229 8        51.289    20510484.590 7
  83987006.638 7      1203.115 7        44.741                                  
  23108672.387 6 121436910.305 6      3525.125 6        41.950    23108686.809 6
  94626228.688 6      2747.256 6        38.261                                  
  23260513.090 6 122234837.874 6      3242.059 6        40.895    23260525.926 7
  95247976.162 7      2526.553 7        44.741                                  
  22786410.203 7 119743368.950 7     -2901.045 7        43.178    22786423.523 6
  93306560.725 6     -2260.518 6        41.474                                  
  21477767.754 8 112866424.570 8     -1766.982 8        49.090    21477777.398 7
  87947906.007 7     -1376.807 7        44.741                                  
  20181419.332 8 106054077.016 8      -567.275 8        49.783    20181427.516 7
  82639575.638 7      -442.178 7        44.741                                  
  22095735.258 7 116113876.765 7       -65.713 7        47.049    22095748.082 7
  90478404.813 7       -51.279 7        44.741                                  
 22  6 17  3 59 30.0000000  0  9G02G03G06G11G12G14G17G19G24          0.000000000
  23114652.332 7 121468337.895 7      3083.719 7        43.113    23114662.207 6
  94650698.691 6      2402.939 6        38.539                                  
  23909471.723 6 125645143.268 6      -212.025 6        37.346    23909487.938 7
  97905376.979 7      -165.754 7        44.741                                  
  20501705.406 8 107737207.199 8      1526.355 8        51.641    20501718.602 7
  83951110.820 7      1189.326 7        44.741                                  
  23088564.816 7 121331244.666 7      3517.918 7        42.433    23088578.195 6
  94543891.924 6      2741.611 6        38.233                                  
  23242012.871 6 122137618.670 6      3238.406 6        40.967    23242025.535 7
  95172221.011 7      2523.604 7        44.741                                  
  22802996.840 7 119830529.645 7     -2909.975 7        44.335    22803010.102 6
  93374478.039 6     -2267.453 6        41.118                                  
  21487867.316 8 112919500.150 8     -1771.830 8        49.309    21487877.578 7
  87989263.583 7     -1380.734 7        44.741                                  
  20184688.258 8 106071255.131 8      -578.510 8        50.261    20184696.156 7
  82652961.165 7      -450.793 7        44.741                                  
  22096166.102 7 116116141.564 7       -85.580 7        47.600    22096179.164 7
  90480169.579 7       -66.652 7        44.741                                  
 22  6 17  4  0  0.0000000  0  9G02G03G06G11G12G14G17G19G24          0.000000000
  23097072.715 7 121375957.618 7      3074.758 7        42.845    23097084.508 6
  94578714.160 6      2395.898 6        39.496                                  
  23910740.031 6 125651807.688 6      -232.234 6        37.662    23910756.156 7
  97910570.015 7      -180.703 7        44.741                                  
  20493042.422 8 107691683.099 8      1508.449 8        51.495    20493055.543 7
  83915636.520 7      1175.645 7        44.741                                  
  23068498.832 7 121225794.112 7      3512.375 7        42.936    23068511.898 6
  94461722.766 6      2736.309 6        39.153                                  
  23223535.637 7 122040513.157 7      3234.680 7        43.448    23223547.488 7
  95096554.399 7      2520.996 7        44.741                                  
  22819630.785 7 119917941.795 7     -2917.645 7        43.157    22819643.750 6
  93442591.297 6     -2273.457 6        40.738                                  
  21497996.305 8 112972727.717 8     -1776.629 8        48.945    21498006.707 7
  88030739.570 7     -1384.609 7        44.741                                  
  20188021.957 8 106088773.454 8      -589.441 8        50.172    20188029.555 7
  82666611.800 7      -459.277 7        44.741                                  
  22096708.789 7 116118996.835 7      -104.734 7        46.069    22096723.098 7
  90482394.486 7       -81.895 7        44.741                                  
 22  6 17  4  0 30.0000000  0  9G02G03G06G11G12G14G17G19G24          0.000000000
  23079546.969 7 121283851.883 7      3065.236 7        45.222    23079557.441 7
  94506943.552 7      2388.572 7        42.531                                  
  23912119.016 6 125659056.811 6      -250.953 6        36.438    23912135.785 7
  97916218.676 7      -196.271 7        44.477                                  
  20484482.953 8 107646703.001 8      1490.412 8        51.735    20484495.789 7
  83880586.121 7      1161.385 7        44.741                                  
  23048472.980 6 121120561.825 6      3503.811 6        41.806    23048488.137 6
  94379723.643 6      2730.271 6        39.629                                  
  23205078.648 7 121943523.700 7      3231.096 7        44.134    23205089.480 7
  95020978.324 7      2518.006 7        44.741                                  
  22836313.164 7 120005605.327 7     -2926.285 7        43.850    22836325.113 6
  93510900.440 6     -2280.217 6        40.602                                  
  21508154.266 8 113026107.766 8     -1782.145 8        49.024    21508164.609 7
  88072334.373 7     -1388.459 7        44.741                                  
  20191420.254 8 106106632.140 8      -600.699 8        50.372    20191428.266 7
  82680527.642 7      -467.912 7        44.741                                  
  22097364.160 7 116122443.067 7      -124.645 7        45.072    22097378.738 7
  90485079.854 7       -96.994 7        44.741                                  
 22  6 17  4  1  0.0000000  0  9G02G03G06G11G12G14G17G19G24          0.000000000
  23062071.754 7 121192022.304 7      3056.938 7        45.327    23062082.285 6
  94435388.129 6      2381.961 6        40.630                                  
  23913610.637 6 125666890.556 6      -270.543 6        36.731    23913625.977 7
  97922322.841 7      -210.715 7        44.328                                  
  20476026.969 8 107602267.540 8      1472.973 8        51.393    20476040.234 7
  83845962.107 7      1147.781 7        44.741                                  
  23028490.082 7 121015549.701 7      3497.270 7        42.558    23028502.617 6
  94297896.125 6      2725.125 6        38.544                                  
  23186644.719 7 121846651.729 7      3227.660 7        44.496    23186656.609 7
  94945493.742 7      2514.930 7        44.741                                  
  22853042.500 7 120093518.805 7     -2933.902 7        44.219    22853055.508 6
  93579404.336 6     -2286.164 6        40.936                                  
  21518341.008 8 113079638.643 8     -1786.051 8        49.231    21518351.281 7
  88114046.749 7     -1391.906 7        44.741                                  
  20194883.395 8 106124830.071 8      -611.363 8        50.364    20194891.352 7
  82694707.839 7      -476.398 7        44.741                                  
  22098132.734 7 116126479.485 7      -143.863 7        45.248    22098147.387 7
  90488225.063 7      -111.984 7        44.741                                  
 22  6 17  4  1 30.0000000  0  9G02G03G06G11G12G14G17G19G24          0.000000000
  23044649.688 7 121100471.164 7      3047.045 7        44.697    23044660.391 6
  94364049.643 6      2374.285 6        40.089                                  
  23915210.781 5 125675309.729 5      -289.107 5        33.527    23915227.563 7
  97928883.250 7      -226.201 7        42.217                                  
  20467674.926 8 107558378.283 8      1454.018 8        51.144    20467688.648 7
  83811762.722 7      1132.764 7        44.741                                  
  23008550.457 7 120910760.727 7      3489.232 7        44.219    23008562.734 6
  94216242.432 6      2718.973 6        40.895                                  
  23168232.742 7 121749900.156 7      3223.021 7        44.202    23168244.391 7
  94870102.939 7      2511.727 7        44.741                                  
  22869819.117 7 120181681.956 7     -2942.602 7        43.135    22869832.297 6
  93648102.790 6     -2292.979 6        40.654                                  
  21528556.289 8 113133320.128 8     -1791.352 8        48.990    21528566.160 7
  88155876.461 7     -1396.357 7        44.741                                  
  20198410.555 8 106143366.870 8      -623.326 8        50.120    20198418.656 7
  82709152.082 7      -485.732 7        44.741                                  
  22099012.270 7 116131106.221 7      -163.932 7        44.352    22099028.137 7
  90491830.295 7      -127.842 7        44.741                                  
 22  6 17  4  2  0.0000000  0  9G02G03G06G11G12G14G17G19G24          0.000000000
  23027282.211 7 121009199.473 7      3037.533 7        45.750    23027292.016 6
  94292928.931 6      2366.855 6        41.774                                  
  23916927.047 6 125684313.623 6      -310.279 6        36.635    23916941.125 7
  97935899.205 7      -241.582 7        43.194                                  
  20459427.129 8 107515035.060 8      1435.736 8        51.483    20459440.652 7
  83777988.797 7      1119.043 7        44.741                                  
  22988650.973 7 120806196.005 7      3482.201 7        42.433    22988665.594 6
  94134763.517 6      2713.066 6        40.259                                  
  23149844.594 7 121653269.720 7      3219.193 7        44.253    23149856.801 7
  94794806.592 7      2508.184 7        44.741                                  
  22886644.176 7 120270092.709 7     -2951.314 7        44.368    22886656.695 6
  93716994.181 6     -2299.748 6        40.482                                  
  21538799.258 8 113187150.609 8     -1796.939 8        48.882    21538809.664 7
  88197822.250 7     -1399.963 7        44.741                                  
  20202002.473 8 106162241.031 8      -634.518 8        50.273    20202010.473 7
  82723859.212 7      -494.416 7        44.741                                  
  22100005.492 7 116136321.798 7      -183.717 7        45.843    22100019.672 7
  90495894.352 7      -143.027 7        44.741                                  
 22  6 17  4  2 30.0000000  0  9G02G03G06G11G12G14G17G19G24          0.000000000
  23009966.305 7 120918209.627 7      3028.152 7        45.003    23009976.063 6
  94222027.839 6      2359.574 6        40.092                                  
  23918751.688 5 125693902.990 5      -329.191 5        35.785    23918765.852 7
  97943371.444 7      -257.125 7        42.594                                  
  20451283.844 8 107472239.592 8      1416.863 8        51.890    20451297.078 7
  83744643.711 7      1103.988 7        44.741                                  
  22968797.758 7 120701858.788 7      3473.426 7        44.269    22968810.363 6
  94053461.865 6      2706.840 6        41.772                                  
  23131481.109 7 121556763.447 7      3214.520 7        45.431    23131492.414 7
  94719606.912 7      2504.633 7        44.741                                  
  22903514.355 7 120358750.877 7     -2959.855 7        43.387    22903527.652 6
  93786078.353 6     -2306.383 6        40.788                                  
  21549071.617 8 113241130.270 8     -1802.063 8        49.128    21549081.949 7
  88239884.317 7     -1404.527 7        44.741                                  
  20205658.258 8 106181452.597 8      -646.594 8        50.240    20205666.031 7
  82738829.243 7      -503.863 7        44.741                                  
  22101109.805 7 116142126.527 7      -203.566 7        45.654    22101124.602 7
  90500417.524 7      -158.844 7        44.741                                  
 22  6 17  4  3  0.0000000  0  9G02G03G06G11G12G14G17G19G24          0.000000000
  22992705.477 7 120827502.586 7      3019.133 7        45.443    22992715.809 6
  94151347.084 6      2352.494 6        40.946                                  
  23920688.785 6 125704077.498 6      -348.855 6        36.915    23920702.578 7
  97951299.618 7      -272.311 7        43.502                                  
  20443244.145 8 107429992.079 8      1399.191 8        51.364    20443257.309 6
  83711721.591 6      1090.248 6        40.265                                  
  22948985.887 7 120597750.545 7      3466.555 7        43.113    22948998.719 6
  93972338.632 6      2701.146 6        40.172                                  
  23113139.223 7 121460382.142 7      3210.871 7        44.253    23113150.324 7
  94644504.666 7      2501.635 7        44.741                                  
  22920432.609 7 120447654.818 7     -2967.330 7        43.527    22920445.672 6
  93855354.043 6     -2312.174 6        40.864                                  
  21559372.008 8 113295257.784 8     -1806.707 8        48.748    21559382.098 7
  88282061.564 7     -1407.838 7        44.741                                  
  20209377.711 8 106200999.887 8      -657.078 8        49.912    20209385.910 7
  82754060.884 7      -511.900 7        44.741                                  
  22102326.723 7 116148519.277 7      -222.938 7        46.458    22102340.305 7
  90505398.879 7      -173.775 7        44.741                                  
 22  6 17  4  3 30.0000000  0  9G02G03G06G11G12G14G17G19G24          0.000000000
  22975498.480 7 120737081.422 7      3008.850 7        44.543    22975510.359 7
  94080889.138 7      2344.541 7        42.503                                  
  23922735.809 5 125714837.897 5      -367.068 5        35.785    23922749.789 7
  97959684.352 7      -286.865 7        43.174                                  
  20435309.078 8 107388294.158 8      1380.998 8        51.358    20435322.328 7
  83679228.721 7      1076.123 7        44.741                                  
  22929218.547 7 120493874.343 7      3458.479 7        43.221    22929232.715 6
  93891396.203 6      2695.186 6        40.619                                  
  23094822.836 7 121364128.496 7      3206.545 7        44.575    23094834.984 7
  94569501.921 7      2498.311 7        44.741                                  
  22937397.539 7 120536804.311 7     -2976.033 7        43.507    22937410.789 6
  93924821.085 6     -2318.975 6        40.045                                  
  21569699.766 8 113349532.646 8     -1811.189 8        49.150    21569710.566 7
  88324353.647 7     -1411.689 7        44.741                                  
  20213161.301 8 106220883.035 8      -668.221 8        49.736    20213169.430 7
  82769554.230 7      -520.596 7        44.741                                  
  22103655.855 7 116155500.250 7      -242.146 7        46.969    22103668.934 7
  90510838.620 7      -188.701 7        44.741                                  
 22  6 17  4  4  0.0000000  0  9G02G03G06G11G12G14G17G19G24          0.000000000
  22958348.090 7 120646946.970 7      3000.172 7        47.427    22958357.461 7
  94010654.639 7      2337.865 7        44.642                                  
  23924894.098 5 125726183.830 5      -386.137 5        34.575    23924909.051 6
