     2.11           OBSERVATION DATA    M (MIXED)           RINEX VERSION / TYPE
JPS2RIN v.2.1.236   JAVAD GNSS          20220908 024818 UTC PGM / RUN BY / DATE
                                                            OBSERVER / AGENCY
ABD60613a                                                   MARKER NAME
AGKN9CB4BUO         JAVAD E_GGD         2.3 Aug,01,2003 p2  REC # / TYPE / VERS
  1468141.1274  4531968.2462  4228491.8047                  APPROX POSITION XYZ
-Unknown-                                                   ANT # / TYPE
        0.0000        0.0000        0.0000                  ANTENNA: DELTA H/E/N
     1     1                                                WAVELENGTH FACT L1/2
     5    C1    D1    S1    D2    S2                        # / TYPES OF OBSERV
    30.000                                                  INTERVAL
  2015     6    13     8    33   30.0000000     GPS         TIME OF FIRST OBS
  2015     6    13    23    59   30.0000000     GPS         TIME OF LAST OBS
    16                                                      LEAP SECONDS
    40                                                      # OF SATELLITES
   G 1   468   468     0     0     0                        PRN / # OF OBS
   G 2   716   716     0     0     0                        PRN / # OF OBS
   G 3   122   122     0     0     0                        PRN / # OF OBS
   G 4   413   413     0     0     0                        PRN / # OF OBS
   G 5   548   548     0     0     0                        PRN / # OF OBS
   G 6   591   591     0     0     0                        PRN / # OF OBS
   G 7    29    29     0     0     0                        PRN / # OF OBS
   G10   397   397     0     0     0                        PRN / # OF OBS
   G11   431   431     0     0     0                        PRN / # OF OBS
   G12   650   650     0     0     0                        PRN / # OF OBS
   G13   551   551     0     0     0                        PRN / # OF OBS
   G14   617   617     0     0     0                        PRN / # OF OBS
   G15   648   648     0     0     0                        PRN / # OF OBS
   G16   186   186     0     0     0                        PRN / # OF OBS
   G17   521   521     0     0     0                        PRN / # OF OBS
   G18   778   778     0     0     0                        PRN / # OF OBS
   G19   371   371     0     0     0                        PRN / # OF OBS
   G20   624   624     0     0     0                        PRN / # OF OBS
   G21   756   756     0     0     0                        PRN / # OF OBS
   G22   756   756     0     0     0                        PRN / # OF OBS
   G24   806   806     0     0     0                        PRN / # OF OBS
   G25   621   621     0     0     0                        PRN / # OF OBS
   G26   275   275     0     0     0                        PRN / # OF OBS
   G27   448   448     0     0     0                        PRN / # OF OBS
   G28   356   356     0     0     0                        PRN / # OF OBS
   G29   689   689     0     0     0                        PRN / # OF OBS
   G30   181   181     0     0     0                        PRN / # OF OBS
   G31   304   304     0     0     0                        PRN / # OF OBS
   G32   331   331     0     0     0                        PRN / # OF OBS
   R 1   695   695     0     0     0                        PRN / # OF OBS
   R 3   197   197     0     0     0                        PRN / # OF OBS
   R 4   273   273     0     0     0                        PRN / # OF OBS
   R 5   354   354     0     0     0                        PRN / # OF OBS
   R 7   541   541     0     0     0                        PRN / # OF OBS
   R 8   587   587     0     0     0                        PRN / # OF OBS
   R19   559   559     0     0     0                        PRN / # OF OBS
   R20   694   694     0     0     0                        PRN / # OF OBS
   R21   665   665     0     0     0                        PRN / # OF OBS
   R23   555   555     0     0     0                        PRN / # OF OBS
   R24   476   476     0     0     0                        PRN / # OF OBS
L1 is phase on P1, L2 is phase on P2 (GPS & GLONASS)        COMMENT
Phase shifts:                                               COMMENT
                                                            END OF HEADER
 15  6 13  8 33 30.0000000  0 10G 1G 4G 7G11G13G15G17G28G30R19       0.000059996
       247.924         624.862
        73.197       -1082.665
       107.777       -3189.989
      -299.146       -1274.839
        -2.907        -780.628
      -306.511         668.373
       305.611        2113.602
       -32.730          58.113
       -78.520       -1818.540
      -279.783        4523.688
 15  6 13  8 34  0.0000000  0 10G 1G 4G 7G11G13G15G17G28G30R19       0.000056330
      -118.156         650.721
       279.257       -1056.577
      -139.263       -3152.700
      -307.556       -1248.397
      -210.257        -754.732
      -270.051         695.987
       -58.109        2145.785
       175.320          97.858
      -273.680       -1787.380
      -206.393        4563.293
 15  6 13  8 34 30.0000000  0 10G 1G 4G 7G11G13G15G17G28G30R19       0.000051862
        43.214         669.288
      -298.473       -1037.751
        76.157       -3122.686
       208.224       -1229.231
       110.333        -736.063
       283.759         716.329
        70.581        2170.634
       176.510         130.305
        28.990       -1763.504
       325.567        4595.328
 15  6 13  8 35  0.0000000  0 10G 1G 4G 7G11G13G15G17G28G30R19       0.000046712
       114.184         681.758
      -314.473       -1024.922
       135.667       -3098.601
       -25.676       -1216.025
      -315.887        -723.341
        80.839         730.614
        72.241        2189.459
         7.990         156.781
       210.590       -1745.601
        34.486        4621.171
 15  6 13  8 35 30.0000000  0 10G 1G 4G 7G11G13G15G17G28G30R19       0.000040993
       128.944         689.694
       267.457       -1016.432
        71.447       -3078.998
      -319.996       -1207.314
      -144.636        -715.102
      -189.121         740.397
       -18.619        2203.712
      -296.920         178.697
       304.540       -1732.196
       271.326        4642.237
 15  6 13  8 36  0.0000000  0 10G 1G 4G 7G11G13G15G17G28G30R19       0.000034779
       108.804         694.687
       155.357       -1010.900
       -93.663       -3062.230
         1.904       -1201.456
       -10.316        -709.741
       151.479         747.258
      -180.289        2215.012
       -61.070         197.695
      -322.460       -1721.701
      -256.214        4660.284
 15  6 13  8 36 30.0000000  0 10G 1G 4G 7G11G13G15G17G28G30R19       0.000028132
        73.794         695.430
        24.477       -1009.526
       313.027       -3049.648
       302.444       -1199.735
       106.964        -708.540
      -189.681         749.899
       261.881        2222.086
        79.130         212.475
       313.670       -1715.386
      -214.214        4673.857
 15  6 13  8 37  0.0000000  0 10G 1G 4G 7G11G13G15G17G28G30R19       0.000021111
        40.124         693.291
      -108.803       -1011.032
        -0.683       -3039.840
       -55.976       -1200.834
       222.624        -710.180
       115.739         749.743
        14.761        2226.291
       141.230         224.437
       264.600       -1711.858
      -244.384        4684.456
 15  6 13  8 37 30.0000000  0 10G 1G 4G 7G11G13G15G17G28G30R19       0.000013771
        25.714         689.597
      -224.643       -1013.891
       290.127       -3031.513
       254.174       -1203.451
      -301.496        -713.227
      -227.271         747.958
      -249.889        2228.931
       141.760         234.828
       202.000       -1709.877
      -325.214        4693.417
 15  6 13  8 38  0.0000000  0 10G 1G 4G 7G11G13G15G17G28G30R19       0.000006135
        37.324         683.904
      -322.333       -1019.008
      -116.483       -3025.123
       -71.736       -1207.943
      -147.836        -718.225
       101.699         744.224
       130.891        2229.578
        87.830         243.214
       132.900       -1709.829
       202.806        4700.208
 15  6 13  8 38 30.0000000  0 10G 1G 4G 7G11G13G15G17G28G30R19      -0.000001775
        80.974         677.722
       265.617       -1023.998
        95.837       -3019.082
       283.434       -1212.852
        33.864        -723.621
      -204.351         740.094
      -147.489        2229.753
       -14.140         251.202
        63.180       -1710.193
        38.396        4706.443
 15  6 13  8 39  0.0000000  0 10G 1G 4G 7G11G13G15G17G28G30R19      -0.000009940
       162.874         670.972
       228.967       -1030.055
       276.237       -3013.552
        13.564       -1218.266
       249.004        -729.531
       171.629         735.351
       231.281        2229.341
      -159.320         258.620
        -1.890       -1711.080
      -159.704        4712.004
 15  6 13  8 39 30.0000000  0 10G 1G 4G 7G11G13G15G17G28G30R19      -0.000018352
       286.444         663.595
       231.147       -1036.249
      -228.333       -3008.565
      -222.796       -1224.203
      -154.526        -735.916
       -78.411         730.052
       -40.329        2228.327
       311.890         265.439
       -59.230       -1712.529
       273.696        4716.890
 15  6 13  8 40  0.0000000  0 10G 1G 4G 7G11G13G15G17G28G30R19      -0.000026980
      -195.946         653.571
       275.447       -1045.211
       -98.323       -3006.146
       236.634       -1232.715
       140.914        -744.938
      -290.661         722.092
      -298.359        2224.632
        95.980         269.613
      -100.660       -1716.582
        26.726        4718.938
 15  6 13  8 40 30.0000000  0  9G 1G 7G11G13G15G17G28G30R19         -0.000035802
        35.134         642.905
        18.647       -3004.311
        91.084       -1241.805
      -166.936        -754.485
       198.119         713.556
       120.111        2220.320
      -143.340         273.196
      -118.820       -1721.220
      -227.185        4720.305
 15  6 13  8 41  0.0000000  0  9G 1G 7G11G13G15G17G28G30R19         -0.000044807
       326.324         632.518
       122.847       -3002.079
        -4.516       -1250.551
       233.264        -763.690
        79.619         705.290
       -92.539        2216.284
       251.430         277.046
      -111.260       -1725.527
       164.775        4721.788
 15  6 13  8 41 30.0000000  0  9G 1G 7G11G13G15G17G28G30R19         -0.000053986
        24.934         620.998
       220.077       -3000.905
       -45.766       -1260.341
        35.714        -773.953
        12.499         695.937
      -277.830        2211.104
       -26.810         279.776
       -75.390       -1730.896
      -100.735        4722.070
 15  6 13  8 42  0.0000000  0  9G 1G 7G11G13G15G17G28G30R19         -0.000063329
      -209.896         609.304
       308.238       -2999.817
       -31.506       -1270.192
      -103.836        -784.285
        -0.781         686.452
       222.130        2205.781
      -320.360         282.383
        -8.160       -1736.391
       286.015        4722.123
 15  6 13  8 42 30.0000000  0  9G 1G 7G11G13G15G17G28G30R19         -0.000072833
       278.144         596.636
      -262.712       -2999.664
        39.845       -1280.978
      -183.526        -795.541
        40.209         675.990
        97.290        2199.444
        27.090         284.014
        90.511       -1742.821
        19.105        4721.042
 15  6 13  8 43  0.0000000  0  9G 1G 7G11G13G15G17G28G30R19         -0.000082480
       183.814         584.023
      -178.262       -2999.383
       173.115       -1291.636
      -198.666        -806.658
       141.359         665.609
         9.990        2193.167
      -289.550         285.691
       226.601       -1749.143
      -242.365        4719.895
 15  6 13  8 43 30.0000000  0  9G 1G 7G11G13G15G17G28G30R19         -0.000092273
       161.784         571.160
       -97.202       -2999.205
      -288.235       -1302.467
      -150.416        -817.954
       302.419         655.032
       -41.770        2186.673
        39.850         287.159
      -256.559       -1755.658
       161.315        4718.518
 15  6 13  8 44  0.0000000  0  9G 1G 7G11G13G15G17G28G30R19         -0.000102212
       211.354         559.541
       -17.482       -2997.777
       -34.205       -1311.962
       -39.676        -827.913
      -133.171         645.676
       -58.080        2181.391
      -296.020         289.865
       -49.069       -1760.874
       -85.645        4718.195
 15  6 13  8 44 30.0000000  0  9G 1G 7G11G13G15G17G28G30R19         -0.000112309
      -325.956         546.670
        54.958       -2997.467
       275.655       -1322.621
       130.584        -839.034
       141.999         635.136
       -41.580        2174.880
         9.920         291.388
       190.531       -1767.260
       325.455        4716.536
 15  6 13  8 45  0.0000000  0  9G 1G 7G11G13G15G17G28G30R19         -0.000122556
      -136.326         534.312
       123.448       -2996.583
       -10.685       -1332.709
      -294.476        -849.567
      -180.671         625.108
         9.650        2168.844
       305.060         293.364
      -191.459       -1773.131
        90.185        4715.380
 15  6 13  8 45 30.0000000  0  9G 1G 7G11G13G15G17G28G30R19         -0.000132934
       129.644         520.446
       193.948       -2997.159
      -233.915       -1344.213
         2.274        -861.536
       216.249         613.608
       101.470        2161.307
       -60.490         293.832
       121.401       -1780.449
      -131.805        4712.499
 15  6 13  8 46  0.0000000  0  9G 1G 7G11G13G15G17G28G30R19         -0.000143444
      -182.406         507.887
       262.578       -2996.364
       261.335       -1354.364
      -290.676        -872.115
        20.069         603.442
       233.800        2155.081
       224.490         295.656
      -181.309       -1786.395
       315.245        4710.922
 15  6 13  8 46 30.0000000  0  9G 1G 7G11G13G15G17G28G30R19         -0.000154091
       235.104         494.277
      -322.532       -2996.473
       162.315       -1365.463
       135.384        -883.668
      -114.671         592.250
      -250.250        2147.798
      -153.370         296.439
       207.821       -1793.333
       118.014        4708.124
 15  6 13  8 47  0.0000000  0  9G 1G 7G11G13G15G17G28G30R19         -0.000164868
        76.644         479.098
      -253.472       -2998.106
       127.385       -1378.062
       -26.966        -896.717
      -183.501         579.499
       -35.920        2138.931
       121.120         295.661
       -17.499       -1801.805
       -61.046        4703.676
 15  6 13  8 47 30.0000000  0  9G 1G 7G11G13G15G17G28G30R19         -0.000175727
         8.624         463.454
      -170.882       -3000.001
       168.275       -1391.077
      -111.596        -910.144
      -176.341         566.323
       232.530        2129.614
      -251.450         294.393
      -190.719       -1810.697
      -210.196        4698.650
 15  6 13  8 48  0.0000000  0  8G 1G11G13G15G17G28G30R19            -0.000186673
        29.924         448.072
       283.925       -1403.738
      -119.466        -923.233
       -93.501         553.423
      -100.590        2120.539
        38.770         293.414
      -312.559       -1819.277
       323.844        4693.771
 15  6 13  8 48 30.0000000  0  8G 1G11G13G15G17G28G30R19            -0.000197724
       136.714         432.970
      -186.695       -1416.058
       -55.176        -935.950
        59.399         540.852
       270.970        2111.746
      -323.260         292.713
       266.681       -1827.519
       228.804        4689.132
 15  6 13  8 49  0.0000000  0  8G 1G11G13G15G17G28G30R19            -0.000208857
      -320.066         415.652
        73.295       -1430.493
        86.814        -950.812
       289.629         526.064
        42.410        2100.723
       -20.581         289.788
       243.131       -1837.951
       163.814        4682.064
 15  6 13  8 49 30.0000000  0  8G 1G11G13G15G17G28G30R19            -0.000220027
       -16.606         396.574
      -232.845       -1446.663
       320.014        -967.397
       -43.031         509.529
      -116.330        2087.901
       305.209         285.081
       285.321       -1850.099
       145.794        4673.142
 15  6 13  8 50  0.0000000  0  8G 1G11G13G15G17G28G30R19            -0.000231240
      -264.506         378.776
       202.715       -1461.427
       -12.846        -982.561
      -288.581         494.330
      -207.800        2076.413
        -2.961         281.727
      -264.389       -1860.876
       173.394        4665.435
 15  6 13  8 50 30.0000000  0  8G 1G11G13G15G17G28G30R19            -0.000242498
       245.974         360.642
        68.775       -1476.468
      -258.046        -998.008
       210.639         478.815
      -231.820        2064.583
      -290.251         277.983
       -95.339       -1871.964
       244.824        4657.266
 15  6 13  8 51  0.0000000  0  8G 1G11G13G15G17G28G30R19            -0.000253803
       202.954         343.152
        19.185       -1490.829
       238.824       -1012.757
       140.649         463.941
      -189.240        2053.332
        97.789         274.881
       135.591       -1882.391
      -293.966        4649.652
 15  6 13  8 51 30.0000000  0  8G 1G11G13G15G17G28G30R19            -0.000265159
       261.394         324.816
        52.565       -1505.936
       165.344       -1028.267
       157.229         448.235
       -81.390        2041.240
      -150.451         270.921
      -228.179       -1893.599
      -132.246        4641.043
 15  6 13  8 52  0.0000000  0  8G 1G11G13G15G17G28G30R19            -0.000276560
      -232.746         306.839
       170.585       -1520.642
       179.054       -1043.328
       262.029         432.945
        93.710        2029.514
       277.699         267.330
       125.951       -1904.396
        75.113        4632.766
 15  6 13  8 52 30.0000000  0  8G 1G11G13G15G17G28G30R19            -0.000288000
        33.674         288.722
      -281.485       -1535.416
       280.584       -1058.503
      -199.481         417.480
      -317.110        2017.603
        73.239         263.580
      -112.079       -1915.345
      -322.877        4624.171
 15  6 13  8 53  0.0000000  0  8G 1G11G13G15G17G28G30R19            -0.000299492
      -254.916         271.521
         3.045       -1549.176
      -190.366       -1072.636
        79.929         403.013
        -7.780        2006.641
      -112.961         260.749
      -290.799       -1925.269
       -20.537        4616.454
 15  6 13  8 53 30.0000000  0  8G 1G11G13G15G17G28G30R19            -0.000311036
       213.714         253.342
      -285.195       -1563.841
        78.264       -1087.671
      -210.321         387.589
      -287.650        1994.683
      -279.701         256.938
       245.951       -1936.143
      -325.127        4607.576
 15  6 13  8 54  0.0000000  0  8G 1G11G13G15G17G28G30R19            -0.000322622
       129.834         234.971
       164.325       -1578.651
      -223.396       -1102.832
       242.059         371.976
       155.519        1982.524
       230.129         252.925
       188.561       -1947.160
        72.803        4598.471
 15  6 13  8 54 30.0000000  0  8G 1G11G13G15G17G28G30R19            -0.000334252
       149.194         217.213
        40.775       -1592.757
       215.174       -1117.303
       126.369         356.990
        11.069        1970.958
       106.209         249.499
       192.711       -1957.532
      -134.977        4589.842
 15  6 13  8 55  0.0000000  0  8G 1G11G13G15G17G28G30R19            -0.000345920
       273.774         198.804
         1.745       -1607.490
        84.284       -1132.342
       101.039         341.398
       -63.581        1958.729
         5.199         245.438
       259.161       -1968.532
      -288.757        4580.482
 15  6 13  8 55 30.0000000  0  8G 1G11G13G15G17G28G30R19            -0.000357627
      -152.556         180.117
        45.155       -1622.383
        38.174       -1147.577
       162.609         325.563
       -68.851        1946.219
       -72.641         241.082
      -267.329       -1979.727
       265.133        4570.699
 15  6 13  8 56  0.0000000  0  8G 1G11G13G15G17G28G30R19            -0.000369358
       185.474         160.848
       177.195       -1637.781
        81.874       -1163.335
       317.959         309.143
        -0.491        1933.105
      -123.621         236.131
       -72.089       -1991.490
       220.823        4560.222
 15  6 13  8 56 30.0000000  0  8G 1G11G13G15G17G28G30R19            -0.000381109
       -21.426         141.206
      -258.855       -1653.515
       215.084       -1179.447
       -88.521         292.331
       143.429        1919.603
      -145.741         230.774
       190.122       -2003.591
       235.723        4549.220
 15  6 13  8 57  0.0000000  0  8G 1G11G13G15G17G28G30R19            -0.000392883
      -119.546         122.493
        47.765       -1668.244
      -217.676       -1194.459
       252.969         276.538
      -294.111        1907.011
      -140.331         226.320
      -136.678       -2014.720
       308.653        4539.098
 15  6 13  8 57 30.0000000  0  8G 1G11G13G15G17G28G30R19            -0.000404692
      -111.596         104.227
      -217.755       -1682.486
        88.224       -1208.983
        28.829         261.192
        -5.621        1894.881
      -110.621         222.338
       254.082       -2025.341
      -215.987        4529.299
 15  6 13  8 58  0.0000000  0  8G 1G11G13G15G17G28G30R19            -0.000416536
         2.354          85.547
       252.565       -1697.039
      -176.036       -1223.874
      -106.741         245.445
      -301.751        1882.288
       -56.841         217.882
        51.022       -2036.366
       -30.128        4518.992
 15  6 13  8 58 30.0000000  0  8G 1G11G13G15G17G28G30R19            -0.000428397
       225.934          65.751
       155.905       -1712.681
       303.604       -1239.795
      -147.721         228.609
       133.459        1868.579
        26.269         212.316
       -85.378       -2048.460
       218.342        4507.408
 15  6 13  8 59  0.0000000  0  8G 1G11G13G15G17G28G30R19            -0.000440284
       -97.066          46.154
       142.735       -1728.033
       213.294       -1255.463
       -98.461         211.966
       -13.041        1855.049
       137.089         206.905
      -156.638       -2060.316
      -126.948        4495.931
 15  6 13  8 59 30.0000000  0  8G 1G11G13G15G17G28G30R19            -0.000452189
      -310.016          28.233
       215.925       -1741.649
       210.854       -1269.339
        44.569         197.058
       -84.211        1843.176
       276.659         203.178
      -162.978       -2070.465
       245.422        4486.046
 15  6 13  9  0  0.0000000  0  8G 1G11G13G15G17G28G30R19            -0.000464119
       240.584           8.684
      -282.284       -1756.858
       293.394       -1284.833
       278.599         180.469
       -81.411        1829.665
      -211.491         197.783
      -104.988       -2082.206
        23.462        4474.390
 15  6 13  9  0 30.0000000  0  8G 1G11G13G15G17G28G30R19            -0.000476059
       248.894         -11.968
       -38.114       -1773.040
      -190.356       -1301.276
       -47.961         162.907
        -0.391        1815.056
       -12.711         191.340
        20.772       -2094.983
      -132.268        4461.517
 15  6 13  9  1  0.0000000  0  8G 1G11G13G15G17G28G30R19            -0.000488006
      -284.646         -31.182
       294.386       -1787.788
        70.704       -1316.293
      -278.051         146.712
       159.989        1801.802
       218.969         186.176
       215.312       -2106.335
      -218.898        4449.945
 15  6 13  9  1 30.0000000  0  8G 1G11G13G15G17G28G30R19            -0.000499965
       -51.656         -50.569
        56.766       -1802.630
      -236.306       -1331.342
       242.549         130.428
      -257.631        1788.439
      -173.431         180.895
      -179.118       -2117.799
      -238.408        4438.145
 15  6 13  9  2  0.0000000  0  8G 1G11G13G15G17G28G30R19             0.000488061
       -69.925         -69.700
       196.957       -1817.176
      -164.165       -1346.123
      -163.130         114.368
      -305.430        1775.248
      -242.390         175.819
      -215.317       -2128.970
       102.533        4426.395
 15  6 13  9  2 30.0000000  0  8G 1G11G13G15G17G28G30R19             0.000476079
      -267.935         -90.126
       131.087       -1832.916
      -297.694       -1362.100
      -110.030          97.038
        87.830        1760.779
        83.590         169.431
       178.423       -2141.424
       219.333        4413.293
 15  6 13  9  3  0.0000000  0  8G 1G11G13G15G17G28G30R19             0.000464093
       303.275        -109.868
       151.567       -1847.909
       313.336       -1377.324
        38.370          80.478
       -94.350        1746.984
      -211.690         163.717
       -15.057       -2153.117
      -247.037        4400.777
 15  6 13  9  3 30.0000000  0  8G 1G11G13G15G17G28G30R19             0.000452111
      -320.825        -130.257
       262.257       -1863.497
      -296.194       -1393.174
       285.850          63.221
      -193.710        1732.490
       184.540         157.306
      -137.707       -2165.484
        15.203        4387.429
 15  6 13  9  4  0.0000000  0  8G 1G11G13G15G17G28G30R19             0.000440127
      -174.265        -150.246
      -197.063       -1878.649
      -163.044       -1408.468
       -26.430          46.382
      -212.950        1718.369
       -40.230         151.234
      -192.717       -2177.386
      -305.588        4374.396
 15  6 13  9  4 30.0000000  0  8G 1G11G13G15G17G28G30R19             0.000428138
        84.925        -170.231
        84.657       -1893.694
        57.236       -1423.738
      -243.530          29.617
      -152.380        1704.272
      -231.140         145.198
      -180.027       -2189.242
       102.882        4361.283
 15  6 13  9  5  0.0000000  0  8G 1G11G13G15G17G28G30R19             0.000416154
      -195.055        -190.967
      -200.743       -1909.467
      -289.024       -1439.692
       293.660          12.060
        -8.840        1689.371
       270.230         138.338
       -98.197       -2201.844
       -69.018        4347.216
 15  6 13  9  5 30.0000000  0  8G 1G11G13G15G17G28G30R19             0.000404175
       295.785        -210.686
       256.817       -1924.160
       107.816       -1454.536
       271.240          -4.422
       216.730        1675.511
       152.420         132.497
        53.003       -2213.364
      -164.148        4334.140
 15  6 13  9  6  0.0000000  0  8G 1G11G13G15G17G28G30R19             0.000392185
       243.075        -230.046
       140.387       -1938.448
       -66.994       -1468.985
      -313.360         -20.573
      -134.940        1661.933
        67.270         126.924
       268.613       -2224.535
      -187.288        4321.276
 15  6 13  9  6 30.0000000  0  8G 1G11G13G15G17G28G30R19             0.000380196
       304.905        -250.681
       109.997       -1953.902
      -155.204       -1484.629
      -145.710         -37.889
       250.340        1647.103
        17.540         120.098
      -103.597       -2236.905
      -134.148        4307.021
 15  6 13  9  7  0.0000000  0  8G 1G11G13G15G17G28G30R19             0.000368212
      -173.435        -270.737
       165.647       -1968.778
      -157.654       -1499.608
       117.540         -54.669
        62.390        1632.826
         4.800         113.804
       247.613       -2248.692
        -1.318        4293.214
 15  6 13  9  7 30.0000000  0  8G 1G11G13G15G17G28G30R19             0.000356239
       120.625        -290.758
       307.817       -1983.525
       -71.114       -1514.527
      -175.750         -71.415
       -41.190        1618.526
        30.360         107.479
        13.483       -2260.416
       210.502        4279.271
 15  6 13  9  8  0.0000000  0  8G 1G11G13G15G17G28G30R19             0.000344258
      -129.565        -310.601
      -123.183       -1998.082
        97.386       -1529.182
       278.740         -87.934
       -65.560        1604.390
        89.640         101.311
      -156.437       -2271.953
      -156.338        4265.442
 15  6 13  9  8 30.0000000  0  8G 1G11G13G15G17G28G30R19             0.000332287
      -263.185        -331.417
       185.977       -2013.511
      -304.244       -1544.722
       175.630        -105.399
        -6.691        1589.269
       186.880          94.132
      -257.917       -2284.411
       211.582        4250.501
 15  6 13  9  9  0.0000000  0  8G 1G11G13G15G17G28G30R19             0.000320341
      -274.725        -352.704
       -68.523       -2029.380
        41.346       -1560.685
       174.440        -123.341
       141.169        1573.660
      -327.490          86.456
      -285.816       -2297.305
        11.772        4234.985
 15  6 13  9  9 30.0000000  0  8G 1G11G13G15G17G28G30R19             0.000308422
      -165.635        -373.639
      -233.933       -2044.837
      -177.364       -1576.251
       274.760        -140.928
      -277.601        1558.360
      -142.950          79.065
      -240.566       -2309.841
      -101.898        4219.669
 15  6 13  9 10  0.0000000  0  8G 1G11G13G15G17G28G30R19             0.000296512
        58.505        -393.190
      -315.193       -2058.896
      -312.024       -1590.344
      -183.080        -157.097
        42.349        1544.435
        79.750          73.049
      -127.806       -2320.955
      -133.079        4205.607
 15  6 13  9 10 30.0000000  0  8G 1G11G13G15G17G28G30R19             0.000284604
      -259.225        -412.905
      -314.713       -2072.969
       290.616       -1604.555
       107.990        -173.403
      -211.881        1530.321
      -316.570          66.829
        50.134       -2332.180
       -83.179        4191.349
 15  6 13  9 11  0.0000000  0  8G 1G11G13G15G17G28G30R19             0.000272692
       189.795        -433.339
      -234.813       -2087.803
       318.536       -1619.422
      -164.360        -190.417
       269.579        1515.464
       -22.620          59.804
       291.174       -2344.156
        46.571        4176.121
 15  6 13  9 11 30.0000000  0  8G 1G11G13G15G17G28G30R19             0.000260793
        99.885        -453.695
       -70.443       -2102.463
      -224.934       -1634.111
       315.350        -207.339
       179.729        1500.642
       310.940          52.829
       -55.606       -2355.992
       261.801        4160.940
 15  6 13  9 12  0.0000000  0  8G 1G11G13G15G17G28G30R19             0.000248920
       130.855        -474.844
       180.937       -2117.870
       -25.844       -1649.553
       239.630        -225.039
       178.309        1485.020
        32.760          45.033
       324.524       -2368.606
       -89.959        4144.779
 15  6 13  9 12 30.0000000  0  9G 1G 6G11G13G15G17G28G30R19          0.000237063
       278.025        -495.071
      -239.768        4356.754
      -139.183       -2132.290
       257.596       -1664.007
       262.310        -241.778
       262.249        1470.300
      -204.320          38.121
       117.474       -2380.236
       301.371        4129.481
 15  6 13  9 13  0.0000000  0  9G 1G 6G11G13G15G17G28G30R19          0.000225219
      -114.765        -515.568
      -207.788        4356.356
       279.027       -2146.996
       -32.084       -1678.700
      -275.660        -258.833
      -224.911        1455.244
       253.520          30.850
       -23.456       -2392.212
       123.121        4113.730
 15  6 13  9 13 30.0000000  0  9G 1G 6G11G13G15G17G28G30R19          0.000213393
       265.125        -536.412
      -170.888        4355.215
       124.428       -2161.925
      -237.734       -1693.619
       -61.080        -276.139
        29.369        1439.848
        97.590          23.217
       -95.816       -2404.437
        34.001        4097.535
 15  6 13  9 14  0.0000000  0  9G 1G 6G11G13G15G17G28G30R19          0.000201601
       111.155        -557.265
      -127.268        4354.083
        58.548       -2176.854
       299.276       -1708.552
       255.560        -293.507
      -281.001        1424.389
       -12.040          15.506
       -95.656       -2416.663
        38.311        4081.165
 15  6 13  9 14 30.0000000  0  9G 1G 6G11G13G15G17G28G30R19          0.000189825
        73.065        -577.294
       -79.568        4353.570
        73.928       -2190.878
       263.116       -1722.572
        12.960        -309.988
       149.159        1409.759
       -80.260           8.579
       -29.246       -2428.025
       132.311        4065.557
 15  6 13  9 15  0.0000000  0  9G 1G 6G11G13G15G17G28G30R19          0.000178058
       148.575        -597.711
       -27.498        4352.615
       169.678       -2205.275
       306.776       -1736.896
      -136.890        -326.862
         6.899        1394.705
      -109.850           1.230
       101.624       -2439.772
       313.081        4049.399
 15  6 13  9 15 30.0000000  0  9G 1G 6G11G13G15G17G28G30R19          0.000166324
      -310.575        -618.897
        33.122        4350.711
      -304.552       -2220.391
      -220.174       -1751.951
      -186.260        -344.491
       -45.441        1378.861
       -93.190          -6.940
       303.214       -2452.240
       -66.449        4032.362
 15  6 13  9 16  0.0000000  0  9G 1G 6G11G13G15G17G28G30R19          0.000154620
         5.455        -639.399
       102.651        4349.375
       -38.272       -2234.736
        -7.414       -1766.239
      -136.660        -361.424
        -8.431        1363.652
       -31.000         -14.506
       -80.506       -2464.045
       304.601        4015.859
 15  6 13  9 16 30.0000000  0  9G 1G 6G11G13G15G17G28G30R19          0.000142941
      -216.675        -659.988
       182.091        4347.772
       310.088       -2249.170
       287.536       -1780.603
        10.570        -378.435
       116.049        1348.307
        75.260         -22.229
       258.694       -2475.920
       112.410        3999.153
 15  6 13  9 17  0.0000000  0  9G 1G 6G11G13G15G17G28G30R19          0.000131290
      -320.225        -681.340
       272.281        4345.352
        86.028       -2264.331
        10.036       -1795.639
       255.060        -396.174
      -326.131        1332.210
       226.160         -30.726
        11.254       -2488.518
        16.050        3981.540
 15  6 13  9 17 30.0000000  0  9G 1G 6G11G13G15G17G28G30R19          0.000119672
      -303.605        -702.328
      -282.259        4343.167
       -54.442       -2279.035
      -184.164       -1810.260
       -55.950        -413.539
       -23.481        1316.435
      -231.740         -38.914
      -166.236       -2500.705
        15.880        3964.181
 15  6 13  9 18  0.0000000  0  9G 1G 6G11G13G15G17G28G30R19          0.000108097
      -165.495        -723.286
      -164.549        4340.781
      -107.192       -2293.720
      -292.424       -1824.792
      -265.870        -430.861
      -283.531        1300.650
        15.180         -47.167
      -271.716       -2512.906
       116.110        3946.698
 15  6 13  9 18 30.0000000  0  9G 1G 6G11G13G15G17G28G30R19          0.000096552
        91.085        -743.864
       -35.339        4338.729
       -78.992       -2308.002
      -319.164       -1838.860
       277.400        -447.763
       200.689        1285.221
       307.820         -55.039
      -309.486       -2524.658
       313.450        3929.546
 15  6 13  9 19  0.0000000  0  9G 1G 6G11G13G15G17G28G30R19          0.000085028
      -192.435        -764.131
       104.421        4336.801
        28.518       -2321.962
      -268.103       -1852.610
       259.560        -464.397
       115.549        1270.054
       -11.380         -62.711
      -281.926       -2536.102
       -49.550        3912.533
 15  6 13  9 19 30.0000000  0  9G 1G 6G11G13G15G17G28G30R19          0.000073526
       294.895        -783.680
       255.531        4335.452
       214.988       -2335.021
      -139.823       -1865.558
      -319.250        -480.264
       116.519        1255.595
      -287.590         -69.691
      -189.845       -2546.800
      -317.260        3896.103
 15  6 13  9 20  0.0000000  0  9G 1G 6G11G13G15G17G28G30R19          0.000062042
       239.885        -804.269
      -239.779        4332.978
      -177.182       -2348.821
        64.847       -1879.484
      -150.660        -497.184
       202.199        1240.056
       133.790         -77.792
       -34.475       -2558.545
       164.130        3878.529
 15  6 13  9 20 30.0000000  0  9G 1G 6G11G13G15G17G28G30R19          0.000050586
       302.585        -824.586
       -65.099        4330.595
       164.908       -2362.893
      -307.163       -1893.100
       114.420        -513.771
      -279.311        1224.757
       -54.410         -85.668
       187.255       -2569.972
        88.720        3861.093
 15  6 13  9 21  0.0000000  0  8G 1G 6G13G15G17G28G30R19             0.000039164
      -172.745        -845.243
       124.091        4327.713
        55.337       -1907.007
      -179.940        -530.705
       -16.281        1209.084
      -196.020         -93.956
      -180.035       -2581.728
       113.250        3843.153
 15  6 13  9 21 30.0000000  0  8G 1G 6G13G15G17G28G30R19             0.000027784
       127.835        -866.893
      -322.599        4323.770
      -155.323       -1921.816
       280.420        -548.619
      -316.671        1192.397
      -287.450        -103.256
       178.295       -2594.458
       240.980        3824.112
 15  6 13  9 22  0.0000000  0  8G 1G 6G13G15G17G28G30R19             0.000016438
      -109.825        -887.054
       -96.210        4321.095
      -288.053       -1935.129
       181.230        -565.050
       127.789        1177.131
       323.840        -111.200
       -52.215       -2605.716
      -184.910        3806.396
 15  6 13  9 22 30.0000000  0  8G 1G 6G13G15G17G28G30R19             0.000005141
      -224.905        -908.838
       151.890        4316.670
       317.047       -1949.975
       183.720        -583.112
        10.519        1160.223
      -323.840        -120.796
      -212.145       -2618.573
       150.460        3786.952
 15  6 13  9 23  0.0000000  0  8G 1G 6G13G15G17G28G30R19            -0.000006116
      -221.945        -929.436
      -234.610        4313.345
      -309.343       -1963.593
       282.980        -599.914
       -15.621        1144.499
      -266.670        -129.243
      -304.515       -2630.188
       -66.160        3768.591
 15  6 13  9 23 30.0000000  0  8G 1G 6G13G15G17G28G30R19            -0.000017346
      -104.885        -948.725
        50.320        4311.144
      -206.193       -1975.867
      -181.160        -615.464
        44.689        1130.003
      -164.200        -136.505
       322.115       -2640.569
      -181.471        3751.397
 15  6 13  9 24  0.0000000  0  8G 1G 6G13G15G17G28G30R19            -0.000028547
       128.065        -969.109
      -302.130        4307.697
       -28.303       -1989.152
       103.580        -632.018
       192.789        1114.435
       -15.340        -144.856
      -298.895       -2651.939
      -196.241        3732.987
 15  6 13  9 24 30.0000000  0  8G 1G 6G13G15G17G28G30R19            -0.000039706
      -176.785        -989.929
        21.480        4303.690
       226.827       -2002.845
      -170.150        -649.047
      -223.551        1098.349
       183.250        -153.765
      -196.505       -2663.761
      -106.231        3714.040
 15  6 13  9 25  0.0000000  0  8G 1G 6G13G15G17G28G30R19            -0.000050828
       291.065       -1010.784
      -288.020        4299.509
       -97.163       -2016.486
       306.540        -666.077
       105.279        1082.213
      -224.780        -162.736
       -29.765       -2675.606
        89.729        3694.900
 15  6 13  9 25 30.0000000  0  8G 1G 6G13G15G17G28G30R19            -0.000061895
       223.916       -1032.543
        84.810        4294.268
       314.707       -2031.037
       227.670        -684.011
      -126.431        1065.111
        76.990        -172.725
       207.455       -2688.397
      -259.581        3674.670
 15  6 13  9 26  0.0000000  0  8G 1G 6G13G15G17G28G30R19            -0.000072890
       284.706       -1054.397
      -165.610        4288.745
       155.567       -2045.581
       253.510        -702.022
      -258.531        1047.914
      -217.220        -182.853
      -135.505       -2701.186
       161.709        3654.243
 15  6 13  9 26 30.0000000  0  8G 1G 6G13G15G17G28G30R19            -0.000083819
      -186.074       -1076.767
       270.720        4282.591
        80.137       -2060.589
      -274.350        -720.514
      -292.221        1030.169
       201.440        -193.561
       249.515       -2714.513
        42.949        3633.156
 15  6 13  9 27  0.0000000  0  8G 1G 6G13G15G17G28G30R19            -0.000094687
       120.876       -1096.964
        82.320        4278.450
        83.817       -2073.416
       -45.970        -736.862
      -229.801        1014.524
        20.610        -202.165
        49.985       -2725.684
        37.649        3614.142
 15  6 13  9 27 30.0000000  0  8G 1G 6G13G15G17G28G30R19            -0.000105506
      -108.974       -1118.963
       -78.230        4272.370
       165.277       -2087.956
       278.640        -754.928
       -74.891         997.084
      -107.100        -212.632
       -82.615       -2738.594
       142.279        3593.224
 15  6 13  9 28  0.0000000  0  9G 1G 6G13G15G17G24G28G30R19         -0.000116269
      -218.944       -1138.700
      -209.711        4268.381
       322.937       -2100.222
        46.040        -770.833
       174.649         981.825
      -111.939        3908.792
      -180.270        -220.963
      -146.445       -2749.293
      -296.271        3574.377
 15  6 13  9 28 30.0000000  0  9G 1G 6G13G15G17G24G28G30R19         -0.000126992
      -213.194       -1159.159
      -314.601        4263.545
      -101.893       -2113.118
       -93.210        -787.340
      -141.491         965.822
      -119.059        3900.257
      -203.200        -230.030
      -146.575       -2760.654
        29.319        3554.781
 15  6 13  9 29  0.0000000  0  9G 1G 6G13G15G17G24G28G30R19         -0.000137675
       -92.654       -1179.608
       261.219        4258.547
       201.107       -2125.993
      -139.550        -803.910
       287.388         949.792
       -78.579        3891.639
      -175.930        -239.196
       -84.435       -2772.038
      -191.851        3534.999
 15  6 13  9 29 30.0000000  0  9G 1G 6G13G15G17G24G28G30R19         -0.000148293
       151.156       -1201.063
       216.459        4252.395
       -73.773       -2139.799
       -86.260        -821.452
       157.908         932.710
        16.051        3881.817
       -91.000        -249.427
        48.686       -2784.388
      -296.501        3514.065
 15  6 13  9 30  0.0000000  0  9G 1G 6G13G15G17G24G28G30R19         -0.000158856
      -143.184       -1220.871
       204.059        4247.738
      -272.583       -2151.959
        62.200        -837.340
       122.148         917.237
       162.461        3873.562
        48.760        -258.103
       247.906       -2795.102
      -286.441        3494.680
 15  6 13  9 30 30.0000000  0  9G 1G 6G13G15G17G24G28G30R19         -0.000169377
      -322.354       -1241.469
       218.689        4242.108
       253.477       -2164.804
       303.670        -853.981
       175.828         900.957
      -296.659        3864.387
       239.220        -267.606
      -144.774       -2806.573
      -167.291        3474.379
 15  6 13  9 31  0.0000000  0  9G 1G 6G13G15G17G24G28G30R19         -0.000179838
       272.816       -1262.753
       267.609        4235.715
       199.927       -2178.321
       -12.880        -871.293
       324.738         883.956
       -47.059        3854.366
      -168.700        -277.887
       183.996       -2818.735
        68.818        3453.247
 15  6 13  9 31 30.0000000  0  9G 1G 6G13G15G17G24G28G30R19         -0.000190228
      -320.344       -1284.767
      -298.491        4228.370
       224.567       -2192.503
      -231.260        -889.320
       -83.542         866.172
       262.961        3843.451
       138.270        -288.949
       -71.654       -2831.617
      -231.292        3431.251
 15  6 13  9 32  0.0000000  0  9G 1G 6G13G15G17G24G28G30R19         -0.000200540
      -133.264       -1305.913
      -170.821        4221.761
       327.528       -2205.788
       308.540        -906.481
       263.878         849.199
       -23.419        3833.273
      -148.080        -299.280
      -254.804       -2843.656
       247.108        3410.003
 15  6 13  9 32 30.0000000  0  9G 1G 6G13G15G17G24G28G30R19         -0.000210800
       168.776       -1325.792
        -9.151        4216.246
      -153.332       -2217.780
       285.450        -922.413
        47.748         833.462
      -253.160        3824.200
       275.180        -308.386
       280.576       -2854.402
       184.158        3389.864
 15  6 13  9 33  0.0000000  0  9G 1G 6G13G15G17G24G28G30R19         -0.000221018
       -70.944       -1345.438
       184.479        4210.813
        88.488       -2229.449
      -303.360        -938.053
       -79.172         817.935
       222.020        3815.212
        94.540        -317.319
       221.156       -2864.895
       234.028        3369.904
 15  6 13  9 33 30.0000000  0  9G 1G 6G13G15G17G24G28G30R19         -0.000231203
      -201.474       -1364.503
      -249.031        4205.793
      -261.282       -2240.509
      -148.980        -953.134
      -119.712         802.937
        91.580        3806.621
       -37.490        -325.785
       219.566       -2874.820
      -261.922        3350.367
 15  6 13  9 34  0.0000000  0  9G 1G 6G13G15G17G24G28G30R19         -0.000241346
      -219.984       -1384.323
         4.719        4199.891
       110.788       -2252.291
        93.770        -968.887
       -71.502         787.149
        13.170        3797.172
      -117.770        -335.068
       277.246       -2885.459
        10.638        3329.944
 15  6 13  9 34 30.0000000  0  9G 1G 6G13G15G17G24G28G30R19         -0.000251443
      -126.084       -1403.681
       292.668        4194.229
      -105.932       -2263.609
      -229.180        -984.267
        66.228         771.749
       -12.330        3788.052
      -145.510        -344.013
      -260.274       -2895.716
      -257.482        3309.867
 15  6 13  9 35  0.0000000  0  9G 1G 6G13G15G17G24G28G30R19         -0.000261496
        79.746       -1423.262
       -40.332        4188.203
      -256.612       -2275.040
       192.190        -999.783
       293.358         756.123
        18.350        3778.510
      -120.720        -353.214
       -82.714       -2906.108
       243.188        3289.411
 15  6 13  9 35 30.0000000  0  9G 1G 6G13G15G17G24G28G30R19         -0.000271504
      -258.384       -1442.616
       315.688        4182.287
       312.618       -2286.183
        46.070       -1015.092
       -45.952         740.697
       102.190        3769.080
       -43.160        -362.259
       154.476       -2916.270
       203.568        3269.107
 15  6 13  9 36  0.0000000  0  9G 1G 6G13G15G17G24G28G30R19         -0.000281469
       169.326       -1462.498
        51.778        4175.649
       290.108       -2297.885
       -11.550       -1030.951
      -296.582         724.670
       240.290        3758.958
        86.310        -371.938
      -205.594       -2927.015
       277.918        3248.120
 15  6 13  9 36 30.0000000  0  9G 1G 6G13G15G17G24G28G30R19         -0.000291395
        51.846       -1480.821
      -178.482        4170.416
      -324.502       -2307.987
        17.450       -1045.201
       195.428         710.157
      -222.520        3750.236
       267.160        -380.151
       147.026       -2936.156
      -188.192        3228.557
 15  6 13  9 37  0.0000000  0  9G 1G 6G13G15G17G24G28G30R19         -0.000301287
        40.106       -1500.450
       278.748        4163.712
      -224.792       -2319.287
       128.230       -1060.735
       117.418         694.318
        22.940        3740.018
      -158.020        -389.732
      -101.874       -2946.638
       112.938        3207.582
 15  6 13  9 37 30.0000000  0  9G 1G 6G13G15G17G24G28G30R19         -0.000311114
       144.236       -1520.848
       124.478        4156.083
       -56.722       -2331.364
      -323.030       -1077.021
       133.718         677.666
      -324.460        3728.948
       130.881        -400.157
      -286.834       -2957.827
      -118.852        3185.697
 15  6 13  9 38  0.0000000  0  9G 1G 6G13G15G17G24G28G30R19         -0.000320863
      -285.724       -1542.163
        15.998        4147.396
       183.178       -2344.260
       -22.090       -1094.262
       248.578         660.071
        50.700        3716.803
      -172.299        -411.588
       250.976       -2969.970
      -224.022        3162.708
 15  6 13  9 38 30.0000000  0  9G 1G 6G13G15G17G24G28G30R19         -0.000330531
        59.616       -1563.359
       -43.012        4138.636
      -160.222       -2357.041
      -280.210       -1111.353
      -192.532         642.510
      -162.280        3704.591
       243.921        -423.013
       201.117       -2981.986
      -202.782        3139.770
 15  6 13  9 39  0.0000000  0  9G 1G 6G13G15G17G24G28G30R19         -0.000340108
      -129.354       -1584.810
       -49.662        4129.433
       228.008       -2370.054
       216.650       -1128.704
       123.698         624.673
      -303.090        3691.967
        72.151        -434.743
       221.497       -2994.268
       -50.243        3116.411
 15  6 13  9 39 30.0000000  0  9G 1G 6G13G15G17G24G28G30R19         -0.000349600
      -196.124       -1606.158
        -5.892        4120.151
        31.348       -2382.921
       155.020       -1145.936
      -115.972         606.869
       282.639        3679.283
       -34.839        -446.510
       309.917       -3006.449
       231.697        3092.979
 15  6 13  9 40  0.0000000  0  9G 1G 6G13G15G17G24G28G30R19         -0.000359007
      -143.744       -1627.058
        90.648        4111.216
       -93.262       -2395.287
       190.540       -1162.700
      -255.502         589.519
       283.619        3666.935
       -76.279        -457.851
      -189.863       -3018.156
       -11.533        3069.979
 15  6 13  9 40 30.0000000  0  9G 1G 6G13G15G17G24G28G30R19         -0.000368323
        30.146       -1648.059
       239.437        4101.984
      -146.282       -2407.770
       322.630       -1179.552
      -293.852         571.981
      -297.911        3654.259
       -50.669        -469.411
        35.207       -3029.966
      -124.103        3046.676
 15  6 13  9 41  0.0000000  0  9G 1G 6G13G15G17G24G28G30R19         -0.000377543
       326.766       -1670.093
      -210.733        4091.558
      -124.352       -2421.153
      -101.240       -1197.436
      -229.072         553.402
      -148.141        3640.418
        44.031        -482.085
      -324.383       -3042.808
      -102.213        3022.250
 15  6 13  9 41 30.0000000  0  9G 1G 6G13G15G17G24G28G30R19         -0.000386644
        96.096       -1692.906
        57.117        4080.189
       -23.082       -2435.316
       235.570       -1216.092
       -55.222         534.006
        84.799        3625.693
       214.641        -495.603
        47.087       -3056.429
        59.587        2996.944
 15  6 13  9 42  0.0000000  0  9G 1G 6G13G15G17G24G28G30R19         -0.000395632
        -6.104       -1715.087
      -267.633        4069.267
       155.828       -2448.818
        20.410       -1234.122
       226.348         515.151
      -257.971        3611.377
      -196.209        -508.641
      -162.543       -3069.448
      -294.693        2972.022
 15  6 13  9 42 30.0000000  0  9G 1G 6G13G15G17G24G28G30R19         -0.000404516
        14.106       -1736.021
       122.027        4059.415
      -247.062       -2461.039
       -95.609       -1250.875
       -42.772         497.510
       134.399        3598.150
       119.831        -520.466
      -300.233       -3081.189
       143.857        2948.305
 15  6 13  9 43  0.0000000  0  9G 1G 6G13G15G17G24G28G30R19         -0.000413289
       160.286       -1758.790
       -80.773        4047.591
        80.999       -2475.070
      -109.129       -1269.491
      -205.012         478.004
       -46.731        3582.954
      -145.669        -534.251
       289.807       -3094.794
        66.237        2922.600
 15  6 13  9 43 30.0000000  0  9G 1G 6G13G15G17G24G28G30R19         -0.000421940
      -220.654       -1780.598
      -216.923        4036.543
      -168.181       -2488.076
       -18.849       -1287.130
      -257.752         459.412
      -141.461        3568.512
       321.321        -547.143
       300.877       -3107.452
       130.567        2897.786
 15  6 13  9 44  0.0000000  0  9G 1G 6G13G15G17G24G28G30R19         -0.000430481
       177.836       -1802.489
      -290.643        4025.232
       311.319       -2501.183
       171.661       -1304.791
      -204.942         440.721
      -156.411        3553.893
       206.291        -560.209
      -271.893       -3120.184
      -320.863        2872.733
 15  6 13  9 44 30.0000000  0  9G 1G 6G13G15G17G24G28G30R19         -0.000438909
        44.847       -1824.685
      -298.553        4013.472
       210.159       -2514.506
      -193.319       -1322.774
       -45.362         421.645
       -84.261        3538.778
       165.471        -573.680
      -116.923       -3133.182
        23.167        2847.217
 15  6 13  9 45  0.0000000  0  9G 1G 6G13G15G17G24G28G30R19         -0.000447231
        34.417       -1845.819
      -244.633        4002.613
       180.949       -2526.743
       196.191       -1339.701
       218.668         403.615
        67.689        3524.560
       197.301        -586.153
       107.477       -3145.129
      -149.113        2822.727
 15  6 13  9 45 30.0000000  0  9G 1G 6G13G15G17G24G28G30R19         -0.000455446
       145.487       -1866.709
      -126.033        3991.748
       221.729       -2538.735
        28.031       -1356.396
       -68.042         385.724
       303.099        3510.424
       302.451        -598.495
      -254.033       -3156.873
      -182.193        2798.275
 15  6 13  9 46  0.0000000  0  9G 1G 6G13G15G17G24G28G30R19         -0.000463570
      -281.513       -1886.786
        52.087        3981.561
      -326.541       -2549.862
       -46.549       -1372.312
      -254.952         368.615
       -37.531        3496.885
      -179.939        -610.168
       104.497       -3167.808
       -80.083        2774.559
 15  6 13  9 46 30.0000000  0  9G 1G 6G13G15G17G24G28G30R19         -0.000471612
        60.357       -1906.200
       288.237        3971.885
      -157.211       -2560.245
       -33.149       -1387.439
       309.678         352.167
      -301.492        3483.982
        58.921        -621.190
      -130.463       -3178.024
       153.247        2751.475
 15  6 13  9 47  0.0000000  0  9G 1G 6G13G15G17G24G28G30R19         -0.000479580
      -142.513       -1925.676
       -76.564        3961.984
        72.129       -2570.725
        66.951       -1402.713
       312.748         335.587
       162.858        3470.699
      -294.749        -632.395
      -307.962       -3188.360
      -138.443        2728.120
 15  6 13  9 47 30.0000000  0  9G 1G 6G13G15G17G24G28G30R19         -0.000487484
      -237.713       -1943.869
       268.646        3953.200
      -299.791       -2579.831
       250.851       -1416.627
      -248.332         320.300
        43.838        3458.650
        67.401        -642.375
       225.208       -3197.371
      -302.793        2706.017
 15  6 13  9 48  0.0000000  0  9G 1G 6G13G15G17G24G28G30R19         -0.000495339
      -231.663       -1961.653
         6.726        3944.584
        35.079       -2588.557
      -142.589       -1430.173
       -67.992         305.283
        -6.392        3446.776
      -169.819        -652.110
       153.488       -3206.031
       311.386        2684.122
 15  6 13  9 48 30.0000000  0  9G 1G 6G13G15G17G24G28G30R19          0.000496850
       168.838       -1978.593
        86.827        3936.690
        55.680       -2596.403
      -168.398       -1442.857
      -165.361         291.102
       303.939        3435.568
       -59.658        -661.047
      -233.821       -3213.849
        30.267        2663.016
 15  6 13  9 49  0.0000000  0  9G 1G 6G13G15G17G24G28G30R19          0.000489065
      -285.112       -1995.213
       -82.603        3928.951
      -173.650       -2603.854
       239.522       -1455.215
       178.339         277.193
      -272.311        3424.611
      -193.318        -669.767
      -214.521       -3221.318
       227.087        2642.113
 15  6 13  9 49 30.0000000  0  9G 1G 6G13G15G17G24G28G30R19          0.000481294
         7.208       -2010.420
      -211.903        3922.338
       290.280       -2609.916
        58.552       -1466.161
       -57.501         264.661
      -134.911        3414.800
      -280.748        -677.192
      -157.901       -3227.405
      -117.693        2622.515
 15  6 13  9 50  0.0000000  0  9G 1G 6G13G15G17G24G28G30R19          0.000473537
      -265.852       -2026.361
      -300.543        3914.988
       136.340       -2616.635
       -56.788       -1477.820
      -219.271         251.337
        62.169        3404.131
      -323.098        -685.422
       -62.931       -3234.219
       305.607        2602.068
 15  6 13  9 50 30.0000000  0  9G 1G 6G13G15G17G24G28G30R19          0.000465784
       202.858       -2040.908
       304.567        3908.854
        16.820       -2621.910
      -110.218       -1488.014
      -309.141         239.398
       316.329        3394.749
      -322.368        -692.328
        66.419       -3239.604
       183.877        2582.969
 15  6 13  9 51  0.0000000  0  9G 1G 6G13G15G17G24G28G30R19          0.000458028
        99.738       -2055.605
       291.317        3902.301
       -71.800       -2627.368
      -104.388       -1498.454
       326.079         227.218
       -29.421        3384.976
      -280.598        -699.527
       227.769       -3245.191
       171.157        2563.543
 15  6 13  9 51 30.0000000  0  9G 1G 6G13G15G17G24G28G30R19          0.000450278
        84.148       -2071.520
       318.377        3894.300
      -127.580       -2634.039
       -37.368       -1510.142
      -277.631         213.714
      -316.261        3373.806
      -195.348        -708.089
      -231.771       -3252.078
       270.877        2542.668
 15  6 13  9 52  0.0000000  0  9G 1G 6G13G15G17G24G28G30R19          0.000442541
       155.468       -2086.956
      -267.723        3886.750
      -148.240       -2640.132
        94.442       -1521.196
      -152.251         200.763
       112.189        3362.969
       -64.488        -716.144
        -0.451       -3258.364
      -171.723        2522.349
 15  6 13  9 52 30.0000000  0  9G 1G 6G13G15G17G24G28G30R19          0.000434830
       318.648       -2102.733
      -150.763        3878.618
      -130.700       -2646.474
       291.292       -1532.658
        50.659         187.390
       -48.531        3351.658
