     2.11           OBSERVATION DATA    G (GPS)             RINEX VERSION / TYPE
teqc  2019Feb25     Salamtina Y.M.      20200909 02:44:17UTCPGM / RUN BY / DATE
Linux 2.6.32-573.12.1.x86_64|x86_64|gcc|Linux 64|=+         COMMENT
BIT 2 OF LLI FLAGS DATA COLLECTED UNDER A/S CONDITION       COMMENT
Kazarman                                                    MARKER NAME
kaza                                                        MARKER NUMBER
Matix A.I.          RS_RAS                                  OBSERVER / AGENCY
4752143407          TRIMBLE NETRS       1.3-2               REC # / TYPE / VERS
30895097            TRM55971.00                             ANT # / TYPE
  1325807.7298  4606496.6894  4195524.6396                  APPROX POSITION XYZ
        0.0890        0.0000        0.0000                  ANTENNA: DELTA H/E/N
     1     1                                                WAVELENGTH FACT L1/2
     7    L1    L2    C1    P1    P2    S1    S2            # / TYPES OF OBSERV
    30.0000                                                 INTERVAL
    18                                                      LEAP SECONDS
TIME: 2020.05.20                                            COMMENT
TOUR: cont                                                  COMMENT
RSET: RAS03                                                 COMMENT
ASET: RAS03                                                 COMMENT
OPER: matx (Matix A.I.)                                     COMMENT
SOUR: KAZA202005200000A.dat                                 COMMENT
SUPP: KAZA202005200000A.eph                                 COMMENT
SUPP: KAZA202005200000A.ion                                 COMMENT
SUPP: KAZA202005200000A.mes                                 COMMENT
Forced Modulo Decimation to 30 seconds                      COMMENT
 SNR is mapped to RINEX snr flag value [0-9]                COMMENT
  L1 & L2: min(max(int(snr_dBHz/6), 0), 9)                  COMMENT
  2020     5    20     0     0    0.0000000     GPS         TIME OF FIRST OBS
                                                            END OF HEADER
 20  5 20  0  0  0.0000000  0  9G16G09G22G04G27G31G07G26G03
 -25332471.38647 -19609165.11546  20425074.4224                   20425066.4224
        47.0004         39.5004
 -20048733.66747 -15609938.15648  21563254.5944                   21563248.8954
        47.2504         49.2504
  -4261000.76446  -3316283.55043  24640219.5554                   24640210.0594
        40.5004         22.0004
 -27442734.39448 -21287256.21546  20254433.9064                   20254426.7504
        48.0004         41.5004
  -5710265.57146  -4425685.46146  23905629.3674                   23905625.7664
        40.2504         37.7504
    958518.31445    889437.69143  25403794.5704                   25403788.3404
        35.7504         22.0004
  -7830788.38347  -6012977.42746  23938566.9304                   23938559.1094
        43.0004         37.0004
 -13139019.48647 -10206055.80547  22261811.0474                   22261806.7664
        44.2504         43.5004
 -13540957.97947 -10534706.77747  22716225.2194                   22716220.2544
        44.0004         42.0004
 20  5 20  0  0 30.0000000  0  9G16G09G22G04G27G31G07G26G03
 -25315882.45947 -19596238.68146  20428231.0394                   20428222.7424
        47.7504         39.5004
 -20119512.35747 -15665090.38348  21549785.3674                   21549779.5004
        47.0004         49.5004
  -4156494.25346  -3234849.94143  24660107.3284                   24660097.1724
        39.0004         22.0004
 -27452417.78647 -21294801.72047  20252590.7734                   20252584.0864
        47.0004         42.0004
  -5801438.85246  -4496729.51346  23888281.8054                   23888276.5084
        41.2504         38.5004
   1050451.96046    961074.30843  25421289.4454                   25421282.2464
        41.0004         19.2504
  -7905109.41347  -6070889.92246  23924424.3674                   23924416.0314
        43.2504         37.5004
 -13057063.78747 -10142194.24347  22277406.7034                   22277402.0984
        44.5004         43.0004
 -13442654.88647 -10458106.98447  22734932.2734                   22734926.9964
        44.2504         42.2504
 20  5 20  0  1  0.0000000  0  9G16G09G22G04G27G31G07G26G03
 -25298644.06747 -19582806.16746  20431511.4064                   20431503.4224
        47.2504         39.5004
 -20190025.42247 -15720035.63048  21536366.9694                   21536361.7624
        47.0004         49.5004
  -4051987.08246  -3153415.83043  24679993.6954                   24679984.5394
        40.0004         21.5004
 -27461683.65847 -21302021.89947  20250827.8134                   20250821.1884
        47.0004         42.0004
  -5892430.35646  -4567632.07846  23870965.8524                   23870961.5904
        40.2504         37.2504
   1142333.57446   1032670.38843  25438773.8834                   25438767.0084
        39.0004         21.5004
  -7979327.83747  -6128722.46646  23910300.4694                   23910293.0004
        42.7504         37.2504
 -12974762.22147 -10078063.17547  22293068.2974                   22293063.7194
        44.5004         43.2504
 -13344106.05347 -10381315.70747  22753685.0394                   22753679.8324
        44.5004         42.5004
 20  5 20  0  1 30.0000000  0  9G16G09G22G04G27G31G07G26G03
 -25280755.66747 -19568867.16846  20434915.4614                   20434907.8284
        47.0004         39.0004
 -20260269.46447 -15774771.25348  21523000.5164                   21522994.5864
        46.5004         49.7504
  -3947479.79146  -3071981.62943  24699881.2734                   24699871.0044
        39.5004         21.2504
 -27470529.54247 -21308914.80846  20249144.3754                   20249138.2304
        47.0004         41.7504
  -5983235.55146  -4638389.30346  23853686.9454                   23853681.9454
        40.5004         36.7504
   1234164.11346   1104226.55343  25456249.0944                   25456242.9184
        37.5004         22.0004
  -8053442.85647  -6186474.45146  23896197.1724                   23896189.8874
        43.5004         38.0004
 -12892115.99547 -10013663.54147  22308795.0944                   22308791.1054
        43.7504         43.2504
 -13245313.05047 -10304334.16847  22772484.7504                   22772480.1804
        44.0004         42.2504
 20  5 20  0  2  0.0000000  0  9G16G09G22G04G27G31G07G26G03
 -25262219.22747 -19554423.18946  20438442.9304                   20438434.8714
        46.7504         39.5004
 -20330243.33447 -15829296.34648  21509684.7424                   21509679.3204
        47.2504         49.5004
  -3842976.00346  -2990550.12643  24719766.3524                   24719757.5784
        39.5004         20.5004
 -27478955.21447 -21315480.27347  20247541.3754                   20247534.8834
        47.0004         42.0004
  -6073851.64146  -4708999.29246  23836441.6174                   23836438.5234
        39.7504         36.5004
   1325942.34746   1175741.95843  25473713.2034                   25473707.1994
        36.5004         20.2504
  -8127454.59046  -6244145.92746  23882112.7504                   23882105.5704
        41.7504         37.2504
 -12809128.65547  -9948998.10347  22324587.5234                   22324583.0314
        44.2504         43.2504
 -13146279.69147 -10227165.33947  22791330.0554                   22791325.7074
        44.0004         42.0004
 20  5 20  0  2 30.0000000  0 10G16G09G22G04G27G08G31G07G26G03
 -25243036.64247 -19539475.72346  20442093.2034                   20442085.2114
        47.2504         39.0004
 -20399945.15747 -15883609.45248  21496420.8134                   21496415.6094
        47.0004         49.7504
  -3738478.36946  -2909123.41343  24739652.2274                   24739642.3674
        39.2504         19.0004
 -27486959.66847 -21321717.52047  20246018.2664                   20246011.5274
        47.0004         42.0004
  -6164275.57546  -4779459.44645  23819236.2894                   23819230.3094
        40.5004         34.7504
   -450410.58056   -333559.04154  24995675.1024                   24995670.8284
        36.7504         29.2504
   1417667.94446   1247216.45642  25491167.7424                   25491161.8054
        36.5004         16.7504
  -8201363.25046  -6301737.11146  23868047.4694                   23868040.6684
        41.2504         36.5004
 -12725802.86747  -9884068.94047  22340443.1484                   22340439.8284
        44.0004         43.5004
 -13047009.04347 -10149811.62047  22810221.2664                   22810215.8634
        44.7504         42.5004
 20  5 20  0  3  0.0000000  0 10G16G09G22G04G27G08G31G07G26G03
 -25223209.51747 -19524026.02046  20445866.4224                   20445858.3634
        47.5004         39.7504
 -20469373.49747 -15937709.46348  21483208.6174                   21483203.4224
        47.2504         49.7504
  -3633989.87246  -2827703.82043  24759534.8444                   24759526.3134
        39.0004         20.0004
 -27494542.45047 -21327626.19147  20244575.2424                   20244568.1174
        47.0004         42.0004
  -6254504.34146  -4849767.66146  23802064.5474                   23802060.9264
        39.5004         37.7504
   -550630.83346   -411652.79644  24976604.0164                   24976599.5664
        37.5004         29.5004
   1509339.54746   1318648.72943  25508612.9064                   25508606.5474
        36.2504         19.0004
  -8275169.93447  -6359248.81246  23854003.2274                   23853995.6024
        42.7504         36.5004
 -12642141.88747  -9818878.59547  22356364.1484                   22356359.8484
        43.7504         43.0004
 -12947504.68947 -10072275.77046  22829155.8834                   22829150.9264
        44.5004         41.5004
 20  5 20  0  3 30.0000000  0 10G16G09G22G04G27G08G31G07G26G03
 -25202736.77547 -19508073.24646  20449762.0234                   20449754.1174
        47.0004         39.0004
 -20538524.16847 -15991593.10948  21470050.4924                   21470044.6024
        47.2504         49.7504
  -3529510.96946  -2746291.70643  24779416.4224                   24779407.5744
        39.0004         20.0004
 -27501700.21547 -21333203.68147  20243212.9304                   20243206.3324
        46.7504         42.0004
  -6344532.42447  -4919919.41846  23784933.1414                   23784928.5514
        42.0004         38.0004
   -650931.47745   -489809.21044  24957515.9614                   24957512.4804
        35.7504         27.0004
   1600959.112 5                  25526047.039
        32.750
  -8348871.24347  -6416678.37746  23839979.1334                   23839971.3984
        43.0004         36.5004
 -12558146.16447  -9753427.40647  22372347.6334                   22372343.4064
        43.7504         43.0004
 -12847767.36547  -9994558.39646  22848135.4144                   22848130.8094
        43.7504         41.2504
 20  5 20  0  4  0.0000000  0 10G16G09G22G04G27G08G31G07G26G03
 -25181621.99447 -19491620.16646  20453780.2114                   20453771.6024
        47.2504         39.2504
 -20607397.41047 -16045260.57448  21456943.8674                   21456938.4494
        47.5004         49.7504
  -3425046.58046  -2664890.92143  24799297.1564                   24799286.5864
        40.5004         20.0004
 -27508434.20447 -21338450.96046  20241931.5944                   20241925.2154
        47.0004         41.7504
  -6434358.68746  -4989913.90146  23767840.9384                   23767834.9614
        41.7504         38.5004
   -751311.45146   -568027.37344  24938415.7194                   24938410.8364
        36.2504         28.0004
   1692523.502 7                  25543472.352
        42.500
  -8422469.92547  -6474028.03446  23825972.4614                   23825965.6914
        42.5004         37.0004
 -12473820.58047  -9687719.17647  22388394.0634                   22388390.1484
        43.5004         42.5004
 -12747802.30547  -9916663.56846  22867157.4224                   22867153.0944
        43.5004         41.0004
 20  5 20  0  4 30.0000000  0 10G16G09G22G04G27G08G31G07G26G03
 -25159865.20447 -19474666.83146  20457920.0784                   20457912.2504
        47.5004         39.0004
 -20675990.08547 -16098709.42648  21443891.7344                   21443885.9024
        47.2504         50.0004
  -3320598.04146  -2583502.43643  24819171.8914                   24819163.1134
        38.0004         19.7504
 -27514742.22347 -21343366.31947  20240731.3754                   20240724.9104
        47.0004         42.0004
  -6523978.64846  -5059747.64246  23750786.1804                   23750781.4454
        41.2504         39.0004
   -851767.04146   -646304.60744  24919299.7194                   24919294.3204
        37.0004         29.2504
   1784033.73046   1401297.17853  25560886.3204                   25560880.0664
        37.2504         22.5004
  -8495964.87147  -6531296.84446  23811987.6024                   23811980.6374
        43.7504         37.2504
 -12389166.64647  -9621755.10347  22404503.5474                   22404499.0784
        43.5004         42.5004
 -12647611.35647  -9838592.72546  22886223.6564                   22886219.3404
        43.7504         41.2504
 20  5 20  0  5  0.0000000  0 10G16G09G22G04G27G08G31G07G26G03
 -25137467.63447 -19457214.18546  20462182.7274                   20462174.5354
        47.2504         39.0004
 -20744299.85547 -16151937.81948  21430892.3204                   21430886.8284
        47.0004         49.7504
  -3216167.62246  -2502128.11443  24839044.6254                   24839035.7934
        38.5004         19.5004
 -27520622.90447 -21347948.68146  20239612.2664                   20239605.6804
        47.0004         41.7504
  -6613388.52246  -5129417.68146  23733770.9144                   23733767.2624
        40.0004         37.2504
   -952294.90046   -724637.97644  24900169.4924                   24900165.9694
        36.2504         29.0004
   1875489.75946   1472561.40642  25578289.4924                   25578282.8524
        38.2504         16.7504
  -8569355.39047  -6588484.28146  23798021.5394                   23798014.9734
        43.7504         38.0004
 -12304186.66847  -9555536.96547  22420674.8914                   22420670.4024
        43.7504         42.5004
 -12547197.10247  -9760347.87546  22905332.1804                   22905327.2114
        44.5004         41.5004
 20  5 20  0  5 30.0000000  0 10G16G09G22G04G27G08G31G07G26G03
 -25114431.35347 -19439263.84346  20466565.8914                   20466558.0744
        47.2504         39.5004
 -20812325.54547 -16204944.86148  21417947.9694                   21417941.5554
        47.2504         50.0004
  -3111758.38146  -2420770.27643  24858912.6724                   24858904.5314
        37.5004         19.5004
 -27526076.04447 -21352197.89446  20238574.1644                   20238567.8484
        47.0004         41.7504
  -6702585.93746  -5198922.13146  23716798.2974                   23716794.7894
        41.7504         38.5004
  -1052893.13945   -803026.25244  24881027.2424                   24881022.1054
        35.5004         26.0004
   1966889.79545   1543782.46242  25595682.3054                   25595675.3674
        35.2504         17.2504
  -8642642.69247  -6645591.27346  23784076.0554                   23784068.8524
        44.0004         38.5004
 -12218884.18347  -9489067.51547  22436907.2424                   22436902.3554
        43.5004         42.5004
 -12446563.51347  -9681932.12747  22924481.3054                   22924477.0394
        44.0004         42.0004
 20  5 20  0  6  0.0000000  0 10G16G09G22G04G27G08G31G07G26G03
 -25090757.23947 -19420816.48546  20471071.0634                   20471063.0864
        47.0004         39.0004
 -20880064.44847 -16257728.42548  21405057.2344                   21405051.4064
        47.0004         50.0004
  -3007372.05346  -2339430.32943  24878778.0704                   24878767.9304
        37.7504         20.0004
 -27531099.90447 -21356112.60647  20237618.4454                   20237611.7774
        47.2504         42.0004
  -6791566.57646  -5268257.65846  23699865.6334                   23699861.2344
        40.7504         36.7504
  -1153558.15146   -881466.55144  24861870.7274                   24861867.1024
        36.2504         29.7504
  28840375.10156  22484160.25653  25613064.8284                   25613058.4844
        38.0004         21.0004
  -8715825.37547  -6702616.74146  23770149.9534                   23770142.2194
        44.2504         38.2504
 -12133261.06047  -9422348.22047  22453201.2424                   22453196.2704
        43.5004         42.0004
 -12345712.69947  -9603347.10246  22943673.1414                   22943668.5704
        43.7504         41.7504
 20  5 20  0  6 30.0000000  0 10G16G09G22G04G27G08G31G07G26G03
 -25066447.35647 -19401873.72246  20475696.9224                   20475688.6954
        47.0004         39.5004
 -20947515.47447 -16310287.67248  21392221.5394                   21392216.2934
        47.2504         50.0004
  -2903012.74246  -2258111.38943  24898634.6484                   24898627.4064
        37.5004         21.5004
 -27535694.42247 -21359692.76247  20236744.2734                   20236737.7664
        47.2504         42.7504
  -6880328.10446  -5337422.48146  23682974.7974                   23682970.5234
        40.0004         38.2504
  -1254288.45846   -959957.75144  24842702.9224                   24842697.4734
        37.0004         29.0004
  28931663.24846  22555293.88343  25630437.0004                   25630429.8554
        40.5004         21.2504
  -8788904.61947  -6759561.59046  23756243.4454                   23756236.1214
        44.0004         38.7504
 -12047320.95547  -9355381.92347  22469554.8984                   22469550.1214
        43.5004         42.5004
 -12244648.65747  -9524595.92246  22962905.0554                   22962900.3794
        44.2504         41.0004
 20  5 20  0  7  0.0000000  0 10G16G09G22G04G27G08G31G07G26G03
 -25041502.09247 -19382435.85646  20480443.8914                   20480435.9654
        47.0004         39.2504
 -21014675.31947 -16362620.02148  21379441.9844                   21379436.0634
        47.2504         50.0004
  -2798680.94346  -2176813.97043  24918491.0864                   24918481.3054
        40.5004         20.5004
 -27539857.31347 -21362936.57947  20235952.2664                   20235945.5904
        47.0004         42.0004
  -6968865.75146  -5406412.90346  23666126.1334                   23666122.3094
        40.5004         37.5004
  -1355079.90546  -1038496.59144  24823522.3364                   24823518.2114
        36.5004         29.7504
  29022895.78045  22626384.37642  25647796.2504                   25647790.3984
        34.5004         15.5004
  -8861879.72147  -6816425.30946  23742356.1564                   23742349.3284
        44.0004         38.5004
 -11961065.16747  -9288169.64447  22485968.3284                   22485964.0434
        43.5004         42.0004
 -12143373.09147  -9445679.91746  22982177.3284                   22982171.9144
        43.7504         40.7504
 20  5 20  0  7 30.0000000  0 10G16G09G22G04G27G08G31G07G26G03
 -25015923.19747 -19362504.25746  20485311.6254                   20485303.3134
        47.0004         39.0004
 -21081542.30547 -16414724.17148  21366716.9924                   21366711.8794
        47.0004         50.2504
  -2694379.65646  -2095540.22343  24938336.1254                   24938328.8054
        36.0004         19.7504
 -27543587.95147 -21365843.59147  20235242.3524                   20235235.7034
        47.0004         42.0004
  -7057176.54146  -5475226.53946  23649320.7894                   23649316.2074
        40.7504         37.2504
  -1455929.49046  -1117080.65645  24804331.4064                   24804327.9884
        37.0004         31.5004
  29114071.79746  22697430.29043  25665148.2114                   25665141.3714
        39.2504         21.5004
  -8934749.89147  -6873207.24646  23728489.9924                   23728482.4184
        43.5004         38.5004
 -11874496.70247  -9220713.72447  22502442.3364                   22502437.9774
        43.5004         42.2504
 -12041889.32247  -9366601.66846  23001488.4534                   23001483.6994
        43.2504         40.0004
 20  5 20  0  8  0.0000000  0 10G16G09G22G04G27G08G31G07G26G03
 -24989713.21847 -19342080.89446  20490299.0474                   20490291.0704
        47.2504         39.0004
 -21148115.22847 -16466599.18848  21354049.4694                   21354043.4884
        47.2504         50.5004
  -2590112.25446  -2014292.93443  24958179.6254                   24958169.9184
        40.0004         20.2504
 -27546886.06247 -21368413.55447  20234614.5084                   20234608.0594
        47.0004         42.0004
  -7145257.89246  -5543861.36246  23632559.0474                   23632556.8014
        40.2504         39.0004
  -1556835.06846  -1195708.45545  24785129.5704                   24785125.9384
        37.0004         30.5004
  29205190.12046  22768431.40943  25682486.3754                   25682481.3484
        40.5004         20.7504
  -9007516.38147  -6929908.40746  23714642.3054                   23714635.7154
        43.5004         38.5004
 -11787618.98747  -9153016.82946  22518974.4304                   22518969.9494
        43.7504         41.7504
 -11940201.07847  -9287364.11446  23020839.4534                   23020834.4694
        43.7504         40.0004
 20  5 20  0  8 30.0000000  0 10G16G09G22G04G27G08G31G07G26G03
 -24962869.80447 -19321163.95946  20495407.1564                   20495399.2774
        46.7504         39.0004
 -21214388.45248 -16518240.65748  21341437.8834                   21341432.2974
        48.0004         50.5004
  -2485877.69546  -1933071.16643  24978015.4534                   24978005.2194
        40.7504         18.2504
 -27549747.11447 -21370642.95047  20234069.9064                   20234063.4304
        47.0004         42.2504
  -7233102.76546  -5612311.87546  23615843.1564                   23615839.5744
        41.0004         38.7504
  -1657790.92746  -1274375.41745  24765917.9304                   24765914.7934
        36.7504         30.7504
  29296253.961 5                  25699813.883
        32.250
  -9080175.42447  -6986525.81946  23700816.2734                   23700808.8524
        43.5004         37.7504
 -11700431.12347  -9085078.25647  22535565.4144                   22535561.4264
        43.2504         42.0004
 -11838307.81047  -9207966.78146  23040229.2734                   23040224.0124
        43.0004         40.2504
 20  5 20  0  9  0.0000000  0 10G16G09G22G04G27G08G31G07G26G03
 -24935399.66947 -19299758.66046  20500634.7504                   20500626.8794
        47.2504         39.2504
 -21280365.14648 -16569651.08048  21328882.6804                   21328876.8524
        48.5004         50.5004
  -2381683.79146  -1851881.12643  24997841.2114                   24997832.7854
        38.7504         18.2504
 -27552175.38247 -21372535.12547  20233608.0084                   20233601.5314
        47.0004         42.0004
  -7320712.99146  -5680579.61446  23599171.8284                   23599168.2464
        40.5004         39.0004
  -1758798.91746  -1353082.98245  24746698.6484                   24746692.3134
        39.5004         31.0004
  29387257.54346  22788730.34653  25717132.6094                   25717126.3984
        36.2504         21.5004
  -9152732.13247  -7043063.50546  23687008.6564                   23687001.2344
        43.2504         37.2504
 -11612940.92847  -9016904.09747  22552214.1724                   22552210.2034
        43.0004         42.0004
 -11736217.68947  -9128416.06946  23059656.2814                   23059651.3444
        44.2504         40.5004
 20  5 20  0  9 30.0000000  0 10G16G09G22G04G27G08G31G07G26G03
 -24907302.30847 -19277864.62046  20505981.6414                   20505973.6414
        47.2504         39.2504
 -21346041.02247 -16620827.08148  21316385.1564                   21316379.7774
        47.5004         50.5004
  -2277530.43646  -1770722.65443  25017659.4774                   25017651.9414
        36.2504         18.5004
 -27554167.64047 -21374087.53547  20233229.0004                   20233222.3444
        47.0004         42.2504
  -7408083.00446  -5748660.10146  23582545.5704                   23582543.0944
        39.5004         39.2504
  -1859853.97646  -1431827.21644  24727466.9844                   24727463.7584
        38.5004         29.2504
  29478202.91245  22859596.75243  25734438.8754                   25734433.4064
        33.5004         22.2504
  -9225184.34747  -7099519.77446  23673221.5234                   23673214.0554
        42.7504         37.0004
 -11525148.75947  -8948494.63446  22568921.3444                   22568916.3984
        43.2504         41.7504
 -11633931.45547  -9048712.53046  23079120.5164                   23079116.1374
        44.2504         40.5004
 20  5 20  0 10  0.0000000  0 10G16G09G22G04G27G08G31G07G26G03
 -24878575.85247 -19255480.37346  20511447.8204                   20511440.2934
        47.7504         39.5004
 -21411410.82647 -16671764.60348  21303945.6024                   21303939.7384
        47.7504         50.5004
  -2173417.02946  -1689595.40443  25037473.2584                   25037464.9454
        38.5004         18.5004
 -27555719.67347 -21375296.93347  20232933.9614                   20232927.1094
        47.2504         42.5004
  -7495206.06646  -5816548.15846  23565966.9064                   23565962.9614
        40.7504         38.2504
  -1960949.70646  -1510603.13845  24708228.8914                   24708225.5164
        36.7504         30.0004
                                  25751735.984
        36.000
  -9297528.92347  -7155892.19246  23659454.8594                   23659447.2584
        44.0004         37.5004
 -11437054.02547  -8879849.42247  22585684.0864                   22585680.4964
        43.2504         42.0004
 -11531448.79947  -8968855.94846  23098622.8754                   23098617.6644
        43.5004         40.5004
 20  5 20  0 10 30.0000000  0 10G16G09G22G04G27G08G31G07G26G03
 -24849231.38147 -19232614.55546  20517032.2344                   20517023.9064
        47.0004         39.5004
 -21476482.07347 -16722469.47148  21291562.5234                   21291557.2734
        47.5004         50.5004
  -2069355.44146  -1608508.40542  25057275.4774                   25057266.4494
        39.5004         17.7504
 -27556840.09548 -21376170.00247  20232720.4614                   20232713.7934
        48.5004         42.2504
  -7582088.41646  -5884248.70046  23549434.5004                   23549429.8134
        41.0004         39.0004
  -2062093.25846  -1589416.38144  24688982.0474                   24688978.0314
        37.5004         29.5004
    711056.11346  24149175.87953  25769019.3914                   25769012.0784
        39.5004         20.5004
  -9369775.07647  -7212187.89146  23645706.8134                   23645699.9964
        44.0004         38.0004
 -11348669.04747  -8810978.03346  22602503.6174                   22602499.5474
        43.0004         41.5004
 -11428782.28147  -8888856.09246  23118158.9534                   23118154.9494
        43.0004         40.2504
 20  5 20  0 11  0.0000000  0 10G16G09G22G04G27G08G31G07G26G03
 -24819261.27547 -19209261.23346  20522735.1724                   20522727.1564
        47.0004         39.2504
 -21541243.18347 -16772932.67748  21279239.3284                   21279233.6094
        47.5004         50.7504
  -1965338.71946  -1527456.52543  25077069.0394                   25077060.8984
        38.7504         19.2504
 -27557518.41347 -21376698.58147  20232591.4924                   20232584.6914
        47.0004         42.0004
  -7668717.01046  -5951751.49746  23532950.0004                   23532945.1884
        41.5004         38.5004
  -2163272.02846  -1668256.85244  24669729.0944                   24669726.2664
        36.0004         28.5004
    801825.20046  24219905.00243  25786291.9064                   25786285.2114
        40.2504         22.5004
  -9441912.87247  -7268399.17046  23631979.3754                   23631972.2154
        43.7504         39.2504
 -11259986.66947  -8741874.91147  22619379.6334                   22619375.5784
        43.5004         42.0004
 -11325925.37147  -8808707.87546  23137731.9144                   23137727.7734
        43.0004         39.7504
 20  5 20  0 11 30.0000000  0 10G16G09G22G04G27G08G31G07G26G03
 -24788669.69647 -19185423.64346  20528556.3364                   20528548.2854
        47.0004         39.0004
 -21605694.71448 -16823154.66648  21266974.4694                   21266968.9804
        48.0004         50.5004
  -1861372.18546  -1446443.63043  25096855.2584                   25096844.2154
        39.7504         19.0004
 -27557756.39247 -21376884.03547  20232545.8054                   20232539.8364
        47.0004         42.5004
  -7755091.13647  -6019056.01446  23516513.7814                   23516508.6604
        43.0004         38.5004
  -2264485.23346  -1747124.39545  24650469.6484                   24650466.5354
        38.2504         31.0004
    892535.23546  24290588.08343  25803553.1564                   25803546.3984
        39.0004         22.0004
  -9513945.38347  -7324528.39646  23618272.8754                   23618265.4384
        44.7504         39.7504
 -11171012.28847  -8672544.24746  22636310.7274                   22636306.7734
        43.0004         41.0004
 -11222883.62647  -8728415.63246  23157340.4384                   23157335.5274
        43.5004         39.7504
 20  5 20  0 12  0.0000000  0 10G16G09G22G04G27G08G31G07G26G03
 -24757458.38747 -19161103.14246  20534495.7894                   20534487.8014
        47.2504         38.7504
 -21669834.70248 -16873133.88848  21254769.0314                   21254763.2344
        48.0004         50.7504
  -1757458.18846  -1365471.74043  25116628.3674                   25116619.3484
        40.0004         19.5004
 -27557553.08947 -21376725.62947  20232585.0944                   20232578.3754
        47.0004         42.2504
  -7841207.51646  -6086159.72246  23500125.9774                   23500119.6764
        41.2504         36.7504
  -2365730.50146  -1826016.93445  24631202.9144                   24631199.3244
        37.0004         30.5004
    983185.54345  24361224.63442  25820802.6024                   25820797.9384
        35.5004         17.7504
  -9585872.52847  -7380575.50446  23604585.5784                   23604578.0314
        44.7504         39.7504
 -11081748.56347  -8602988.12346  22653297.4064                   22653292.9384
        43.0004         41.5004
 -11119660.23347  -8647981.86146  23176983.0314                   23176978.5084
        43.0004         39.5004
 20  5 20  0 12 30.0000000  0  9G16G09G22G04G27G08G07G26G03
 -24725626.83347 -19136299.33946  20540553.0554                   20540545.0434
        47.0004         38.7504
 -21733658.79047 -16922866.95448  21242623.5394                   21242618.0044
        47.5004         50.7504
  -1653596.50446  -1284540.67043  25136392.2114                   25136383.0664
        39.2504         20.2504
 -27556905.35447 -21376220.91847  20232707.8914                   20232701.5234
        47.0004         42.0004
  -7927060.37846  -6153058.07846  23483788.9224                   23483783.8364
        41.5004         38.7504
  -2467002.43445  -1904930.14545  24611928.9844                   24611926.6094
        34.2504         30.0004
  -9657691.45247  -7436538.30046  23590918.7734                   23590911.2624
        44.7504         39.5004
 -10992195.80747  -8533206.78346  22670338.8134                   22670334.2854
        43.0004         41.5004
 -11016255.55947  -8567406.82046  23196660.7274                   23196656.1294
        43.0004         39.5004
 20  5 20  0 13  0.0000000  0 10G16G09G22G04G27G08G31G07G26G03
 -24693184.84147 -19111019.87546  20546726.6724                   20546718.7504
        47.0004         39.2504
 -21797173.05048 -16972358.60048  21230537.6254                   21230531.3834
        48.0004         50.7504
  -1549797.87346  -1203658.68943  25156145.3054                   25156136.8754
        38.0004         20.0004
 -27555820.36347 -21375375.48847  20232914.4384                   20232907.6414
        47.0004         42.2504
  -8012654.48046  -6219754.74946  23467499.9534                   23467496.2304
        39.7504         37.5004
  -2568306.24546  -1983868.16845  24592654.5784                   24592649.0944
        38.2504         30.7504
   1164302.11015                  25855269.438
        35.250
  -9729410.41247  -7492423.23546  23577270.2584                   23577263.2384
        44.2504         39.0004
 -10902364.73747  -8463208.56646  22687432.3674                   22687428.5944
        42.5004         40.5004
 -10912680.85747  -8486699.27846  23216370.2584                   23216365.7154
        43.5004         39.7504
 20  5 20  0 13 30.0000000  0 10G16G09G22G04G27G08G31G07G26G03
 -24660126.20747 -19085259.90346  20553017.3524                   20553009.7074
        47.5004         39.2504
 -21860367.43448 -17021600.99048  21218512.5004                   21218506.3404
        48.0004         51.0004
  -1446056.56946  -1122821.27643  25175887.8524                   25175877.9414
        40.5004         19.2504
 -27554289.29547 -21374182.45647  20233206.2114                   20233199.5514
        47.0004         42.5004
  -8097978.52146  -6286241.03546  23451263.1804                   23451259.2504
        40.0004         38.0004
  -2669631.12146  -2062822.66845  24573370.8444                   24573369.1054
        37.7504         32.2504
   1254771.16946  24362398.89153  25872484.6644                   25872479.0314
        36.5004         19.7504
  -9801021.41847  -7548223.99646  23563643.4844                   23563636.1524
        43.2504         39.0004
 -10812250.03347  -8392989.33146  22704581.1174                   22704576.7974
        42.7504         40.5004
 -10808931.12947  -8405855.36246  23236113.7034                   23236108.7234
        44.0004         40.0004
 20  5 20  0 14  0.0000000  0 10G16G09G22G04G27G08G31G07G26G03
 -24626454.81747 -19059022.46046  20559425.1564                   20559417.1724
        47.7504         38.7504
 -21923242.12547 -17070594.26448  21206547.3754                   21206541.6994
        47.5004         51.0004
  -1342377.81246  -1042032.62743  25195614.6644                   25195606.3714
        36.7504         19.0004
 -27552313.49947 -21372642.88347  20233581.6174                   20233575.2664
        47.0004         42.0004
  -8183031.19847  -6352515.78746  23435079.8524                   23435076.0084
        42.7504         41.0004
  -2770976.26146  -2141792.87945  24554086.4384                   24554082.6524
        37.5004         32.2504
   1345179.81146  24432847.06743  25889689.5164                   25889683.1884
        38.5004         21.7504
  -9872527.07647  -7603942.69246  23550037.1174                   23550029.0594
        42.5004         39.0004
 -10721856.51447  -8322552.83746  22721781.9844                   22721777.7464
        42.5004         41.0004
 -10705011.51347  -8324879.07446  23255888.7114                   23255883.7304
        43.0004         39.7504
 20  5 20  0 14 30.0000000  0 10G16G09G22G04G27G08G31G07G26G03
 -24592172.81747 -19032309.21246  20565948.5474                   20565940.2894
        47.5004         38.5004
 -21985795.37948 -17119337.06648  21194643.6334                   21194638.2194
        48.0004         51.0004
  -1238763.68346   -961294.39143  25215332.2344                   25215323.6454
        37.5004         18.2504
 -27549892.33947 -21370756.28647  20234042.7034                   20234036.0634
        47.0004         42.5004
  -8267809.51547  -6418576.80146  23418946.0004                   23418941.7034
        42.2504         40.5004
  -2872338.92646  -2220776.83845  24534798.2424                   24534793.6564
        38.0004         33.0004
   1435527.32846  24503247.66943  25906882.0164                   25906875.9304
        36.7504         20.5004
  -9943926.69847  -7659578.74046  23536449.3134                   23536442.8554
        42.7504         39.5004
 -10631187.07847  -8251901.34946  22739035.4384                   22739031.5984
        42.5004         40.7504
 -10600925.34347  -8243772.98846  23275695.4844                   23275691.2734
        43.2504         39.5004
 20  5 20  0 15  0.0000000  0 10G16G09G22G04G27G08G31G07G26G03
 -24557282.22848 -19005121.74746  20572587.9694                   20572579.7974
        48.0004         39.0004
 -22048025.45748 -17167828.04248  21182801.9144                   21182796.1804
        48.0004         51.0004
  -1135216.77945   -880608.57042  25235035.6334                   25235028.0514
        35.2504         17.2504
 -27547025.27447 -21368522.21947  20234588.3914                   20234581.5864
        47.0004         42.0004
  -8352310.28347  -6484421.63447  23402867.5234                   23402861.9774
        44.0004         42.0004
  -2973716.22546  -2299772.12245  24515506.3524                   24515502.9844
        37.7504         32.2504
   1525813.401 4                  25924063.695
        29.500
 -10015220.63447  -7715132.43946  23522882.7584                   23522876.0044
        44.0004         39.5004
 -10540244.63847  -8181037.15046  22756342.0004                   22756338.1454
        42.2504         41.0004
 -10496675.87347  -8162539.66746  23295532.7344                   23295529.1564
        42.0004         39.0004
 20  5 20  0 15 30.0000000  0  9G16G09G22G04G27G08G07G26G03
 -24521782.52647 -18977459.64446  20579343.6804                   20579335.4574
        47.0004         39.0004
 -22109927.91647 -17216063.73148  21171022.1174                   21171016.4414
        47.7504         51.0004
  -1031737.64946   -799975.47342  25254728.1024                   25254719.3714
        36.0004         16.2504
 -27543709.27147 -21365938.33447  20235219.3364                   20235213.0274
        47.0004         42.2504
  -8436528.04046  -6550045.75546  23386840.3914                   23386836.4304
        41.2504         40.2504
  -3075103.28646  -2378775.03345  24496212.2194                   24496210.7114
        36.7504         32.5004
 -10086407.23947  -7770602.50146  23509335.9224                   23509329.4024
        43.2504         39.5004
 -10449029.53947  -8109960.48046  22773699.9844                   22773695.6454
        43.0004         40.5004
 -10392263.74747  -8081179.59846  23315402.2344                   23315398.2154
        42.5004         39.2504
 20  5 20  0 16  0.0000000  0  9G16G09G22G04G27G08G07G26G03
 -24485679.46847 -18949327.39246  20586213.6174                   20586205.9184
        47.0004         39.0004
 -22171504.55848 -17264045.53348  21159304.8754                   21159299.3404
        48.0004         51.2504
   -928332.30646   -719399.94042  25274407.0634                   25274397.4774
        38.2504         16.2504
 -27539947.18047 -21363006.85147  20235935.3364                   20235928.4964
        47.0004         42.2504
  -8520462.92247  -6615449.60246  23370868.1884                   23370862.3954
        42.5004         38.7504
  -3176500.72045  -2457786.03445  24476916.4924                   24476914.2234
        35.7504         30.0004
 -10157489.82647  -7825991.50346  23495810.7734                   23495802.5824
        44.0004         39.2504
 -10357548.16747  -8038676.32246  22791108.2664                   22791103.7854
        42.2504         40.5004
 -10287695.71747  -7999698.04946  23335299.9224                   23335296.3914
        42.0004         38.5004
 20  5 20  0 16 30.0000000  0  9G16G09G22G04G27G08G07G26G03
 -24448972.84747 -18920724.82946  20593198.6094                   20593190.4964
        47.5004         38.7504
 -22232751.27548 -17311770.25248  21147649.7194                   21147644.2974
        48.5004         51.5004
   -825001.31946   -638882.37443  25294071.2504                   25294061.6914
        39.0004         18.5004
 -27535736.18547 -21359725.59247  20236736.4064                   20236730.3284
        47.0004         42.0004
  -8604109.78146  -6680628.99046  23354949.1954                   23354945.3554
        39.5004         36.7504
  -3277903.36545  -2536801.12445  24457620.8364                   24457618.1804
        35.2504         30.5004
 -10228466.10447  -7881297.67346  23482303.6334                   23482296.0864
        44.0004         39.7504
 -10265801.01447  -7967185.06546  22808567.6174                   22808563.2424
        42.5004         41.0004
 -10182972.73647  -7918095.76946  23355229.0634                   23355224.5004
        42.5004         39.0004
 20  5 20  0 17  0.0000000  0  9G16G09G22G04G27G08G07G26G03
 -24411664.54747 -18891653.43946  20600298.4304                   20600290.0944
        47.5004         39.0004
 -22293666.20248 -17359236.43748  21136058.2114                   21136052.6724
        48.0004         51.5004
   -721747.47346   -558424.86943  25313719.0314                   25313710.1054
        40.0004         18.2504
 -27531075.62947 -21356094.02347  20237623.4924                   20237616.9844
        46.7504         42.7504
  -8687465.20646  -6745581.25946  23339087.9844                   23339084.2814
        40.7504         38.0004
  -3379308.44946  -2615818.10744  24438324.1954                   24438320.1254
        36.7504         29.5004
 -10299336.20347  -7936521.11846  23468817.6884                   23468809.9844
        45.0004         40.0004
 -10173790.87747  -7895488.88846  22826076.0634                   22826071.7154
        42.0004         40.5004
 -10078097.87147  -7836375.13046  23375186.7504                   23375181.8054
        42.2504         38.7504
 20  5 20  0 17 30.0000000  0  9G16G09G22G04G27G08G07G26G03
 -24373756.78148 -18862114.92146  20607511.5314                   20607503.7894
        48.0004         39.0004
 -22354247.29147 -17406442.48348  21124529.8284                   21124524.2194
        47.7504         51.5004
   -618572.48846   -478028.81143  25333351.7584                   25333344.2584
        38.5004         19.5004
 -27525964.70547 -21352111.50947  20238596.2274                   20238589.4494
        47.5004         42.2504
  -8770526.03546  -6810303.98646  23323282.4224                   23323275.5744
        41.5004         36.0004
  -3480713.26846  -2694834.87645  24419027.4224                   24419023.6604
        37.5004         31.2504
 -10370100.32247  -7991661.97046  23455351.7664                   23455343.8874
        43.0004         40.5004
 -10081520.43347  -7823589.86446  22843634.5784                   22843630.4964
        42.7504         40.5004
  -9973074.20946  -7754538.53146  23395172.5084                   23395167.1804
        41.5004         38.0004
 20  5 20  0 18  0.0000000  0  9G16G09G22G04G27G08G07G26G03
 -24335251.34248 -18832110.69546  20614839.2194                   20614831.1054
        48.0004         39.0004
 -22414492.42448 -17453386.74648  21113065.6644                   21113059.5864
        48.5004         51.5004
   -515478.49446   -397695.81443  25352967.5634                   25352960.9844
        36.0004         19.5004
 -27520402.58847 -21347777.42447  20239654.2664                   20239647.8954
        47.0004         42.2504
  -8853288.63147  -6874794.33747  23307534.1724                   23307530.3094
        44.0004         43.0004
  -3582114.44146  -2773848.83245  24399731.8754                   24399727.5004
        38.2504         32.2504
 -10440758.01847  -8046719.91146  23441905.6484                   23441897.9804
        44.5004         39.7504
  -9988992.16647  -7751489.94446  22861242.3364                   22861237.3014
        42.0004         40.0004
  -9867904.54147  -7672588.17446  23415185.1484                   23415180.0864
        42.5004         38.2504
 20  5 20  0 18 30.0000000  0  9G16G09G22G04G27G08G07G26G03
 -24296149.45848 -18801641.69746  20622280.2424                   20622271.8054
        48.5004         38.5004
 -22474398.94148 -17500067.15648  21101665.8984                   21101659.8524
        48.5004         51.5004
   -412467.98146   -317427.96943  25372571.0864                   25372562.9884
        38.2504         19.7504
 -27514387.92547 -21343090.70447  20240799.1564                   20240792.6644
        47.7504         42.2504
  -8935749.18247  -6939049.27346  23291841.4224                   23291836.3954
        42.0004         39.5004
  -3683508.36246  -2852857.08045  24380437.7114                   24380433.9534
        39.2504         32.5004
 -10511309.06347  -8101694.72646  23428480.3594                   23428473.1094
        44.5004         40.0004
  -9896208.04047  -7679190.66046  22878897.9844                   22878894.0394
        42.0004         39.7504
  -9762591.28947  -7590525.92946  23435225.7584                   23435220.5664
        42.2504         38.5004
 20  5 20  0 19  0.0000000  0  9G16G09G22G04G27G08G07G26G03
 -24256454.03047 -18770710.20446  20629833.5704                   20629825.2894
        47.2504         39.0004
 -22533965.58847 -17546482.72748  21090330.8834                   21090325.0784
        47.7504         51.5004
   -309543.45146   -237227.10243  25392158.4844                   25392149.9144
        37.7504         19.7504
 -27507920.75847 -21338051.38447  20242029.9844                   20242023.1174
        47.7504         42.5004
  -9017905.05647  -7003066.89347  23276208.6334                   23276203.8674
        44.5004         43.5004
  -3784893.13546  -2931858.23245  24361144.5314                   24361140.4734
        38.2504         32.0004
 -10581753.49247  -8156586.46446  23415075.1414                   23415067.3634
        43.0004         40.2504
  -9803171.47846  -7606694.66246  22896602.1954                   22896598.5044
        41.5004         39.2504
  -9657138.24047  -7508354.74846  23455292.7584                   23455287.8984
        42.0004         38.5004
 20  5 20  0 19 30.0000000  0  9G16G09G22G04G27G08G07G26G03
 -24216166.55848 -18739317.37646  20637500.2274                   20637491.9844
        48.0004         39.0004
 -22593189.92048 -17592631.56248  21079060.7034                   21079054.8014
        48.5004         51.5004
   -206707.51346   -157095.18242  25411727.1564                   25411718.6804
        37.0004         17.7504
 -27500999.84048 -21332658.48747  20243346.7344                   20243340.2384
        48.0004         42.0004
  -9099752.60246  -7066844.12046  23260632.1414                   23260629.5634
        41.0004         40.2504
  -3886264.62246  -3010849.00645  24341853.9534                   24341850.5204
        38.0004         32.0004
 -10652091.28647  -8211395.11846  23401690.6644                   23401683.0124
        43.2504         40.5004
  -9709884.39547  -7534003.46646  22914354.8754                   22914350.5744
        42.5004         40.2504
  -9551547.85947  -7426076.57346  23475386.2584                   23475380.7704
        42.2504         38.7504
 20  5 20  0 20  0.0000000  0  9G16G09G22G04G27G08G07G26G03
 -24175289.87648 -18707465.42446  20645278.8594                   20645270.5474
        48.2504         38.5004
 -22652070.50448 -17638512.54248  21067855.8594                   21067850.1254
        48.0004         51.5004
   -103962.54246    -77034.31542  25431279.1564                   25431270.0474
        36.2504         16.7504
 -27493625.09847 -21326911.95347  20244750.1644                   20244743.6564
        47.5004         42.2504
  -9181288.93846  -7130379.02046  23245116.1414                   23245110.9304
        41.7504         40.0004
  -3987620.68146  -3089827.81345  24322566.4774                   24322562.6604
        36.7504         32.7504
 -10722322.42647  -8266120.65246  23388326.1094                   23388318.7034
        44.7504         40.5004
  -9616350.45846  -7461119.90446  22932153.2274                   22932149.5314
        41.5004         40.2504
  -9445823.77647  -7343694.20346  23495503.8444                   23495499.6134
        42.2504         37.5004
 20  5 20  0 20 30.0000000  0  9G16G09G22G04G27G08G07G26G03
 -24133824.41248 -18675154.67646  20653169.6804                   20653161.4494
        48.0004         38.2504
 -22710603.95447 -17684123.01948  21056717.5314                   21056711.9304
        47.7504         51.5004
     -1309.86046    -34742.01652  25450813.5864                   25450805.7934
        38.0004         17.2504
 -27485794.51647 -21320810.22347  20246239.9064                   20246233.3794
        47.7504         42.2504
  -9262509.59446  -7193667.75446  23229660.6094                   23229657.3554
        41.0004         39.2504
  -4088957.32246  -3168791.40045  24303282.5234                   24303279.5434
        36.7504         31.2504
 -10792446.07047  -8320762.41546  23374981.5084                   23374974.6724
        44.5004         40.5004
  -9522570.69647  -7388044.81046  22949999.0394                   22949995.2074
        42.0004         40.0004
  -9339967.58347  -7261208.89446  23515648.4614                   23515643.1954
        42.7504         37.7504
 20  5 20  0 21  0.0000000  0  9G16G09G22G04G27G08G07G26G03
 -24091773.77947 -18642387.95946  20661171.6484                   20661163.5864
        47.7504         38.5004
 -22768789.46348 -17729462.37648  21045645.3594                   21045639.1134
        48.0004         51.5004
    101247.10746     45172.40042  25470328.8134                   25470321.0554
        37.5004         16.7504
 -27477508.56647 -21314353.66346  20247817.2194                   20247810.8014
        47.0004         41.7504
  -9343412.29247  -7256708.83546  23214264.9774                   23214259.6684
        42.0004         38.2504
  -4190272.32646  -3247738.14345  24284003.9454                   24284000.3284
        38.0004         32.5004
 -10862463.60047  -8375321.51046  23361657.8674                   23361650.3634
        45.0004         41.0004
  -9428548.90647  -7314781.10546  22967891.2194                   22967886.6954
        42.2504         40.0004
  -9233983.47646  -7178623.91246  23535816.1644                   23535811.1684
        41.7504         37.0004
 20  5 20  0 21 30.0000000  0  9G16G09G22G04G27G08G07G26G03
 -24049139.04948 -18609166.10446  20669284.6484                   20669276.5164
        48.0004         38.5004
 -22826624.55148 -17774528.69648  21034639.5234                   21034633.7974
        48.7504         52.5004
    203706.55646    104015.10152  25489827.2584                   25489817.1484
        38.5004         16.7504
 -27468766.17948 -21307541.43146  20249480.7424                   20249474.3244
        48.0004         41.0004
  -9423993.39747  -7319499.34146  23198931.1884                   23198926.9884
        43.2504         39.2504
  -4291562.24246  -3326665.37745  24264729.0004                   24264725.0824
        39.2504         33.0004
 -10932374.16847  -8429797.26846  23348355.0164                   23348347.1954
        44.7504         41.0004
  -9334287.26647  -7241330.50146  22985828.7584                   22985823.9304
        42.0004         39.0004
  -9127874.02346  -7095941.23646  23556008.2274                   23556003.4454
        41.0004         37.2504
 20  5 20  0 22  0.0000000  0  9G16G09G22G04G27G08G07G26G03
 -24005922.86348 -18575491.16246  20677508.3524                   20677500.4844
        48.0004         39.2504
 -22884107.13648 -17819320.31648  21023700.9304                   21023694.9804
        48.2504         52.0004
    306065.98346    141112.53453  25509304.4304                   25509291.2234
        36.0004         21.0004
 -27459566.49347 -21300372.85747  20251231.4924                   20251224.9024
        47.2504         42.0004
  -9504249.37647  -7382036.48346  23183659.7664                   23183654.9414
        43.5004         40.2504
  -4392823.83646  -3405570.50545  24245459.3284                   24245455.3874
        39.2504         33.5004
 -11002177.15147  -8484189.17746  23335071.0864                   23335064.1094
        43.2504         40.5004
  -9239788.18747  -7167694.88846  23003811.2814                   23003806.3444
        42.0004         39.5004
  -9021642.02147  -7013163.10046  23576223.5164                   23576218.6684
        42.0004         38.5004
 20  5 20  0 22 30.0000000  0  9G16G09G22G04G27G08G07G26G03
 -23962127.76148 -18541365.11446  20685842.2664                   20685834.5554
        48.5004         39.0004
 -22941235.50148 -17863835.93248  21012829.6564                   21012823.9024
        48.2504         51.7504
    408323.05246    220793.41042  25528763.4384                   25528754.0204
        37.5004         17.2504
 -27449909.32547 -21292847.81646  20253068.9064                   20253062.7344
        47.7504         41.7504
  -9584177.38447  -7444318.07446  23168449.0554                   23168445.1484
        43.0004         40.0004
  -4494054.27346  -3484451.40845  24226196.1724                   24226191.8594
        39.0004         34.0004
 -11071873.06647  -8538497.67046  23321807.9384                   23321800.8054
        44.2504         41.5004
  -9145054.70447  -7093876.62446  23021838.5704                   23021834.1454
        42.2504         39.0004
  -8915290.90146  -6930292.13446  23596462.0164                   23596457.0394
        41.5004         38.0004
 20  5 20  0 23  0.0000000  0  9G16G09G22G04G27G08G07G26G03
 -23917754.85148 -18506788.82246  20694286.4064                   20694278.1804
        48.0004         39.0004
 -22998007.10948 -17908073.54648  21002026.5704                   21002020.7814
        48.7504         52.0004
    510475.51446    300392.75342  25548202.2664                   25548193.5354
        37.0004         17.2504
 -27439793.43548 -21284965.30346  20254994.0554                   20254987.3244
        48.2504         41.7504
  -9663773.63847  -7506341.12046  23153303.1334                   23153298.7424
        44.0004         41.2504
  -4595250.47246  -3563305.56745  24206939.4454                   24206935.0204
        39.0004         33.5004
 -11141461.57647  -8592722.47746  23308565.9534                   23308558.7344
        44.7504         41.0004
  -9050088.80047  -7019877.24446  23039909.8674                   23039905.3164
        42.0004         39.5004
  -8808822.95346  -6847330.13546  23616721.6024                   23616717.0784
        40.7504         37.7504
 20  5 20  0 23 30.0000000  0  9G16G09G22G04G27G08G07G26G03
 -23872805.83948 -18471763.63446  20702839.9694                   20702831.8014
        48.7504         39.0004
 -23054419.38048 -17952031.17148  20991291.7424                   20991286.1134
        48.7504         52.0004
    612521.98846    379909.48742  25567620.7194                   25567611.6684
        36.0004         17.7504
 -27429217.66148 -21276724.46447  20257006.3754                   20257000.0394
        49.0004         42.0004
  -9743034.16647  -7568102.54846  23138219.5554                   23138216.0554
        43.0004         41.7504
  -4696408.54346  -3642130.06145  24187688.8984                   24187685.2424
        38.5004         32.5004
 -11210942.15347  -8646863.17446  23295343.3054                   23295336.7854
        44.5004         41.0004
  -8954892.47347  -6945698.32146  23058025.0554                   23058020.6564
        42.7504         39.0004
  -8702240.67346  -6764279.04946  23637004.0944                   23636998.6844
        41.7504         37.0004
 20  5 20  0 24  0.0000000  0  9G16G09G22G04G27G08G07G26G03
 -23827283.84448 -18436291.95246  20711502.3914                   20711494.0824
        48.5004         39.0004
 -23110471.17348 -17995707.89748  20980625.0704                   20980619.3794
        48.7504         52.2504
    714459.41545    459341.19542  25587018.6954                   25587009.9534
        34.7504         17.2504
 -27418182.20548 -21268125.42547  20259106.5944                   20259100.0474
        48.2504         42.0004
  -9821956.60247  -7629600.53046  23123202.0704                   23123197.2114
        44.2504         41.5004
  -4797526.33946  -3720923.17945  24168446.7114                   24168442.7974
        36.7504         32.2504
 -11280315.13047  -8700920.04646  23282143.2344                   23282136.1414
        44.0004         40.5004
  -8859469.14246  -6871342.50246  23076183.3754                   23076178.7384
        41.5004         38.2504
  -8595547.87346  -6681141.83746  23657307.2734                   23657301.5004
        41.5004         36.5004
 20  5 20  0 24 30.0000000  0  8G16G09G04G27G08G07G26G03
 -23781186.92148 -18400372.28846  20720274.2344                   20720266.1684
        48.5004         38.5004
 -23166156.30548 -18039098.90548  20970028.7974                   20970023.0744
        49.0004         52.2504
 -27406682.29948 -21259164.47047  20261295.0084                   20261288.6684
        48.2504         42.2504
  -9900533.54147  -7690829.28746  23108249.3444                   23108245.7234
        44.2504         41.7504
  -4898596.06746  -3799678.81545  24149213.7114                   24149210.8794
        36.7504         32.5004
 -11349576.58847  -8754890.01346  23268963.2584                   23268955.5514
        43.2504         40.7504
  -8763817.34447  -6796808.65846  23094385.2114                   23094381.0594
        42.5004         39.0004
  -8488743.31846  -6597917.53046  23677630.7034                   23677626.2504
        41.2504         36.2504
 20  5 20  0 25  0.0000000  0  8G16G09G04G27G08G07G26G03
 -23734524.94948 -18364012.31946  20729154.1954                   20729145.9614
        48.5004         38.7504
 -23221480.45348 -18082208.64048  20959500.7664                   20959495.1884
        49.5004         52.2504
 -27394725.12448 -21249847.21046  20263570.1884                   20263564.0274
        48.5004         41.7504
  -9978769.42247  -7751792.28146  23093361.2734                   23093356.8134
        44.0004         40.5004
  -4999623.62946  -3878401.58445  24129989.7504                   24129984.7194
        37.5004         32.7504
 -11418734.13247  -8808779.01646  23255802.9384                   23255795.1764
        43.5004         40.5004
  -8667947.22047  -6722104.70046  23112628.7424                   23112624.7274
        42.5004         39.5004
  -8381837.68246  -6514614.46546  23697974.4694                   23697969.3634
        41.5004         36.0004
 20  5 20  0 25 30.0000000  0  8G16G09G04G27G08G07G26G03
 -23687296.60548 -18327211.01646  20738141.0704                   20738132.8594
        48.7504         39.0004
 -23276437.87148 -18125032.60348  20949042.7034                   20949036.8984
        49.2504         52.2504
 -27382306.28248 -21240170.20346  20265933.5634                   20265927.1804
        48.2504         41.5004
 -10056657.16247  -7812484.04146  23078539.7664                   23078535.3164
        43.2504         41.0004
  -5100601.05146  -3957085.27745  24110774.1644                   24110769.7854
        38.0004         33.2504
 -11487783.93147  -8862584.03846  23242663.5234                   23242656.0904
        43.7504         41.2504
  -8571857.58047  -6647229.69446  23130913.9454                   23130909.8204
        43.0004         39.0004
  -8274830.15647  -6431232.02046  23718338.0004                   23718332.6884
        42.7504         37.2504
 20  5 20  0 26  0.0000000  0  8G16G09G04G27G08G07G26G03
