     2.11           OBSERVATION DATA    G (GPS)             RINEX VERSION / TYPE
teqc  2019Feb25     Salamtina Y.M.      20200909 02:44:21UTCPGM / RUN BY / DATE
Linux 2.6.32-573.12.1.x86_64|x86_64|gcc|Linux 64|=+         COMMENT
BIT 2 OF LLI FLAGS DATA COLLECTED UNDER A/S CONDITION       COMMENT
Kazarman                                                    MARKER NAME
kaza                                                        MARKER NUMBER
Matix A.I.          RS_RAS                                  OBSERVER / AGENCY
4752143407          TRIMBLE NETRS       1.3-2               REC # / TYPE / VERS
30895097            TRM55971.00                             ANT # / TYPE
  1325807.7297  4606496.6895  4195524.6396                  APPROX POSITION XYZ
        0.0890        0.0000        0.0000                  ANTENNA: DELTA H/E/N
     1     1                                                WAVELENGTH FACT L1/2
     7    L1    L2    C1    P1    P2    S1    S2            # / TYPES OF OBSERV
    30.0000                                                 INTERVAL
    18                                                      LEAP SECONDS
TIME: 2020.05.22                                            COMMENT
TOUR: cont                                                  COMMENT
RSET: RAS03                                                 COMMENT
ASET: RAS03                                                 COMMENT
OPER: matx (Matix A.I.)                                     COMMENT
SOUR: KAZA202005220000A.dat                                 COMMENT
SUPP: KAZA202005220000A.eph                                 COMMENT
SUPP: KAZA202005220000A.ion                                 COMMENT
SUPP: KAZA202005220000A.mes                                 COMMENT
Forced Modulo Decimation to 30 seconds                      COMMENT
 SNR is mapped to RINEX snr flag value [0-9]                COMMENT
  L1 & L2: min(max(int(snr_dBHz/6), 0), 9)                  COMMENT
  2020     5    22     0     0    0.0000000     GPS         TIME OF FIRST OBS
                                                            END OF HEADER
 20  5 22  0  0  0.0000000  0 10G16G22G04G09G27G08G31G07G03G26
 -24355567.60247 -18728928.48146  20489638.1094                   20489630.1644
        47.0004         39.2504
  -3216127.77946  -2493144.94843  24978850.9144                   24978838.4534
        40.5004         19.7504
 -28437274.35447 -22126811.96547  20234650.9534                   20234644.4804
        47.5004         42.0004
 -22119896.05247 -17222636.60648  21352862.6094                   21352857.1804
        47.5004         50.5004
  -8148672.92646  -6335853.74946  23627124.5234                   23627121.4924
        39.7504         38.5004
  -1027918.30245   -783304.16744  24778125.8444                   24778121.4224
        35.2504         29.0004
  30449102.563 5                  25697027.648
        33.250
  -9991307.11947  -7717240.20446  23710226.6334                   23710218.7814
        44.0004         37.5004
 -11117137.25347  -8649092.98646  23036366.3984                   23036362.1994
        43.5004         40.2504
 -12402409.51047  -9794559.56046  22529196.9694                   22529193.3954
        43.2504         41.5004
 20  5 22  0  0 30.0000000  0 10G16G22G04G09G27G08G31G07G03G26
 -24328708.96047 -18707999.68246  20494749.2344                   20494741.2934
        47.0004         39.0004
  -3111895.23346  -2411924.78543  24998684.9844                   24998672.9774
        40.5004         19.5004
 -28439989.54147 -22128927.71747  20234134.1804                   20234127.7274
        47.7504         42.0004
 -22186130.94247 -17274248.21748  21340258.8204                   21340253.3364
        47.5004         50.5004
  -8236429.77946  -6404235.69046  23610425.6804                   23610421.1644
        41.0004         38.0004
  -1128888.03846   -861981.85644  24758912.2584                   24758908.0164
        36.7504         28.5004
  30540143.18146  23420601.56553  25714353.6564                   25714347.5004
        37.7504         20.0004
 -10063923.21547  -7773824.19946  23696408.0634                   23696400.2774
        43.5004         37.5004
 -11015060.65247  -8569552.79246  23055791.1564                   23055786.3244
        44.0004         40.5004
 -12315049.47147  -9726486.82747  22545821.4224                   22545818.0204
        43.0004         42.2504
 20  5 22  0  1  0.0000000  0 10G16G22G04G09G27G08G31G07G03G26
 -24301221.64247 -18686580.99446  20499979.9534                   20499971.9734
        47.0004         39.2504
  -3007703.12146  -2330736.10542  25018511.1334                   25018500.8874
        39.2504         17.7504
 -28442269.24447 -22130704.12247  20233700.4924                   20233693.7734
        46.7504         42.0004
 -22252066.52847 -17325626.60048  21327711.8364                   21327706.0354
        47.7504         50.5004
  -8323948.49546  -6472432.10246  23593771.1334                   23593767.6604
        39.5004         38.7504
  -1229906.20546   -940697.25845  24739690.1564                   24739686.5314
        39.0004         30.0004
  30631125.48945  23491496.84343  25731666.9534                   25731660.8554
        35.5004         21.7504
 -10136434.56947  -7830326.57246  23682609.5234                   23682601.9264
        43.0004         37.5004
 -10912787.20147  -8489859.21746  23075253.8594                   23075248.5274
        44.5004         41.0004
 -12227386.19847  -9658177.81146  22562503.2734                   22562499.3754
        43.2504         41.5004
 20  5 22  0  1 30.0000000  0  9G16G22G04G09G27G08G07G03G26
 -24273103.73947 -18664670.94446  20505330.6804                   20505322.8524
        47.2504         38.7504
  -2903550.65646  -2249578.30143  25038330.2504                   25038321.0234
        39.0004         18.2504
 -28444109.05047 -22132137.75947  20233349.9614                   20233343.7424
        47.0004         42.0004
 -22317697.33847 -17376767.50748  21315222.3984                   21315216.7424
        47.2504         50.2504
  -8411222.17846  -6540437.50846  23577163.3284                   23577160.5274
        39.5004         39.7504
  -1330967.01846  -1019446.10045  24720457.8364                   24720454.0084
        38.2504         30.7504
 -10208837.74947  -7886744.65646  23668830.7504                   23668823.7384
        43.2504         37.0004
 -10810316.33647  -8410011.79546  23094752.9774                   23094748.1094
        43.7504         40.0004
 -12139418.90347  -9589631.89546  22579243.5554                   22579239.4264
        43.2504         41.5004
 20  5 22  0  2  0.0000000  0 10G16G22G04G09G27G08G31G07G03G26
 -24244367.66447 -18642279.20246  20510798.8134                   20510790.6334
        47.0004         39.2504
  -2799450.55046  -2168461.36142  25058139.5784                   25058129.1764
        39.2504         17.7504
 -28445518.81647 -22133236.29947  20233082.1254                   20233075.7234
        46.7504         42.0004
 -22383032.17147 -17427677.76748  21302789.7504                   21302783.8874
        47.5004         50.5004
  -8498258.25546  -6608257.80446  23560601.9144                   23560596.4734
        41.2504         38.5004
  -1432078.13946  -1098234.04344  24701217.1644                   24701212.3834
        38.5004         29.5004
   -302592.82056  23542718.24653  25766260.8594                   25766254.1684
        41.0004         20.2504
 -10281143.50347  -7943086.79646  23655072.0864                   23655064.6844
        43.2504         37.7504
 -10707661.93347  -8330021.35946  23114287.4454                   23114282.6524
        44.5004         40.0004
 -12051161.02247  -9520859.55646  22596038.0554                   22596034.0984
        43.5004         41.5004
 20  5 22  0  2 30.0000000  0 10G16G22G04G09G27G08G31G07G03G26
 -24215003.83847 -18619398.30546  20516386.5554                   20516378.4964
        47.0004         39.0004
  -2695394.64446  -2087378.82943  25077939.3524                   25077931.1804
        36.2504         19.0004
 -28446486.43748 -22133990.30047  20232897.8444                   20232891.0164
        48.0004         42.2504
 -22448057.78947 -17478347.08948  21290415.4924                   21290410.0394
        47.5004         50.2504
  -8585042.12946  -6675881.61746  23544086.9534                   23544082.8524
        41.5004         39.0004
  -1533225.48946  -1177050.22344  24681969.3134                   24681966.7234
        37.2504         29.7504
   -211787.19546  23613475.92643  25783540.0084                   25783534.3364
        40.5004         22.7504
 -10353340.64947  -7999344.31646  23641334.1884                   23641326.3834
        44.2504         38.5004
 -10604815.75347  -8249881.50546  23133858.4454                   23133853.5434
        43.7504         40.0004
 -11962604.03147  -9451854.14846  22612890.2344                   22612886.1524
        43.0004         41.5004
 20  5 22  0  3  0.0000000  0 10G16G22G04G09G27G08G31G07G03G26
 -24185017.13647 -18596032.04246  20522092.6804                   20522084.8094
        47.5004         38.7504
  -2591389.06746  -2006335.53843  25097731.7034                   25097722.8014
        38.7504         19.7504
 -28447014.67148 -22134401.93647  20232797.2894                   20232791.1294
        48.0004         42.2504
 -22512775.86447 -17528776.76148  21278099.8914                   21278094.9964
        47.2504         50.5004
  -8671574.15247  -6743309.15146  23527621.5784                   23527616.5784
        42.0004         39.0004
  -1634410.27545  -1255895.44745  24662714.7664                   24662711.7814
        35.5004         30.0004
   -121040.87846  23684187.31943  25800808.0784                   25800802.7074
        39.0004         22.2504
 -10425432.54047  -8055519.82246  23627614.5234                   23627607.8134
        44.5004         39.2504
 -10501784.44347  -8169597.38146  23153464.9534                   23153460.0084
        44.2504         40.2504
 -11873754.25147  -9382620.57446  22629797.3134                   22629793.2194
        42.7504         41.0004
 20  5 22  0  3 30.0000000  0 10G16G22G04G09G27G08G31G07G03G26
 -24154410.01247 -18572182.33946  20527917.3054                   20527909.4414
        47.0004         38.5004
  -2487436.31146  -1925333.39443  25117512.6414                   25117505.0514
        37.2504         19.5004
 -28447102.72647 -22134470.56747  20232780.5864                   20232774.3094
        47.0004         42.0004
 -22577184.45547 -17578965.28048  21265843.5784                   21265837.9184
        47.2504         50.5004
  -8757850.99547  -6810537.89446  23511202.8134                   23511198.0044
        42.0004         38.0004
  -1735629.36046  -1334767.58945  24643453.9304                   24643448.8914
        38.5004         30.0004
    -30354.39446  23754852.07943  25818065.1644                   25818060.1214
        38.7504         19.0004
 -10497419.38247  -8111613.46546  23613916.2584                   23613909.0084
        44.5004         39.7504
 -10398571.13547  -8089171.44246  23173104.7114                   23173100.6804
        43.5004         40.0004
 -11784614.37447  -9313160.97246  22646760.7344                   22646756.1954
        43.0004         41.0004
 20  5 22  0  4  0.0000000  0 10G16G22G04G09G27G08G31G07G03G26
 -24123180.09947 -18547847.33546  20533859.7734                   20533852.1414
        47.5004         39.0004
  -2383535.06746  -1844371.49543  25137286.3054                   25137276.7074
        39.2504         20.0004
 -28446745.80848 -22134192.46547  20232848.7894                   20232842.0634
        48.7504         42.2504
 -22641277.63648 -17628908.02848  21253646.7034                   21253641.5004
        48.0004         50.5004
  -8843865.50646  -6877562.20246  23494835.0864                   23494829.9414
        41.5004         38.5004
  -1836875.87546  -1413661.01144  24624186.6484                   24624182.6254
        38.0004         29.7504
                                  25835312.008
        31.250
 -10569297.32947  -8167622.26246  23600239.0004                   23600231.6484
        45.0004         39.2504
 -10295174.91647  -8008602.97646  23192780.5164                   23192776.2664
        43.5004         39.7504
 -11695183.22447  -9243474.39146  22663778.6094                   22663774.0864
        42.5004         41.0004
 20  5 22  0  4 30.0000000  0  9G16G22G04G09G27G08G07G03G26
 -24091336.17047 -18523033.88346  20539920.0164                   20539911.9574
        47.0004         39.5004
  -2279694.61446  -1763456.89043  25157047.1954                   25157037.0394
        40.5004         19.2504
 -28445950.23048 -22133572.55047  20233000.0634                   20232993.3204
        48.5004         42.2504
 -22705060.64147 -17678609.07148  21241509.5634                   21241503.8444
        47.7504         50.5004
  -8929621.41946  -6944385.00646  23478516.0944                   23478511.9774
        40.7504         38.5004
  -1938153.74645  -1492578.85844  24604912.3754                   24604910.0514
        35.5004         29.2504
 -10641073.84347  -8223552.02446  23586579.5234                   23586571.9844
        44.0004         39.0004
 -10191606.01847  -7927899.95046  23212489.9224                   23212484.9224
        44.0004         39.7504
 -11605470.61747  -9173568.49446  22680850.5164                   22680846.1414
        43.0004         41.0004
 20  5 22  0  5  0.0000000  0 10G16G22G04G09G27G08G31G07G03G26
 -24058879.16747 -18497742.72246  20546096.2894                   20546088.0474
        47.2504         39.0004
  -2175916.82946  -1682591.05543  25176795.9844                   25176784.1684
        40.5004         19.5004
 -28444714.33547 -22132609.52746  20233235.2504                   20233228.7074
        46.0004         40.5004
 -22768530.60047 -17728066.16347  21229432.1094                   21229425.9804
        45.0004         45.0004
  -9015114.66646  -7011003.09645  23462246.1024                   23462242.0234
        36.7504         30.7504
  -2039460.14946  -1571518.93845  24585636.8444                   24585632.1134
        40.7504         33.5004
    241350.89655  23792786.97652  25869767.8984                   25869763.0234
        33.0004         17.2504
 -10712747.58447  -8279401.70145  23572940.6644                   23572933.0044
        44.5004         33.5004
 -10087866.62547  -7847064.06546  23232229.7664                   23232226.0824
        43.0004         37.2504
 -11515478.36246  -9103444.66846  22697975.3444                   22697970.7504
        40.7504         37.2504
 20  5 22  0  5 30.0000000  0 10G16G22G04G09G27G08G31G07G03G26
 -24025805.41647 -18471970.97646  20552389.6024                   20552382.1024
        47.5004         40.2504
  -2072198.29046  -1601771.38243  25196529.6804                   25196522.0164
        37.2504         19.2504
 -28443031.79947 -22131298.47047  20233555.4924                   20233549.0664
        47.0004         42.0004
 -22831679.96147 -17777273.48748  21217414.5864                   21217408.8554
        47.5004         50.5004
  -9100336.27947  -7077409.54846  23446030.5634                   23446025.8634
        42.5004         39.7504
  -2140785.96646  -1650474.09044  24566355.5004                   24566351.2234
        37.0004         29.2504
    331795.647 6                  25886979.109
        36.500
 -10784312.82947  -8335166.83346  23559321.9144                   23559315.2274
        42.7504         38.5004
  -9983954.15347  -7766093.33246  23252004.0394                   23251999.7584
        43.7504         40.2504
 -11425203.66947  -9033100.80546  22715154.1094                   22715149.3554
        42.5004         41.5004
 20  5 22  0  6  0.0000000  0 10G16G22G04G09G27G08G31G07G03G26
 -23992119.50247 -18445722.20446  20558800.1804                   20558792.2074
        47.0004         38.7504
  -1968544.49946  -1521002.20843  25216256.6254                   25216246.3054
        40.5004         19.2504
 -28440904.44847 -22129640.81646  20233960.3754                   20233953.7464
        46.7504         41.7504
 -22894509.45147 -17826231.54348  21205458.4304                   21205453.5124
        47.7504         51.0004
  -9185285.61147  -7143603.81346  23429865.2424                   23429861.4104
        42.0004         41.0004
  -2242131.21846  -1729444.49345  24547069.9694                   24547065.5594
        38.0004         31.7504
    422179.13946  23915805.10453  25904178.0234                   25904172.5164
        37.7504         21.5004
 -10855772.36947  -8390849.59646  23545724.1884                   23545717.4494
        43.5004         39.5004
  -9879874.44047  -7684992.27646  23271810.2664                   23271805.7034
        43.2504         39.5004
 -11334651.86847  -8962540.97446  22732385.6564                   22732380.9494
        43.2504         40.5004
 20  5 22  0  6 30.0000000  0 10G16G22G04G09G27G08G31G07G03G26
 -23957820.80147 -18418995.94946  20565327.0784                   20565319.0314
        47.0004         39.2504
  -1864955.50146  -1440283.57942  25235968.8364                   25235959.4964
        37.5004         16.7504
 -28438329.18847 -22127634.13447  20234450.1334                   20234444.2344
        47.0004         42.2504
 -22957014.77647 -17874936.98848  21193564.3914                   21193558.6884
        47.2504         51.0004
  -9269957.13047  -7209581.62846  23413752.6334                   23413747.1804
        43.0004         41.0004
  -2343490.40746  -1808425.71645  24527780.8284                   24527777.2934
        37.7504         32.5004
                                  25921366.9304                   25921361.3554
        29.5004         17.2504
 -10927124.10647  -8446448.35746  23532146.4614                   23532139.6134
        43.5004         39.2504
  -9775628.13347  -7603761.40246  23291647.6644                   23291643.2074
        43.0004         39.5004
 -11243823.31547  -8891765.51046  22749669.5314                   22749665.5984
        42.5004         41.0004
 20  5 22  0  7  0.0000000  0  9G16G22G04G09G27G08G07G03G26
 -23922915.78747 -18391797.24446  20571969.1094                   20571961.1454
        47.5004         38.5004
  -1761438.40746  -1378615.77853  25255667.1414                   25255658.1214
        38.5004         19.0004
 -28435309.85147 -22125281.42147  20235024.8834                   20235018.4774
        46.7504         42.0004
 -23019198.58147 -17923391.90348  21181731.1174                   21181725.6644
        47.5004         50.7504
  -9354352.03346  -7275343.94746  23397692.2274                   23397689.0274
        41.0004         41.0004
  -2444865.91746  -1887419.65245  24508490.5314                   24508486.0864
        38.0004         32.5004
 -10998372.35547  -8501966.48746  23518587.9844                   23518580.7624
        43.5004         39.5004
  -9671222.92347  -7522406.71746  23311514.9924                   23311510.4534
        43.5004         38.2504
 -11152725.32147  -8820780.08546  22767004.6884                   22767000.9224
        42.2504         40.5004
 20  5 22  0  7 30.0000000  0  9G16G22G04G09G27G08G07G03G26
 -23887403.74947 -18364125.53246  20578726.6254                   20578718.8094
        47.0004         38.7504
  -1657992.83946  -1298008.82142  25275351.4534                   25275343.2384
        38.0004         16.7504
 -28431842.82747 -22122579.85247  20235684.5474                   20235678.5004
        46.7504         42.0004
 -23081056.03347 -17971592.52048  21169960.0164                   21169954.5124
        47.5004         51.0004
  -9438464.26747  -7340885.84746  23381687.5634                   23381682.4734
        44.0004         41.0004
  -2546251.22346  -1966421.22745  24489196.4224                   24489193.9414
        36.5004         32.2504
 -11069514.97547  -8557402.29146  23505050.1954                   23505042.7624
        44.2504         39.0004
  -9566659.00047  -7440928.35246  23331412.8914                   23331408.6954
        43.0004         39.0004
 -11061357.68347  -8749584.56946  22784391.6484                   22784387.5514
        42.5004         40.5004
 20  5 22  0  8  0.0000000  0  9G16G22G04G09G27G08G07G03G26
 -23851286.60647 -18335982.30046  20585599.6884                   20585591.7234
        47.7504         39.0004
  -1554621.74346  -1217460.06343  25295024.5004                   25295014.5984
        39.7504         18.5004
 -28427927.43047 -22119528.91147  20236429.6174                   20236423.2664
        47.0004         42.0004
 -23142585.16647 -18019537.29748  21158251.4064                   21158245.9924
        47.5004         51.0004
  -9522290.49546  -7406205.09546  23365734.6414                   23365729.3364
        40.7504         36.2504
  -2647643.94046  -2045428.53645  24469903.1254                   24469899.5664
        36.2504         31.5004
 -11140551.34647  -8612755.31046  23491532.2194                   23491524.8594
        44.5004         39.5004
  -9461939.41347  -7359328.70946  23351340.6954                   23351336.3794
        42.2504         39.2504
 -10969723.17947  -8678181.08046  22801828.9534                   22801825.6484
        42.0004         40.7504
 20  5 22  0  8 30.0000000  0  9G16G22G04G09G27G08G07G03G26
 -23814566.85447 -18307369.51446  20592586.9694                   20592579.6684
        47.5004         39.0004
  -1451327.48746  -1136970.88143  25314676.8134                   25314671.2854
        36.0004         18.2504
 -28423563.49047 -22116128.44847  20237260.0004                   20237253.6764
        46.7504         42.0004
 -23203784.62447 -18067225.18648  21146605.3984                   21146599.7974
        47.7504         51.2504
  -9605828.18146  -7471299.39946  23349837.9924                   23349834.4144
        41.2504         39.0004
  -2749041.49546  -2124439.62144  24450607.9614                   24450603.9534
        36.2504         29.7504
 -11211481.82747  -8668025.82646  23478035.3524                   23478027.2974
        45.0004         39.5004
  -9357067.82047  -7277610.61146  23371296.9384                   23371292.2504
        42.5004         38.5004
 -10877825.03047  -8606572.17446  22819317.0784                   22819312.6024
        42.7504         40.5004
 20  5 22  0  9  0.0000000  0  9G16G22G04G09G27G08G07G03G26
 -23777245.66448 -18278288.07946  20599689.3594                   20599681.1024
        48.0004         38.7504
  -1348111.90846  -1056543.12043  25334319.0784                   25334313.0124
        36.0004         19.0004
 -28418749.64047 -22112377.40647  20238176.3054                   20238169.5744
        46.7504         42.0004
 -23264651.80047 -18114654.15948  21135022.9224                   21135017.4304
        47.7504         51.2504
  -9689073.19546  -7536165.63546  23333996.4144                   23333991.4184
        40.5004         36.0004
  -2850440.49646  -2203451.90945  24431311.7974                   24431307.3364
        36.0004         30.5004
 -11282306.07947  -8723213.55746  23464557.7894                   23464549.9804
        45.0004         40.0004
  -9252046.61447  -7195775.92246  23391281.7274                   23391277.1484
        42.7504         38.5004
 -10785665.27447  -8534759.40546  22836853.8984                   22836850.2734
        42.0004         40.2504
 20  5 22  0  9 30.0000000  0  9G16G22G04G09G27G08G07G03G26
 -23739324.84447 -18248739.38746  20606905.1954                   20606897.8134
        47.7504         38.0004
  -1244978.00145   -976179.14843  25353944.9694                   25353937.6804
        35.0004         18.5004
 -28413484.93847 -22108275.05747  20239178.0314                   20239171.3014
        47.5004         42.0004
 -23325184.45647 -18161822.47048  21123504.1884                   21123498.1024
        47.5004         51.5004
  -9772022.12247  -7600801.22946  23318213.0004                   23318208.3634
        43.0004         39.5004
  -2951837.31646  -2282462.41745  24412016.7504                   24412013.0394
        37.5004         32.0004
 -11353024.08847  -8778318.52946  23451100.8594                   23451092.5704
        44.5004         40.0004
  -9146878.61447  -7113826.84446  23411294.1174                   23411290.3054
        42.2504         38.5004
 -10693246.35947  -8462744.69246  22854441.0314                   22854437.0704
        42.5004         40.0004
 20  5 22  0 10  0.0000000  0  9G16G22G04G09G27G08G07G03G26
 -23700806.61047 -18218725.19546  20614234.9614                   20614227.2074
        47.7504         38.5004
  -1141927.50146   -895880.19143  25373555.9064                   25373547.1134
        37.7504         19.2504
 -28407768.75947 -22103820.90747  20240265.9534                   20240259.4264
        47.0004         42.0004
 -23385380.70348 -18208728.63748  21112048.8674                   21112043.5594
        48.2504         51.5004
  -9854671.61647  -7665203.42547  23302486.0704                   23302482.0594
        43.5004         42.2504
  -3053229.64246  -2361469.51245  24392722.6414                   24392718.3634
        37.5004         31.0004
 -11423635.72747  -8833340.59046  23437663.0234                   23437655.7934
        43.0004         39.5004
  -9041566.92747  -7031765.81446  23431334.4534                   23431330.1134
        42.7504         37.7504
 -10600571.07947  -8390530.21046  22872076.3134                   22872072.5514
        42.0004         39.7504
 20  5 22  0 10 30.0000000  0  9G16G22G04G09G27G08G07G03G26
 -23661692.57148 -18188246.72646  20621678.1414                   20621670.2734
        48.0004         38.7504
  -1038962.57246   -837477.76653  25393150.0084                   25393141.1294
        38.2504         19.2504
 -28401599.98747 -22099014.08247  20241439.4694                   20241433.2194
        47.7504         42.0004
 -23445238.09847 -18255370.76548  21100658.7194                   21100653.0274
        47.7504         51.5004
  -9937018.13047  -7729369.52846  23286815.1174                   23286809.2034
        43.0004         39.7504
  -3154613.87846  -2440470.19845  24373429.9304                   24373425.9344
        38.7504         32.7504
 -11494140.36647  -8888279.27446  23424246.8754                   23424239.5234
        44.5004         39.5004
  -8936114.10447  -6949594.80146  23451401.9064                   23451397.2734
        43.0004         38.0004
 -10507641.55647  -8318117.63846  22889760.7274                   22889756.2664
        42.2504         39.5004
 20  5 22  0 11  0.0000000  0  9G16G22G04G09G27G08G07G03G26
 -23621985.52748 -18157306.18146  20629234.3364                   20629226.4264
        48.5004         38.2504
   -936086.28445   -757314.42442  25412724.8914                   25412717.7544
        34.2504         17.2504
 -28394978.55748 -22093854.54446  20242699.6884                   20242693.3204
        48.2504         41.7504
 -23504755.36448 -18301747.86948  21089332.7504                   21089327.2344
        48.2504         51.5004
 -10019058.89447  -7793297.46247  23271203.8444                   23271200.2424
        43.5004         43.5004
  -3255987.33446  -2519462.53245  24354139.5474                   24354134.7854
        39.2504         32.5004
 -11564538.89647  -8943135.26946  23410850.7894                   23410843.0944
        43.2504         40.2504
  -8830523.88747  -6867316.74346  23471494.6174                   23471490.2734
        42.0004         38.0004
 -10414461.16246  -8245509.56246  22907491.6174                   22907488.0474
        41.5004         39.2504
 20  5 22  0 11 30.0000000  0  9G16G22G04G09G27G08G07G03G26
 -23581686.39247 -18125904.26546  20636902.8054                   20636894.7464
        47.7504         38.7504
   -833300.22946   -677221.44442  25432287.0864                   25432277.3984
        38.5004         16.7504
 -28387902.94647 -22088341.08947  20244046.1484                   20244039.7854
        47.2504         42.0004
 -23563929.66748 -18347857.71548  21078072.3054                   21078066.5084
        48.0004         51.5004
 -10100789.93346  -7856983.88346  23255650.2194                   23255646.1844
        41.5004         40.0004
  -3357346.78846  -2598443.96045  24334850.5784                   24334847.1564
        37.0004         32.2504
 -11634830.61547  -8997908.03846  23397473.8284                   23397466.7664
        44.0004         40.0004
  -8724798.43346  -6784933.29546  23491613.6484                   23491609.3754
        41.0004         37.0004
 -10321031.70047  -8172707.41946  22925271.4534                   22925267.4454
        42.5004         39.5004
 20  5 22  0 12  0.0000000  0  9G16G22G04G09G27G08G07G03G26
 -23540797.59848 -18094042.87046  20644683.9844                   20644675.7504
        48.0004         38.7504
   -730607.03646   -617537.64052  25451829.0234                   25451818.6024
        38.0004         17.7504
 -28380372.68948 -22082473.37447  20245479.0864                   20245472.6484
        48.0004         42.0004
 -23622759.13748 -18393698.86748  21066877.1174                   21066871.5394
        48.0004         51.2504
 -10182207.97546  -7920426.62446  23240156.6724                   23240152.7854
        41.2504         39.0004
  -3458689.40246  -2677412.23445  24315565.9454                   24315562.4454
        36.5004         31.7504
 -11705015.57247  -9052597.61446  23384118.7114                   23384111.3444
        43.7504         41.2504
  -8618940.93646  -6702446.95146  23511757.8284                   23511753.3524
        41.5004         37.5004
 -10227355.99447  -8099713.38846  22943097.5944                   22943093.2034
        42.0004         40.0004
 20  5 22  0 12 30.0000000  0  9G16G22G04G09G27G08G07G03G26
 -23499321.11947 -18061723.54946  20652576.7344                   20652568.5394
        47.7504         39.2504
  27729550.63356  21559208.50052  25471351.8594                   25471342.3834
        39.0004         16.2504
 -28372387.18947 -22076250.92447  20246998.8594                   20246992.5864
        47.0004         42.0004
 -23681241.94247 -18439269.89548  21055748.4144                   21055742.6094
        47.7504         51.2504
 -10263310.06346  -7983622.98246  23224723.2584                   23224720.0864
        41.0004         39.5004
  -3560011.82746  -2756364.77045  24296285.1804                   24296281.0784
        36.5004         32.0004
 -11775093.43547  -9107203.73346  23370783.1024                   23370775.8834
        43.5004         41.0004
  -8512954.46946  -6619860.11946  23531926.0784                   23531921.8984
        41.5004         37.5004
 -10133436.73047  -8026529.58046  22960969.2424                   22960965.2424
        42.2504         40.0004
 20  5 22  0 13  0.0000000  0  9G16G22G04G09G27G08G07G03G26
 -23457258.73848 -18028947.67446  20660580.5704                   20660572.9884
        48.0004         38.5004
  27832050.82145  21618044.93352  25490855.6804                   25490848.1454
        34.7504         17.7504
 -28363945.69247 -22069673.15846  20248604.6564                   20248598.7154
        47.2504         41.5004
 -23739375.95848 -18484569.13848  21044686.1564                   21044680.5704
        48.5004         51.5004
 -10344092.56547  -8046570.46546  23209351.6024                   23209345.8754
        42.2504         38.5004
  -3661311.35146  -2835299.47145  24277009.2894                   24277005.2384
        37.5004         33.5004
 -11845064.52147  -9161726.65846  23357468.0394                   23357461.2114
        44.2504         41.0004
  -8406841.94846  -6537175.06146  23552118.4694                   23552114.3244
        41.2504         37.2504
 -10039276.48847  -7953157.99146  22978887.6334                   22978883.4534
        42.2504         39.2504
 20  5 22  0 13 30.0000000  0  9G16G22G04G09G27G08G07G03G26
 -23414613.49347 -17995717.62546  20668695.7274                   20668687.6844
        47.7504         39.0004
  27934451.148 5                  25510341.258
        33.000
 -28355047.74247 -22062739.71147  20250298.1804                   20250292.0164
        47.5004         42.0004
 -23797159.37648 -18529595.18548  21033690.1094                   21033684.5824
        48.0004         51.5004
 -10424552.50547  -8109266.52146  23194040.4614                   23194035.7114
        43.2504         40.2504
  -3762584.88046  -2914213.93745  24257736.8834                   24257733.2664
        37.2504         32.7504
 -11914928.53747  -9216166.15146  23344173.3524                   23344166.4024
        44.0004         40.5004
  -8300606.60346  -6454394.30246  23572334.7974                   23572330.6254
        41.5004         38.5004
  -9944878.00947  -7879600.76746  22996851.0634                   22996847.0514
        42.0004         39.5004
 20  5 22  0 14  0.0000000  0  9G16G22G04G09G27G08G07G03G26
 -23371387.00948 -17962034.66846  20676921.4534                   20676913.9804
        48.0004         39.0004
  28036749.34346  21739882.02253  25529810.5084                   25529800.8714
        39.0004         19.0004
 -28345692.41847 -22055449.87646  20252078.4694                   20252072.0124
        47.5004         41.7504
 -23854589.93948 -18574346.28848  21022761.5394                   21022755.7814
        48.5004         51.7504
 -10504686.30847  -8171708.49446  23178792.2194                   23178786.7504
        43.7504         40.7504
  -3863829.21346  -2993105.63645  24238470.6094                   24238466.1294
        38.7504         33.5004
 -11984685.43647  -9270522.17946  23330899.4844                   23330891.7114
        43.5004         40.0004
  -8194251.10346  -6371519.90646  23592573.7424                   23592569.6334
        41.0004         38.5004
  -9850243.67847  -7805859.76246  23014858.9384                   23014855.2074
        42.0004         39.0004
 20  5 22  0 14 30.0000000  0  9G16G22G04G09G27G08G07G03G26
 -23327581.17248 -17927900.25846  20685257.8674                   20685249.7934
        48.0004         38.5004
  28138943.17146  21819513.67442  25549256.8054                   25549248.2544
        37.7504         17.2504
 -28335879.02448 -22047803.10346  20253945.9614                   20253939.7934
        48.0004         41.7504
 -23911665.51648 -18618820.76748  21011900.2894                   21011894.5514
        48.0004         51.7504
 -10584490.68047  -8233893.72146  23163604.8984                   23163600.0944
        43.5004         40.2504
  -3965040.86646  -3071971.89545  24219211.4304                   24219207.1054
        38.7504         34.0004
 -12054334.81847  -9324794.43546  23317644.8444                   23317637.8714
        43.5004         40.7504
  -8087778.35046  -6288554.15146  23612834.6024                   23612830.3794
        40.7504         38.0004
  -9755375.97146  -7731936.92546  23032911.5784                   23032907.9384
        41.5004         38.7504
 20  5 22  0 15  0.0000000  0  9G16G22G04G09G27G08G07G03G26
 -23283198.01947 -17893315.99946  20693703.1644                   20693695.5824
        47.2504         38.5004
  28241030.43446  21899062.16243  25568681.8364                   25568673.7664
        36.5004         18.5004
 -28325606.66048 -22039798.68946  20255900.9774                   20255894.6724
        48.5004         41.7504
 -23968383.87548 -18663016.90148  21001107.5314                   21001101.5984
        48.0004         51.7504
 -10663961.96747  -8295819.42446  23148482.5784                   23148478.4344
        43.5004         41.5004
  -4066217.15346  -3150810.59845  24199957.3754                   24199953.5594
        38.2504         33.0004
 -12123876.74947  -9378982.96646  23304412.5784                   23304404.5984
        44.7504         40.7504
  -7981191.06946  -6205499.16946  23633117.8914                   23633113.0234
        40.5004         37.0004
  -9660277.25747  -7657834.05946  23051008.5784                   23051004.3404
        42.0004         38.5004
 20  5 22  0 15 30.0000000  0  9G16G22G04G09G27G08G07G03G26
 -23238239.49848 -17858283.38946  20702258.5314                   20702250.6334
        48.2504         38.0004
  28343009.27645  21978526.12942  25588088.5704                   25588080.1954
        33.0004         17.2504
 -28314874.31848 -22031435.83846  20257943.1884                   20257936.8284
        48.2504         41.5004
 -24024742.61748 -18706932.81048  20990382.4924                   20990377.1254
        48.5004         52.0004
 -10743096.60647  -8357482.75246  23133423.2034                   23133418.9694
        43.0004         41.2504
  -4167354.49546  -3229618.95145  24180712.1884                   24180707.0044
        38.7504         32.2504
 -12193310.66847  -9433087.30846  23291198.7504                   23291191.5904
        43.0004         40.5004
  -7874491.79046  -6122356.89546  23653422.2894                   23653416.8714
        41.7504         36.7504
  -9564949.67247  -7583552.86646  23069149.0864                   23069144.9844
        42.0004         38.5004
 20  5 22  0 16  0.0000000  0  8G16G04G09G27G08G07G03G26
 -23192704.57747 -17822801.64846  20710923.7114                   20710915.9224
        47.5004         38.2504
 -28303678.36848 -22022711.75846  20260073.7274                   20260067.4064
        48.5004         41.7504
 -24080736.67748 -18750564.55648  20979727.1804                   20979721.9534
        48.7504         52.0004
 -10821888.19947  -8418878.83346  23118428.9224                   23118425.7114
        43.0004         41.5004
  -4268446.25446  -3308391.75545  24161474.4064                   24161470.8284
        38.2504         33.0004
 -12262633.88647  -9487105.40546  23278007.5474                   23277999.6684
        43.7504         40.2504
  -7767680.59346  -6039127.40046  23673747.4454                   23673742.9964
        40.7504         36.2504
  -9469392.79647  -7509093.00046  23087332.6094                   23087328.7734
        42.0004         38.7504
 20  5 22  0 16 30.0000000  0  8G16G04G09G27G08G07G03G26
 -23146602.03648 -17786877.60346  20719696.6884                   20719689.0634
        48.0004         38.5004
 -28292025.22548 -22013631.41846  20262291.2584                   20262284.9024
        48.0004         41.5004
 -24136371.08348 -18793916.03848  20969140.2584                   20969134.8364
        48.5004         52.0004
 -10900340.62747  -8480010.54446  23103500.1174                   23103496.8054
        43.0004         41.0004
  -4369497.07446  -3387132.65545  24142245.6724                   24142241.3324
        37.7504         32.2504
 -12331852.76747  -9541042.19646  23264834.9384                   23264827.8914
        44.0004         41.5004
  -7660767.27346  -5955818.34146  23694092.5864                   23694087.5664
        41.2504         36.7504
  -9373616.21647  -7434461.94046  23105558.3284                   23105554.4494
        43.0004         38.5004
 20  5 22  0 17  0.0000000  0  8G16G04G09G27G08G07G03G26
 -23099930.88447 -17750510.48446  20728577.9774                   20728570.1604
        47.7504         38.5004
 -28279910.81547 -22004191.64046  20264596.6174                   20264590.4144
        47.7504         41.5004
 -24191640.31548 -18836982.97448  20958622.7194                   20958617.5274
        49.0004         52.0004
 -10978447.03747  -8540872.69646  23088637.0704                   23088633.0164
        43.5004         40.5004
  -4470499.90846  -3465836.18545  24123024.1644                   24123020.5664
        36.0004         32.5004
 -12400963.72147  -9594894.88246  23251684.3054                   23251676.5394
        43.7504         40.7504
  -7553751.41346  -5872429.39246  23714456.9304                   23714452.6844
        41.5004         36.2504
  -9277618.98147  -7359658.94746  23123826.2194                   23123822.1604
        42.2504         38.7504
 20  5 22  0 17 30.0000000  0  8G16G04G09G27G08G07G03G26
 -23052693.87748 -17713702.44146  20737567.2424                   20737558.8714
        48.5004         38.5004
 -28267334.74648 -21994392.13846  20266989.3134                   20266983.3874
        48.2504         41.5004
 -24246542.58448 -18879763.97048  20948175.2894                   20948169.9144
        49.2504         52.0004
 -11056204.39047  -8601462.82846  23073841.1094                   23073836.1094
        44.5004         40.5004
  -4571452.02146  -3544500.17045  24103814.3054                   24103810.9964
        38.2504         33.7504
 -12469966.84847  -9648663.54346  23238553.5084                   23238545.8554
        43.5004         41.0004
  -7446636.09346  -5788962.94146  23734840.6644                   23734835.8134
        41.2504         37.2504
  -9181403.84246  -7284686.15246  23142135.1644                   23142131.6604
        41.5004         39.2504
 20  5 22  0 18  0.0000000  0  8G16G04G09G27G08G07G03G26
 -23004892.37047 -17676454.52146  20746663.0784                   20746655.4694
        47.7504         38.7504
 -28254296.08648 -21984232.16546  20269471.0784                   20269464.4614
        48.2504         41.5004
 -24301075.45748 -18922257.11648  20937798.0634                   20937792.8714
        48.7504         52.2504
 -11133608.98147  -8661778.11746  23059111.4774                   23059106.4494
        45.0004         40.5004
  -4672349.80646  -3623121.79845  24084614.4774                   24084610.6294
        39.5004         34.2504
 -12538861.84247  -9702347.95646  23225443.4534                   23225435.6994
        43.5004         41.2504
  -7339423.86746  -5705420.96146  23755240.6804                   23755237.7854
        39.7504         37.7504
  -9084972.94147  -7209545.22946  23160485.3284                   23160481.8674
        42.0004         38.5004
 20  5 22  0 18 30.0000000  0  8G16G04G09G27G08G07G03G26
 -22956529.64848 -17638769.28946  20755866.5474                   20755858.6334
        48.0004         38.2504
 -28240794.50847 -21973711.47046  20272039.9774                   20272034.2194
        47.7504         41.5004
 -24355237.19148 -18964461.07648  20927491.5864                   20927486.4024
        49.2504         52.2504
 -11210657.89347  -8721816.25146  23044449.8444                   23044444.2934
        45.0004         40.7504
  -4773190.50346  -3701698.96645  24065425.2734                   24065421.5004
        40.2504         35.5004
 -12607648.86947  -9755948.23846  23212352.6954                   23212345.5824
        43.5004         41.5004
  -7232117.99446  -5621806.04146  23775662.7814                   23775657.8914
        40.7504         37.0004
  -8988329.10847  -7134238.40146  23178876.3284                   23178872.2584
        42.5004         38.0004
 20  5 22  0 19  0.0000000  0  8G16G04G09G27G08G07G03G26
 -22907607.30847 -17600647.99646  20765175.8984                   20765168.4654
        47.5004         38.0004
 -28226829.30147 -21962829.52347  20274697.6564                   20274691.4454
        47.5004         42.0004
 -24409025.57348 -19006374.10048  20917255.7974                   20917250.4614
        49.5004         52.2504
 -11287347.67547  -8781574.53146  23029855.9614                   23029851.0124
        43.7504         41.2504
  -4873970.73046  -3780229.02745  24046247.6334                   24046243.6254
        39.2504         35.0004
 -12676327.54847  -9809464.08347  23199284.1804                   23199277.0514
        43.7504         42.0004
  -7124721.09446  -5538120.18646  23796098.3054                   23796094.0234
        40.0004         36.2504
  -8891474.59047  -7058767.40046  23197306.4774                   23197303.3984
        42.2504         38.0004
 20  5 22  0 19 30.0000000  0  8G16G04G09G27G08G07G03G26
 -22858127.36347 -17562092.19846  20774591.7584                   20774583.6094
        47.7504         38.5004
 -28212399.80247 -21951585.78146  20277443.4774                   20277437.0944
        47.7504         41.7504
 -24462438.49048 -19047994.55648  20907092.0004                   20907086.0944
        49.2504         52.2504
 -11363674.93947  -8841050.30646  23015331.2034                   23015326.5124
        43.2504         40.7504
  -4974687.46746  -3858709.61945  24027081.3754                   24027077.0084
        39.5004         33.5004
 -12744897.82247  -9862895.46046  23186235.4924                   23186228.4454
        43.7504         41.5004
  -7017236.05446  -5454365.63846  23816553.0004                   23816547.8364
        40.5004         36.0004
  -8794411.91347  -6983134.19046  23215777.6024                   23215773.8094
        42.5004         39.0004
 20  5 22  0 20  0.0000000  0  8G16G04G09G27G08G07G03G26
 -22808091.95048 -17523103.56346  20784112.9924                   20784105.3404
        49.0004         37.0004
 -28197505.11247 -21939979.54746  20280277.7034                   20280271.7194
        47.2504         38.7504
 -24515473.49448 -19089320.53948  20896999.9924                   20896994.1484
        48.2504         50.5004
 -11439636.02047  -8900240.75346  23000876.1954                   23000871.7114
        43.7504         40.2504
  -5075337.04346  -3937137.88645  24007928.1174                   24007924.5084
        38.0004         30.5004
 -12813359.12447  -9916241.92246  23173207.8914                   23173200.5594
        43.7504         40.5004
  -6909665.40546  -5370544.32144  23837024.3134                   23837017.3874
        37.7504         29.7504
  -8697143.08547  -6907340.37946  23234287.3754                   23234283.6294
        43.5004         39.2504
 20  5 22  0 20 30.0000000  0  8G16G04G09G27G08G07G03G26
 -22757503.29547 -17483683.83746  20793740.1174                   20793731.7464
        47.5004         37.0004
 -28182144.82147 -21928010.51246  20283200.8674                   20283194.7624
        46.5004         40.5004
 -24568128.81248 -19130350.68348  20886980.0394                   20886974.3134
        50.5004         52.7504
 -11515227.87147  -8959143.46147  22986491.5864                   22986487.3674
        44.5004         43.0004
  -5175916.01146  -4015511.14145  23988789.2274                   23988785.0594
        37.2504         32.5004
 -12881711.79547  -9969503.76346  23160200.5164                   23160193.1564
        44.0004         41.5004
  -6802012.12646  -5286658.70745  23857508.4924                   23857503.2704
        41.0004         35.0004
  -8599670.80546  -6831387.94645  23252835.4064                   23252831.5594
        41.0004         34.2504
 20  5 22  0 21  0.0000000  0  8G16G04G09G27G08G07G03G26
 -22706364.76348 -17443835.65346  20803471.1724                   20803463.1804
        48.5004         38.5004
 -28166319.06048 -21915678.77446  20286212.2974                   20286206.3794
        48.0004         41.7504
 -24620402.96048 -19171083.78048  20877032.3134                   20877026.7274
        49.7504         52.5004
 -11590447.96347  -9017756.52247  22972177.3524                   22972173.7624
        43.5004         42.0004
  -5276422.47646  -4093827.86745  23969663.4774                   23969659.2154
        38.0004         33.2504
 -12949955.92647 -10022680.99746  23147214.1334                   23147206.5944
        44.0004         41.2504
  -6694279.77546  -5202711.47445  23878009.8914                   23878003.9454
        41.5004         34.7504
  -8501998.11846  -6755279.42246  23271422.0634                   23271417.9734
        41.5004         37.2504
 20  5 22  0 21 30.0000000  0  8G16G04G09G27G08G07G03G26
 -22654677.84247 -17403560.13546  20813306.7344                   20813299.1134
        47.7504         38.0004
 -28150026.86348 -21902983.57646  20289312.9844                   20289306.7034
        48.0004         41.7504
 -24672293.45348 -19211517.92948  20867157.7584                   20867152.4614
        49.5004         52.2504
 -11665292.43947  -9076076.87546  22957935.6334                   22957931.1684
        43.5004         41.7504
  -5376852.42346  -4172084.98045  23950551.8204                   23950548.8014
        38.2504         33.7504
 -13018090.97747 -10075773.23046  23134248.5944                   23134241.0084
        44.7504         41.2504
  -6586470.77346  -5118704.47945  23898525.1644                   23898519.9224
        40.5004         35.5004
  -8404127.09646  -6679016.34346  23290046.5554                   23290042.5434
        41.2504         37.0004
 20  5 22  0 22  0.0000000  0  8G16G04G09G27G08G07G03G26
 -22602445.19847 -17362859.38246  20823246.6564                   20823238.5514
        47.5004         38.0004
 -28133267.75848 -21889924.56046  20292502.0474                   20292495.7704
        48.0004         41.5004
 -24723798.35648 -19251651.61948  20857356.7114                   20857351.1024
        49.0004         52.2504
 -11739758.24347  -9134102.12347  22943765.9774                   22943760.6844
        45.0004         42.2504
  -5477202.81246  -4250280.10445  23931455.4144                   23931453.1484
        37.7504         35.5004
 -13086117.32447 -10128780.76046  23121303.6644                   23121295.8914
        45.0004         41.5004
  -6478588.08846  -5034640.07745  23919054.4064                   23919049.1994
        41.0004         35.5004
  -8306060.28947  -6602600.69246  23308708.5784                   23308703.7504
        42.0004         37.0004
 20  5 22  0 22 30.0000000  0  8G16G04G09G27G08G07G03G26
 -22549669.37647 -17321735.37146  20833289.3364                   20833281.5984
        47.5004         38.0004
 -28116041.79348 -21876501.75446  20295779.9534                   20295773.9184
        48.2504         41.7504
 -24774916.10148 -19291483.64148  20847629.4064                   20847623.6844
        49.7504         52.5004
 -11813842.50247  -9191830.14746  22929666.6024                   22929662.9734
        43.2504         41.5004
  -5577471.08546  -4328411.20546  23912375.8364                   23912372.4414
        39.5004         36.0004
 -13154034.74047 -10181703.41546  23108379.6564                   23108371.4104
        45.0004         41.7504
  -6370635.03146  -4950520.84345  23939597.1804                   23939592.6564
        40.5004         35.7504
  -8207800.54346  -6526034.68346  23327405.9534                   23327402.4264
        41.2504         37.5004
 20  5 22  0 23  0.0000000  0  8G16G04G09G27G08G07G03G26
 -22496352.37447 -17280189.66546  20843435.5314                   20843427.1564
        47.7504         38.2504
 -28098347.84747 -21862714.28646  20299146.9774                   20299140.7154
        46.7504         41.2504
 -24825644.06548 -19331011.92548  20837975.8204                   20837970.3284
        49.5004         52.5004
 -11887541.51647  -9249257.93446  22915642.0704                   22915638.2034
        43.0004         41.2504
  -5677653.05646  -4406475.10446  23893311.6094                   23893308.4104
        38.7504         36.5004
 -13221842.42347 -10234540.56846  23095475.1414                   23095468.6684
        44.7504         41.5004
  -6262613.78746  -4866348.50945  23960152.4304                   23960148.4264
        40.2504         35.2504
  -8109349.72446  -6449319.82746  23346141.1174                   23346137.1884
        41.2504         37.2504
 20  5 22  0 23 30.0000000  0  8G16G04G09G27G08G07G03G26
 -22442497.04147 -17238224.47546  20853683.6484                   20853675.5904
        47.7504         37.5004
 -28080186.12147 -21848562.32146  20302603.0784                   20302597.3054
        47.2504         41.5004
 -24875980.84348 -19370235.39448  20828397.1954                   20828391.7544
        49.7504         52.5004
 -11960852.63947  -9306383.46746  22901692.2274                   22901687.6374
        43.7504         41.2504
  -5777746.38746  -4484469.89046  23874265.0554                   23874261.0434
        39.0004         36.0004
 -13289541.03347 -10287292.71747  23082593.2344                   23082585.8014
        44.5004         42.0004
  -6154527.97146  -4782125.83245  23980720.5474                   23980716.0554
        40.0004         34.5004
  -8010710.90246  -6372458.45546  23364911.8914                   23364907.3484
        41.5004         37.2504
 20  5 22  0 24  0.0000000  0  9G16G04G09G30G27G08G07G03G26
 -22388105.27247 -17195841.29246  20864034.0314                   20864026.0514
        47.5004         37.5004
 -28061555.63847 -21834045.08646  20306148.2894                   20306142.1174
        47.2504         41.2504
 -24925923.94648 -19409152.10048  20818893.1024                   20818887.7074
        49.7504         52.5004
   -513869.02755   -385381.99054  25667658.0634                   25667653.0474
        34.5004         27.7504
 -12033772.14347  -9363203.84846  22887815.9844                   22887811.5664
        44.0004         41.7504
  -5877747.96246  -4562393.19545  23855234.0944                   23855230.3244
        37.7504         34.5004
 -13357129.94647 -10339959.39747  23069731.8984                   23069724.8954
        44.5004         42.2504
  -6046379.87846  -4697854.60845  24001299.3984                   24001296.5474
        39.7504         34.7504
  -7911886.06646  -6295452.13146  23383716.5084                   23383713.6054
        41.0004         37.2504
 20  5 22  0 24 30.0000000  0  9G16G04G09G30G27G08G07G03G26
 -22333183.11647 -17153044.81946  20874485.3444                   20874477.7154
        47.2504         37.2504
 -28042459.63647 -21819165.10046  20309782.5704                   20309776.2584
        46.5004         41.0004
 -24975475.01048 -19447763.32848  20809464.1174                   20809458.8954
        49.7504         52.5004
   -600176.60845   -452634.67844  25651234.4774                   25651229.3674
        35.0004         26.0004
 -12106300.60447  -9419719.51647  22874014.0944                   22874010.3984
        43.0004         42.0004
  -5977657.32346  -4640244.64145  23836222.0704                   23836219.8754
        37.2504         35.5004
 -13424612.66847 -10392543.33447  23056889.7894                   23056883.2704
        44.2504         42.5004
  -5938176.01446  -4613539.95445  24021892.3204                   24021887.0394
        41.5004         35.0004
  -7812881.16446  -6218305.50846  23402557.3284                   23402553.5824
        41.2504         37.2504
 20  5 22  0 25  0.0000000  0  9G16G04G09G30G27G08G07G03G26
 -22277725.70147 -17109831.25446  20885038.4924                   20885030.8594
        47.5004         38.0004
 -28022890.58247 -21803916.50746  20313505.9224                   20313500.0314
        46.5004         41.5004
 -25024624.91748 -19486061.97048  20800110.9774                   20800105.7544
        50.0004         52.5004
   -686456.41645   -519865.71644  25634815.9774                   25634811.3244
        34.7504         25.2504
 -12178427.62347  -9475922.37447  22860289.2974                   22860284.2814
        43.7504         42.0004
  -6077464.46046  -4718016.42945  23817229.6024                   23817225.5514
        38.2504         34.2504
 -13491982.15147 -10445039.02047  23044070.1174                   23044062.7304
        44.5004         42.2504
  -5829912.08746  -4529178.47145  24042493.9304                   24042488.6174
        41.2504         35.0004
  -7713691.63346  -6141015.01446  23421432.6804                   23421428.7424
        40.7504         37.7504
 20  5 22  0 25 30.0000000  0  9G16G04G09G30G27G08G07G03G26
 -22221739.78447 -17066205.86946  20895692.3524                   20895684.3874
        47.5004         38.2504
 -28002851.52247 -21788301.67146  20317319.2424                   20317313.4774
        47.0004         41.7504
 -25073375.15848 -19524049.17748  20790834.3914                   20790828.7814
        50.0004         52.7504
   -772711.66745   -587077.63744  25618401.6484                   25618397.3714
        32.7504         24.0004
 -12250153.54247  -9531812.67347  22846639.9774                   22846635.2734
        43.7504         42.0004
  -6177169.45246  -4795708.66945  23798256.7424                   23798252.2974
        38.5004         34.0004
 -13559241.64147 -10497449.00247  23031270.6024                   23031263.4264
        44.0004         42.2504
  -5721594.46646  -4444775.15945  24063105.0234                   24063100.5314
        40.7504         34.5004
  -7614323.31946  -6063585.20246  23440341.7664                   23440338.0274
        40.7504         37.0004
 20  5 22  0 26  0.0000000  0  9G16G04G09G30G27G08G07G03G26
 -22165227.05947 -17022169.98346  20906446.3204                   20906438.4184
        47.0004         37.0004
 -27982342.03347 -21772320.26646  20321222.4924                   20321216.3524
        46.2504         41.0004
 -25121723.63848 -19561723.32148  20781634.2734                   20781628.7504
        50.0004         52.7504
   -858942.04545   -654270.07044  25601993.0394                   25601988.5354
        35.2504         25.0004
 -12321475.13847  -9587387.94947  22833067.9694                   22833063.3054
        43.5004         42.5004
  -6276769.24246  -4873318.86445  23779303.2034                   23779299.3954
        38.5004         33.5004
 -13626390.88947 -10549773.09947  23018492.6484                   23018485.4614
        44.5004         42.0004
  -5613226.05446  -4360332.24745  24083726.7424                   24083722.8484
        39.7504         34.5004
  -7514778.57346  -5986017.91546  23459284.4534                   23459280.6604
        40.5004         36.5004
 20  5 22  0 26 30.0000000  0  9G16G04G09G30G27G08G07G03G26
 -22108190.32447 -16977725.78246  20917300.1414                   20917292.3164
        47.2504         37.2504
 -27961362.19147 -21755972.36146  20325214.4454                   20325208.9774
        46.2504         41.0004
 -25169668.83148 -19599083.21748  20772510.5784                   20772504.8524
        50.0004         52.7504
   -945147.66445   -721443.35743  25585588.0314                   25585583.5084
        34.2504         23.5004
 -12392389.68547  -9642646.02747  22819572.9064                   22819568.5234
        43.2504         42.2504
  -6376261.05746  -4950844.98645  23760370.4534                   23760367.3094
        38.5004         35.0004
 -13693429.83247 -10602011.22147  23005735.6414                   23005728.1804
        44.0004         42.5004
  -5504809.85246  -4275852.13345  24104358.2194                   24104354.1024
        39.7504         34.5004
  -7415060.19646  -5908315.34046  23478259.4144                   23478256.5984
        40.2504         37.0004
 20  5 22  0 27  0.0000000  0  9G16G04G09G30G27G08G07G03G26
 -22050632.25547 -16932875.35446  20928253.2034                   20928245.1054
        47.5004         38.5004
 -27939911.61947 -21739257.65046  20329296.4694                   20329290.9494
        46.2504         41.0004
 -25217208.73648 -19636127.31548  20763463.9454                   20763458.3324
        50.5004         52.7504
  -1031328.39445   -788597.15544  25569189.4694                   25569184.0904
        35.7504         26.7504
 -12462894.03847  -9697584.48347  22806156.8594                   22806152.1454
        43.5004         42.7504
  -6475641.53946  -5028284.29946  23741459.4454                   23741456.8524
        39.7504         36.0004
 -13760358.78847 -10654163.65547  22992999.3444                   22992992.3324
        44.5004         42.2504
