     2.11           OBSERVATION DATA    G (GPS)             RINEX VERSION / TYPE
teqc  2019Feb25     Salamtina Y.M.      20200909 02:44:18UTCPGM / RUN BY / DATE
Linux 2.6.32-573.12.1.x86_64|x86_64|gcc|Linux 64|=+         COMMENT
BIT 2 OF LLI FLAGS DATA COLLECTED UNDER A/S CONDITION       COMMENT
Kazarman                                                    MARKER NAME
kaza                                                        MARKER NUMBER
Matix A.I.          RS_RAS                                  OBSERVER / AGENCY
4752143407          TRIMBLE NETRS       1.3-2               REC # / TYPE / VERS
30895097            TRM55971.00                             ANT # / TYPE
  1325807.7297  4606496.6894  4195524.6396                  APPROX POSITION XYZ
        0.0890        0.0000        0.0000                  ANTENNA: DELTA H/E/N
     1     1                                                WAVELENGTH FACT L1/2
     7    L1    L2    C1    P1    P2    S1    S2            # / TYPES OF OBSERV
    30.0000                                                 INTERVAL
    18                                                      LEAP SECONDS
TIME: 2020.05.21                                            COMMENT
TOUR: cont                                                  COMMENT
RSET: RAS03                                                 COMMENT
ASET: RAS03                                                 COMMENT
OPER: matx (Matix A.I.)                                     COMMENT
SOUR: KAZA202005210000A.dat                                 COMMENT
SUPP: KAZA202005210000A.eph                                 COMMENT
SUPP: KAZA202005210000A.ion                                 COMMENT
SUPP: KAZA202005210000A.mes                                 COMMENT
Forced Modulo Decimation to 30 seconds                      COMMENT
 SNR is mapped to RINEX snr flag value [0-9]                COMMENT
  L1 & L2: min(max(int(snr_dBHz/6), 0), 9)                  COMMENT
  2020     5    21     0     0    0.0000000     GPS         TIME OF FIRST OBS
                                                            END OF HEADER
 20  5 21  0  0  0.0000000  0 10G16G04G09G22G27G08G31G03G07G26
 -23865223.40947 -18480293.36546  20453450.3054                   20453441.6214
        47.5004         39.7504
 -27721279.05747 -21552193.55746  20241822.9454                   20241816.0514
        47.7504         41.7504
 -20877369.57547 -16254274.86848  21456374.3834                   21456368.8524
        47.0004         49.5004
  -3510294.68446  -2724725.49643  24809607.0164                   24809596.6334
        40.2504         19.2504
  -6718196.35747  -5214492.13146  23765076.2274                   23765070.8324
        42.0004         38.2504
  -1054015.81445   -802641.54843  24934947.7274                   24934942.9224
        33.7504         22.7504
   1550671.47247   1277262.23954  25550801.4694                   25550795.3874
        42.2504         29.0004
 -12934103.67447 -10035883.59946  22874766.8914                   22874761.8794
        45.0004         41.0004
  -8666232.93147  -6695536.44546  23823726.0314                   23823718.6604
        42.7504         36.7504
 -12448901.97647  -9820299.13147  22393407.6094                   22393403.7194
        43.2504         42.7504
 20  5 21  0  0 30.0000000  0 10G16G04G09G22G27G08G31G03G07G26
 -23843452.66947 -18463329.15946  20457592.9144                   20457584.4654
        47.0004         39.2504
 -27727512.42947 -21557050.74447  20240636.4064                   20240629.9494
        47.0004         42.0004
 -20945941.51747 -16307707.54848  21443325.7274                   21443319.9024
        47.2504         49.7504
  -3405833.51346  -2643327.16543  24829484.2114                   24829475.4414
        38.5004         20.0004
  -6807772.71346  -5284291.88546  23748029.9454                   23748026.4884
        41.7504         39.7504
  -1154477.13545   -880923.13844  24915830.3444                   24915827.6254
        34.7504         28.5004
                                  25568211.8444                   25568208.1684
        30.5004         18.5004
 -12833807.63147  -9957730.87146  22893852.1024                   22893847.5474
        44.5004         41.2504
  -8739700.53547  -6752783.92746  23809746.0394                   23809738.2234
        43.0004         37.2504
 -12364150.62347  -9754259.12947  22409535.1724                   22409530.8554
        43.2504         42.5004
 20  5 21  0  1  0.0000000  0 10G16G04G09G22G27G08G31G03G07G26
 -23821049.22747 -18445871.93746  20461855.5554                   20461847.6414
        47.0004         38.7504
 -27733326.13947 -21561580.92447  20239530.4614                   20239523.8754
        47.0004         42.0004
 -21014238.19947 -16360925.74548  21430329.1954                   21430323.6094
        47.0004         49.7504
  -3301399.19746  -2561949.86643  24849357.5944                   24849348.9494
        37.5004         19.2504
  -6897146.29346  -5353933.63046  23731022.8594                   23731018.3324
        39.7504         37.2504
  -1255018.33445   -959266.96444  24896698.5704                   24896695.2384
        33.7504         28.0004
  30091178.33546  23516618.08143  25585614.8054                   25585608.1374
        40.0004         18.2504
 -12733297.38447  -9879411.22246  22912979.1644                   22912974.3244
        45.0004         41.5004
  -8813071.81647  -6809956.34446  23795785.0394                   23795777.1374
        44.2504         37.7504
 -12279081.83847  -9687971.79147  22425723.5004                   22425718.7584
        43.5004         42.2504
 20  5 21  0  1 30.0000000  0 10G16G04G09G22G27G08G31G03G07G26
 -23797998.94847 -18427910.69146  20466242.4614                   20466233.8364
        47.5004         39.2504
 -27738703.94247 -21565771.43147  20238506.7734                   20238500.2234
        47.2504         42.0004
 -21082242.42047 -16413916.05548  21417388.6094                   21417382.5594
        47.2504         49.7504
  -3196979.16546  -2480583.62943  24869229.5394                   24869218.9774
        38.5004         19.5004
  -6986298.47146  -5423402.85746  23714057.4304                   23714053.2384
        40.5004         38.5004
  -1355621.36845  -1037658.98044  24877553.9844                   24877551.1024
        34.2504         25.7504
                                  25603004.2114                   25603001.0984
        27.2504         15.5004
 -12632560.66347  -9800915.09546  22932148.2344                   22932143.7304
        44.7504         41.5004
  -8886331.53147  -6867041.83046  23781843.7664                   23781835.4804
        44.5004         38.2504
 -12193683.04947  -9621427.29247  22441974.5084                   22441969.9264
        43.7504         42.2504
 20  5 21  0  2  0.0000000  0 10G16G04G09G22G27G08G31G03G07G26
 -23774319.23347 -18409458.96846  20470748.1884                   20470740.2704
        47.0004         39.5004
 -27743660.73547 -21569633.88047  20237563.4304                   20237557.3054
        47.0004         42.0004
 -21149968.07347 -16466689.28648  21404500.6804                   21404494.7664
        47.0004         49.7504
  -3092591.86646  -2399242.89743  24889092.9694                   24889082.9064
        38.5004         19.5004
  -7075241.76946  -5492709.32046  23697131.8054                   23697127.9574
        39.2504         37.2504
  -1456299.42546  -1116109.45144  24858396.8754                   24858392.4024
        36.7504         29.2504
  30273903.82556  23659001.30454  25620386.6484                   25620380.1214
        41.2504         24.0004
 -12531616.33547  -9722257.20846  22951357.8134                   22951352.9924
        44.7504         41.7504
  -8959495.28347  -6924052.55546  23767920.9064                   23767913.1024
        44.7504         38.5004
 -12107972.84347  -9554640.14647  22458284.6954                   22458279.9144
        43.5004         42.0004
 20  5 21  0  2 30.0000000  0 10G16G04G09G22G27G08G31G03G07G26
 -23749999.76147 -18390508.74246  20475376.1564                   20475368.3444
        47.0004         39.5004
 -27748183.62747 -21573158.22446  20236703.4534                   20236696.5664
        47.2504         41.7504
 -21217401.29347 -16519234.65548  21391668.3914                   21391662.9264
        47.5004         49.7504
  -2988227.94446  -2317920.46343  24908954.1094                   24908942.9694
        40.7504         20.5004
  -7163960.99347  -5561841.16646  23680250.1484                   23680244.5354
        43.2504         37.7504
  -1557037.54646  -1194606.76745  24839226.7894                   24839222.6804
        36.7504         30.5004
  30365181.92146  23730127.14443  25637756.5164                   25637749.7274
        40.7504         19.0004
 -12430455.61447  -9643430.69646  22970608.0944                   22970602.7114
        44.7504         41.0004
  -9032551.09947  -6980979.17246  23754018.5164                   23754011.1334
        43.7504         38.5004
 -12021941.96747  -9487603.12047  22474655.7114                   22474651.3364
        43.7504         42.2504
 20  5 21  0  3  0.0000000  0 10G16G04G09G22G27G08G31G03G07G26
 -23725040.55647 -18371060.01746  20480125.4384                   20480117.7114
        47.0004         38.7504
 -27752270.33747 -21576342.68247  20235925.3754                   20235918.8324
        47.0004         42.0004
 -21284538.73547 -16571549.55448  21378892.9224                   21378887.0474
        47.5004         50.0004
  -2883888.83046  -2236617.19943  24928808.1884                   24928798.1604
        39.5004         20.5004
  -7252451.38847  -5630794.73746  23663411.5004                   23663406.3244
        42.5004         38.2504
  -1657831.35346  -1273147.40545  24820047.3134                   24820043.1724
        37.7504         31.0004
                                  25655113.8674                   25655109.7544
        30.0004         15.5004
 -12329080.11047  -9564436.81146  22989898.8674                   22989893.9104
        43.7504         40.2504
  -9105497.75447  -7037820.72146  23740137.1334                   23740130.2504
        43.5004         38.2504
 -11935591.77747  -9420317.27347  22491087.5634                   22491083.1454
        44.0004         42.0004
 20  5 21  0  3 30.0000000  0 10G16G04G09G22G27G08G31G03G07G26
 -23699457.52247 -18351125.18846  20484994.1254                   20484985.9454
        47.0004         39.5004
 -27755934.09047 -21579197.56947  20235227.8914                   20235221.7384
        47.0004         42.0004
 -21351392.68447 -16623643.54448  21366170.9694                   21366165.2854
        47.2504         50.2504
  -2779590.73946  -2155346.03543  24948655.0554                   24948645.8094
        38.7504         19.7504
  -7340723.85747  -5699578.49046  23646613.7194                   23646607.6294
        43.0004         37.5004
  -1758692.63446  -1351740.65545  24800853.2344                   24800848.8364
        36.7504         30.0004
  30547568.96946  23872246.72544  25672463.6254                   25672457.6414
        41.2504         25.0004
 -12227507.03247  -9485288.98346  23009227.2664                   23009222.3674
        44.5004         40.0004
  -9178349.47247  -7094588.29546  23726274.2424                   23726267.0744
        43.5004         38.5004
 -11848939.14947  -9352795.76747  22507576.4694                   22507572.8754
        43.2504         42.0004
 20  5 21  0  4  0.0000000  0 10G16G04G09G22G27G08G31G03G07G26
 -23673237.65447 -18330694.12546  20489983.4534                   20489975.7424
        47.0004         39.0004
 -27759159.93047 -21581711.21847  20234614.3914                   20234607.6994
        47.0004         42.0004
 -21417947.01847 -16675504.07148  21353505.8834                   21353500.4144
        47.5004         50.5004
  -2675322.62746  -2074098.17843  24968496.1174                   24968486.9344
        39.5004         19.0004
  -7428760.96547  -5768178.85446  23629860.6254                   23629855.3404
        42.5004         39.0004
  -1859604.49146  -1430373.33344  24781650.4694                   24781645.7774
        37.5004         29.0004
  30638676.755 6                  25689799.984
        37.750
 -12125725.42447  -9405978.64846  23028596.0944                   23028591.2074
        44.5004         40.5004
  -9251092.28147  -7151271.00046  23712431.7344                   23712423.9694
        43.5004         38.5004
 -11761972.82047  -9285029.82246  22524126.8364                   22524121.4494
        43.2504         41.7504
 20  5 21  0  4 30.0000000  0 10G16G04G09G22G27G08G31G03G07G26
 -23646384.94447 -18309769.94246  20495093.6884                   20495085.3634
        47.0004         39.2504
 -27761948.74147 -21583884.34947  20234083.9064                   20234077.2544
        47.0004         42.0004
 -21484201.65147 -16727131.06048  21340898.2504                   21340892.7624
        47.7504         50.5004
  -2571088.78046  -1992876.98243  24988331.1334                   24988322.2384
        39.0004         19.7504
  -7516561.24446  -5836594.63246  23613152.2814                   23613147.1954
        41.7504         38.0004
  -1960566.09046  -1509044.74345  24762437.4304                   24762435.5234
        37.0004         31.0004
  30729729.568 5                  25707126.586
        32.000
 -12023740.09747  -9326509.58846  23048003.8914                   23047998.7154
        44.0004         40.5004
  -9323727.86747  -7207870.16346  23698608.7194                   23698601.7464
        43.5004         37.7504
 -11674697.17347  -9217022.84646  22540734.1024                   22540729.8874
        43.5004         41.7504
 20  5 21  0  5  0.0000000  0 10G16G04G09G22G27G08G31G03G07G26
 -23618905.79347 -18288357.62746  20500322.4614                   20500314.4774
        47.0004         39.5004
 -27764304.70647 -21585720.18347  20233635.3914                   20233628.8914
        47.0004         42.0004
 -21550159.66847 -16778526.92048  21328347.0944                   21328341.2384
        47.5004         50.5004
  -2466896.58746  -1911688.26043  25008156.9454                   25008148.6374
        36.2504         18.5004
  -7604126.35146  -5904827.19746  23596489.6334                   23596485.2194
        41.5004         38.5004
  -2061579.18245  -1587756.30645  24743215.2734                   24743213.4774
        35.5004         31.7504
  30820722.04846  23931438.35953  25724442.3914                   25724436.9614
        37.0004         20.7504
 -11921559.19247  -9246888.12746  23067447.7274                   23067443.0124
        43.7504         41.2504
  -9396261.14947  -7264389.60046  23684806.5084                   23684798.9104
        43.5004         37.5004
 -11587120.03147  -9148780.94446  22557399.5004                   22557395.4024
        43.2504         41.5004
 20  5 21  0  5 30.0000000  0 10G16G04G09G22G27G08G31G03G07G26
 -23590796.44147 -18266454.23846  20505671.5234                   20505663.5004
        47.5004         39.7504
 -27766221.38847 -21587213.72247  20233270.7504                   20233264.1214
        47.7504         42.0004
 -21615813.64547 -16829685.86448  21315853.2814                   21315847.8484
        47.2504         50.5004
  -2362743.33046  -1830529.94943  25027979.4924                   25027968.7194
        39.0004         19.2504
  -7691447.57146  -5972869.66546  23579872.3914                   23579868.1334
        41.2504         39.0004
  -2162635.86046  -1666501.78944  24723986.0704                   24723980.3364
        37.0004         28.5004
                                  25741746.6564                   25741742.2894
        26.2504         18.5004
 -11819180.26347  -9167112.36246  23086929.8984                   23086924.8054
        44.7504         41.0004
  -9468686.98947  -7320825.32046  23671023.7974                   23671016.7424
        43.5004         37.0004
 -11499238.65347  -9080301.97446  22574123.3674                   22574118.3324
        43.0004         41.5004
 20  5 21  0  6  0.0000000  0 10G16G04G09G22G27G08G31G03G07G26
 -23562067.89647 -18244068.36546  20511138.2344                   20511129.9774
        47.2504         39.7504
 -27767707.45147 -21588371.70647  20232988.1644                   20232981.5784
        46.7504         42.0004
 -21681171.06947 -16880613.72648  21303416.2504                   21303410.4804
        47.7504         50.5004
  -2258640.80346  -1749411.07742  25047787.3834                   25047778.0004
        36.5004         17.7504
  -7778531.00447  -6040726.88046  23563301.2114                   23563296.0984
        42.0004         39.0004
  -2263742.50546  -1745286.22645  24704746.0554                   24704741.2304
        38.2504         30.0004
    363253.59256  24000695.77253  25759040.0634                   25759033.5354
        37.7504         19.5004
 -11716615.82947  -9087192.03546  23106447.0004                   23106442.3404
        43.7504         41.0004
  -9541014.32847  -7377184.28746  23657260.3984                   23657253.6024
        43.0004         37.5004
 -11411065.18847  -9011595.40346  22590901.6564                   22590897.5434
        43.2504         41.5004
 20  5 21  0  6 30.0000000  0 10G16G04G09G22G27G08G31G03G07G26
 -23532711.66147 -18221193.38246  20516724.6414                   20516716.8014
        47.0004         39.2504
 -27768751.68347 -21589185.40947  20232788.9384                   20232782.5864
        47.5004         42.2504
 -21746219.65247 -16931300.94448  21291037.7114                   21291032.0434
        47.0004         50.5004
  -2154581.36846  -1668325.79243  25067590.1954                   25067580.3634
        38.7504         19.5004
  -7865363.04546  -6108388.25246  23546777.2034                   23546772.3634
        41.5004         38.5004
  -2364886.48946  -1824099.78045  24685499.5554                   24685494.5554
        39.0004         30.5004
    454069.86846  24071461.88943  25776322.0004                   25776315.1484
        40.5004         22.0004
 -11613858.62347  -9007121.50146  23126001.0634                   23125996.4414
        43.0004         40.5004
  -9613233.18447  -7433458.72746  23643518.0164                   23643510.8014
        44.0004         38.5004
 -11322592.02547  -8942655.30146  22607737.9534                   22607733.4884
        43.0004         41.5004
 20  5 21  0  7  0.0000000  0 10G16G04G09G22G27G08G31G03G07G26
 -23502733.25747 -18197833.58346  20522429.3524                   20522420.9654
        47.2504         38.7504
 -27769357.06848 -21589657.15547  20232674.1644                   20232667.7774
        48.2504         42.0004
 -21810961.30948 -16981748.98648  21278717.9224                   21278712.0354
        48.2504         50.5004
  -2050571.43546  -1587279.16343  25087381.8984                   25087373.0864
        38.7504         19.5004
  -7951944.21946  -6175854.10046  23530301.0004                   23530296.9924
        41.0004         38.2504
  -2466068.02846  -1902942.68744  24666244.7034                   24666240.3284
        38.5004         29.5004
    544826.67546  24142181.43944  25793592.3364                   25793585.5594
        41.0004         25.7504
 -11510915.55547  -8926906.14846  23145591.0634                   23145586.0594
        43.7504         40.0004
  -9685347.53747  -7489651.72746  23629795.7584                   23629788.1414
        44.5004         39.0004
 -11233825.70347  -8873486.76146  22624629.8134                   22624625.0394
        43.2504         41.7504
 20  5 21  0  7 30.0000000  0 10G16G04G09G22G27G08G31G03G07G26
 -23472133.49747 -18173989.61746  20528252.5704                   20528244.0354
        47.5004         39.2504
 -27769522.10147 -21589785.76647  20232642.7504                   20232636.1804
        47.0004         42.2504
 -21875393.36547 -17031955.78848  21266457.1024                   21266451.1214
        47.7504         50.5004
  -1946612.70446  -1506272.45943  25107166.9304                   25107155.4344
        40.7504         19.0004
  -8038270.50747  -6243121.36146  23513874.8754                   23513868.9804
        42.2504         38.5004
  -2567284.24045  -1981812.42944  24646982.3754                   24646980.3014
        35.2504         27.0004
    635524.11346  24212854.66243  25810850.6024                   25810844.7424
        39.0004         21.2504
 -11407789.03347  -8846547.85546  23165215.3754                   23165210.1724
        43.7504         39.7504
  -9757356.46547  -7545762.58046  23616092.0634                   23616085.5554
        44.0004         39.5004
 -11144768.27947  -8804091.38046  22641576.2344                   22641572.1334
        43.0004         41.5004
 20  5 21  0  8  0.0000000  0 10G16G04G09G22G27G08G31G03G07G26
 -23440914.07847 -18149662.80246  20534193.3834                   20534185.0514
        47.2504         38.7504
 -27769245.60448 -21589570.32147  20232695.2274                   20232688.3874
        48.0004         42.2504
 -21939513.51948 -17081919.55448  21254255.1334                   21254249.6524
        48.0004         50.7504
  -1842707.57746  -1425307.40643  25126937.7424                   25126928.2274
        39.7504         20.7504
  -8124338.30246  -6310187.22546  23497496.3364                   23497490.0784
        41.5004         37.2504
  -2668531.87546  -2060706.72745  24627716.6564                   24627714.0314
        36.0004         30.0004
    726161.946 5                  25828099.133
        35.750
 -11304481.72747  -8766048.67846  23184873.3054                   23184868.6134
        44.5004         40.0004
  -9829259.74947  -7601791.09946  23602409.6804                   23602402.7934
        44.2504         39.5004
 -11055422.07047  -8734470.98546  22658578.8984                   22658574.0354
        42.7504         41.0004
 20  5 21  0  8 30.0000000  0  9G16G04G09G22G27G08G03G07G26
 -23409074.41447 -18124852.67846  20540252.1484                   20540243.7934
        47.0004         39.0004
 -27768524.40647 -21589008.35947  20232832.4534                   20232825.7544
        47.5004         42.5004
 -22003317.50348 -17131636.95648  21242113.7344                   21242108.1134
        48.0004         50.7504
  -1738855.92546  -1344384.04543  25146698.7344                   25146690.5084
        38.0004         21.0004
  -8210141.85946  -6377047.15346  23481168.1174                   23481163.8874
        41.7504         39.0004
  -2769805.70046  -2139621.38645  24608445.6334                   24608441.7624
        38.5004         30.5004
 -11200994.35847  -8685409.18946  23204566.5784                   23204561.7584
        43.5004         40.0004
  -9901055.11947  -7657735.56046  23588748.1724                   23588739.9654
        44.2504         39.2504
 -10965787.49047  -8664625.87646  22675635.6094                   22675630.8324
        43.0004         41.5004
 20  5 21  0  9  0.0000000  0 10G16G04G09G22G27G08G31G03G07G26
 -23376624.45947 -18099566.99846  20546426.9144                   20546419.1684
        47.2504         39.5004
 -27767365.86547 -21588105.60847  20233053.2194                   20233046.2934
        47.0004         42.2504
 -22066811.50547 -17181112.81448  21230031.2734                   21230025.4574
        47.7504         51.0004
  -1635068.31547  -1263510.65243  25166453.1724                   25166440.9414
        42.5004         19.2504
  -8295686.21046  -6443705.04046  23464888.9924                   23464884.5234
        41.2504         37.2504
  -2871110.80946  -2218560.60244  24589167.1024                   24589162.9734
        37.0004         29.5004
    907247.20355  24239063.77053  25862559.4924                   25862553.6604
        34.0004         19.7504
 -11097338.17047  -8604638.14846  23224291.5554                   23224287.3444
        43.5004         39.2504
  -9972750.63047  -7713602.18546  23575104.1174                   23575097.0904
        43.0004         38.7504
 -10875875.44947  -8594564.57446  22692745.3204                   22692740.4694
        43.0004         40.5004
 20  5 21  0  9 30.0000000  0 10G16G04G09G22G27G08G31G03G07G26
 -23343557.71447 -18073800.70646  20552719.5474                   20552711.2114
        47.2504         39.0004
 -27765760.82847 -21586854.93347  20233358.5784                   20233352.0164
        46.7504         42.2504
 -22129985.16748 -17230339.05848  21218009.7814                   21218004.4104
        48.0004         51.0004
  -1531339.12346  -1182682.75443  25186187.7734                   25186180.7974
        36.7504         19.2504
  -8380959.53846  -6510151.85146  23448662.1644                   23448658.3284
        41.5004         39.0004
  -2972436.04346  -2297515.27145  24569886.2584                   24569881.6414
        38.7504         32.0004
    997703.75146  24309549.32743  25879773.4064                   25879767.5044
        38.7504         22.0004
 -10993507.85747  -8523731.44646  23244050.3364                   23244045.6764
        42.7504         39.7504
 -10044337.74047  -7769384.36746  23561481.7814                   23561474.5864
        44.5004         38.7504
 -10785680.21447  -8524282.58746  22709908.6334                   22709904.0354
        42.5004         40.5004
 20  5 21  0 10  0.0000000  0 10G16G04G09G22G27G08G31G03G07G26
 -23309879.01547 -18047557.56046  20559128.6174                   20559120.4264
        47.2504         39.0004
 -27763711.52947 -21585258.08447  20233748.4694                   20233742.0514
        47.0004         42.5004
 -22192839.55647 -17279316.51748  21206049.1414                   21206043.6954
        47.5004         51.0004
  -1427674.11146  -1101904.83143  25205915.6954                   25205907.0124
        38.7504         18.2504
  -8465961.56046  -6576387.16846  23432486.0084                   23432483.4304
        40.5004         40.7504
  -3073781.54046  -2376485.83245  24550600.8444                   24550595.9774
        38.5004         32.0004
   1088098.92846  24379987.15343  25896975.1724                   25896969.8834
        36.2504         21.2504
 -10889509.48647  -8442693.76846  23263840.1564                   23263835.7934
        43.2504         39.2504
 -10115819.89747  -7825084.74946  23547879.3754                   23547872.2584
        43.7504         39.2504
 -10695207.56047  -8453784.43746  22727124.8594                   22727120.6804
        42.5004         40.5004
 20  5 21  0 10 30.0000000  0 10G16G04G09G22G27G08G31G03G07G26
 -23275588.93048 -18020838.01446  20565653.7344                   20565645.6644
        48.0004         39.0004
 -27761215.78147 -21583313.34247  20234223.0164                   20234216.7854
        47.0004         42.0004
 -22255371.34747 -17328042.59248  21194149.8984                   21194143.8244
        47.2504         51.0004
  -1324074.24146  -1021177.69543  25225629.9924                   25225621.2464
        36.5004         18.5004
  -8550687.74847  -6642407.47946  23416364.6024                   23416359.8834
        43.2504         41.0004
  -3175143.32246  -2455469.04445  24531312.0474                   24531308.9344
        38.0004         33.5004
   1178433.97146  24450377.98743  25914165.4224                   25914159.7734
        37.2504         20.2504
 -10785344.72547  -8361526.47246  23283662.5864                   23283658.1024
        44.0004         40.0004
 -10187195.64447  -7880702.20546  23534297.4844                   23534290.1094
        42.0004         39.0004
 -10604458.76747  -8383071.10646  22744394.0004                   22744389.9144
        42.2504         40.2504
 20  5 21  0 11  0.0000000  0  9G16G04G09G22G27G08G03G07G26
 -23240688.91447 -17993643.20046  20572295.1954                   20572286.9844
        47.7504         39.2504
 -27758272.81047 -21581020.12247  20234783.5394                   20234777.0044
        46.7504         42.0004
 -22317578.52047 -17376515.71348  21182312.1094                   21182306.2304
        47.5004         51.0004
  -1220541.77446   -940502.95742  25245331.3524                   25245323.7544
        36.5004         17.2504
  -8635134.54447  -6708210.25446  23400295.0314                   23400290.6024
        43.5004         41.7504
  -3276518.14046  -2534462.43145  24512021.2504                   24512017.2154
        38.2504         32.7504
 -10681016.62047  -8280231.86646  23303515.6094                   23303510.6844
        43.0004         38.5004
 -10258464.63447  -7936236.47246  23520734.7974                   23520727.2664
        44.5004         39.2504
 -10513436.46147  -8312144.67646  22761715.2034                   22761710.8524
        42.7504         41.0004
 20  5 21  0 11 30.0000000  0  9G16G04G09G22G27G08G03G07G26
 -23205183.42347 -17965976.58146  20579051.2814                   20579043.3204
        47.5004         39.2504
 -27754883.97348 -21578379.47947  20235428.3204                   20235421.8794
        48.0004         42.2504
 -22379461.21947 -17424736.00548  21170536.0164                   21170530.3164
        47.7504         51.0004
  -1117081.17246   -859884.46142  25265021.7194                   25265011.3134
        38.5004         16.7504
  -8719300.98747  -6773794.43546  23384277.8284                   23384274.5234
        42.7504         41.2504
  -3377904.83946  -2613465.01745  24492728.3594                   24492724.6294
        37.0004         30.7504
 -10576530.24447  -8198813.94046  23323398.6174                   23323393.7344
        43.5004         39.5004
 -10329628.90647  -7991689.14946  23507192.4694                   23507185.6724
        44.0004         39.5004
 -10422145.49747  -8241008.88746  22779087.2974                   22779082.9734
        42.0004         41.0004
 20  5 21  0 12  0.0000000  0  9G16G04G09G22G27G08G03G07G26
 -23169073.36847 -17937838.87846  20585922.8054                   20585914.6414
        47.5004         39.0004
 -27751047.64347 -21575390.13347  20236158.2894                   20236151.7624
        47.0004         42.2504
 -22441016.58947 -17472701.23048  21158822.3284                   21158816.5744
        47.5004         51.0004
  -1013694.23045   -779323.12642  25284692.0314                   25284685.6914
        35.5004         16.2504
  -8803182.73846  -6839156.86546  23368315.3674                   23368310.5744
        40.5004         37.5004
  -3479300.32746  -2692474.57245  24473433.3524                   24473428.7504
        37.5004         31.0004
 -10471887.90647  -8117274.48246  23343310.5944                   23343306.5594
        42.2504         39.5004
 -10400687.72547  -8047059.65846  23493670.7974                   23493663.2274
        44.0004         39.5004
 -10330587.68847  -8169665.17146  22796510.4774                   22796505.8164
        42.7504         40.7504
 20  5 21  0 12 30.0000000  0  9G16G04G09G22G27G08G03G07G26
 -23132359.48647 -17909230.66746  20592909.0634                   20592901.1564
        47.2504         39.0004
 -27746761.80647 -21572050.52047  20236973.9534                   20236967.8874
        46.7504         42.0004
 -22502241.34747 -17520408.83748  21147171.7424                   21147166.1454
        47.5004         51.2504
   -910381.91145   -698819.99742  25304351.3834                   25304345.5394
        34.7504         17.7504
  -8886775.42446  -6904293.95946  23352409.3054                   23352404.3554
        41.7504         38.0004
  -3580700.48146  -2771487.65345  24454135.8984                   24454133.7234
        36.5004         30.0004
 -10367091.24947  -8035614.77746  23363253.1724                   23363248.1454
        43.0004         38.7504
 -10471640.19547  -8102347.29046  23480168.7344                   23480161.3594
        44.5004         40.0004
 -10238764.38547  -8098114.57946  22813983.3594                   22813979.2854
        42.0004         41.0004
 20  5 21  0 13  0.0000000  0  9G16G04G09G22G27G08G03G07G26
 -23095044.40647 -17880153.98246  20600009.6564                   20600001.9844
        47.7504         39.0004
 -27742026.50247 -21568360.69147  20237874.8984                   20237868.6954
        46.7504         42.0004
 -22563134.36147 -17567857.94348  21135584.6174                   21135578.7234
        47.7504         51.5004
   -807148.14646   -618378.13743  25323995.5314                   25323989.7384
        36.0004         18.5004
  -8970076.22947  -6969203.69246  23336557.3594                   23336552.7854
        42.0004         37.0004
  -3682102.39546  -2850502.16444  24434840.9454                   24434836.4144
        37.0004         29.2504
 -10262144.13447  -7953837.82646  23383224.6254                   23383219.2154
        42.7504         39.2504
 -10542486.83947  -8157552.47046  23466687.8054                   23466679.6254
        44.5004         39.7504
 -10146679.08147  -8026359.81946  22831507.0944                   22831502.4144
        42.5004         40.5004
 20  5 21  0 13 30.0000000  0  9G16G04G09G22G27G08G03G07G26
 -23057129.79047 -17850610.11946  20607224.8364                   20607216.9574
        47.5004         39.0004
 -27736840.75747 -21564319.86447  20238861.7734                   20238855.1334
        47.2504         42.2504
 -22623693.25747 -17615046.70448  21124060.3364                   21124054.7034
        47.7504         51.5004
   -703994.67346   -537998.81443  25343627.4924                   25343619.3244
        37.5004         19.5004
  -9053081.88146  -7033883.47846  23320760.7664                   23320756.0904
        40.7504         37.5004
  -3783503.41846  -2929515.99445  24415545.8204                   24415540.8164
        38.5004         31.0004
 -10157049.27247  -7871945.75546  23403222.8674                   23403218.5784
        42.5004         38.5004
 -10613227.17047  -8212674.81146  23453226.1174                   23453218.2624
        44.5004         39.7504
 -10054334.09647  -7954402.70546  22849079.1644                   22849074.7934
        42.2504         40.0004
 20  5 21  0 14  0.0000000  0  9G16G04G09G22G27G08G03G07G26
 -23018617.57447 -17820600.60646  20614553.5234                   20614545.2274
        47.2504         38.5004
 -27731203.61847 -21559927.30947  20239934.5474                   20239927.9534
        47.2504         42.5004
 -22683915.98348 -17661973.49448  21112600.5474                   21112594.8754
        48.0004         51.5004
   -600923.43046   -457683.68743  25363242.8054                   25363232.8324
        39.5004         19.7504
  -9135788.66447  -7098330.30147  23305024.3834                   23305020.3094
        43.5004         42.7504
  -3884900.41346  -3008526.67045  24396250.5084                   24396245.9184
        39.7504         30.5004
 -10051809.56947  -7789940.82846  23423249.9694                   23423244.8594
        42.0004         38.2504
 -10683861.30347  -8267714.40246  23439784.2974                   23439776.8134
        44.2504         39.7504
  -9961732.00747  -7882245.25446  22866701.3284                   22866696.8874
        42.5004         39.7504
 20  5 21  0 14 30.0000000  0  9G16G04G09G22G27G08G03G07G26
 -22979509.22948 -17790126.56846  20621995.5554                   20621987.8914
        48.0004         39.0004
 -27725113.81948 -21555182.02347  20241093.1954                   20241086.6024
        48.2504         42.0004
 -22743799.95548 -17708636.33848  21101205.1804                   21101198.9924
        48.2504         51.5004
   -497936.64546   -377434.25443  25382839.5944                   25382831.3094
        36.5004         19.2504
  -9218192.93147  -7162541.39046  23289341.8444                   23289336.7464
        42.0004         39.5004
  -3986289.80646  -3087531.45145  24376956.9774                   24376952.1134
        38.7504         32.5004
  -9946427.52347  -7707824.96346  23443303.5704                   23443298.1214
        43.2504         38.2504
 -10754388.37247  -8322670.55546  23426363.9534                   23426356.6884
        44.7504         39.7504
  -9868874.86846  -7809889.08346  22884371.1564                   22884366.5434
        41.5004         39.5004
 20  5 21  0 15  0.0000000  0  9G16G04G09G22G27G08G03G07G26
 -22939807.55348 -17759190.19546  20629550.5314                   20629542.5474
        48.5004         38.5004
 -27718571.35447 -21550084.00746  20242338.3834                   20242331.8324
        47.7504         41.5004
 -22803343.85148 -17755034.19148  21089874.1024                   21089868.2384
        48.5004         51.5004
   -395037.38546   -297252.98343  25402419.8674                   25402412.0434
        37.0004         18.2504
  -9300291.86947  -7226514.63247  23273720.7344                   23273716.0784
        44.0004         43.2504
  -4087669.11246  -3166528.34745  24357664.3754                   24357660.2624
        37.5004         32.0004
  -9840906.75246  -7625601.01846  23463382.8914                   23463378.4884
        41.5004         37.7504
 -10824809.16447  -8377543.89646  23412962.9454                   23412955.7624
        43.2504         41.0004
  -9775765.95847  -7737336.71546  22902089.8204                   22902084.5554
        42.5004         40.0004
 20  5 21  0 15 30.0000000  0  9G16G04G09G22G27G08G03G07G26
 -22899514.03947 -17727792.66346  20637218.1954                   20637210.1564
        47.7504         39.0004
 -27711575.02347 -21544632.34347  20243669.8754                   20243663.1524
        47.0004         42.0004
 -22862545.18748 -17801165.10048  21078608.6644                   21078602.6524
        49.0004         51.5004
  26489912.77456  20652058.68553  25421988.6804                   25421977.0904
        40.0004         18.2504
  -9382081.91046  -7290247.01246  23258154.4534                   23258151.5314
        41.2504         40.0004
  -4189034.87046  -3245514.65945  24338374.8834                   24338370.5904
        37.5004         32.7504
  -9735249.82347  -7543270.96846  23483489.0784                   23483484.1724
        42.2504         38.2504
 -10895123.43647  -8432334.23146  23399582.4614                   23399575.4534
        44.5004         41.2504
  -9682407.49946  -7664589.88746  22919854.1334                   22919849.8054
        41.7504         39.7504
 20  5 21  0 16  0.0000000  0  9G16G04G09G22G27G08G03G07G26
 -22858630.83047 -17695935.61446  20644998.1414                   20644989.8444
        47.7504         39.0004
 -27704124.30247 -21538826.60947  20245087.4144                   20245081.3554
        47.0004         42.2504
 -22921402.06948 -17847027.61048  21067408.0944                   21067402.6214
        48.2504         51.5004
  26592631.08846  20711043.96652  25441532.5704                   25441520.8204
        37.2504         16.7504
  -9463559.63047  -7353736.23946  23242651.5004                   23242645.5394
        43.5004         39.7504
  -4290383.91446  -3324487.97045  24319089.2894                   24319085.0354
        37.0004         32.5004
  -9629459.79746  -7460837.20746  23503619.6024                   23503615.3094
        41.5004         38.0004
 -10965330.58747  -8487041.09346  23386223.0554                   23386215.6684
        44.0004         40.7504
  -9588802.15347  -7591650.67946  22937667.5474                   22937663.1954
        42.2504         39.7504
 20  5 21  0 16 30.0000000  0  9G16G04G09G22G27G08G03G07G26
 -22817159.84347 -17663620.57046  20652890.0704                   20652881.6724
        47.7504         38.7504
 -27696218.46047 -21532666.23147  20246592.0394                   20246585.4964
        47.2504         42.0004
 -22979912.49148 -17892620.15248  21056274.2734                   21056268.1914
        48.0004         51.5004
  26695255.04645  20791010.74642  25461058.5554                   25461052.0984
        33.2504         16.2504
  -9544722.01546  -7416979.56846  23227204.2584                   23227201.8554
        40.5004         39.5004
  -4391713.93946  -3403446.45545  24299805.9924                   24299802.2234
        36.2504         32.0004
  -9523539.74047  -7378302.13446  23523776.2344                   23523770.9654
        42.0004         38.0004
 -11035430.72047  -8541664.56246  23372883.1564                   23372875.8404
        43.0004         40.7504
  -9494952.60147  -7518521.17246  22955525.6484                   22955521.7274
        42.0004         39.5004
 20  5 21  0 17  0.0000000  0  9G16G04G09G22G27G08G03G07G26
 -22775103.15247 -17630849.12446  20660892.9144                   20660884.7974
        47.5004         38.2504
 -27687856.70747 -21526150.59247  20248182.8444                   20248176.6644
        46.5004         42.0004
 -23038074.34647 -17937941.07848  21045206.2814                   21045200.6994
        47.7504         51.5004
  26797782.77046  20870902.49642  25480568.9454                   25480563.1724
        37.7504         16.2504
  -9625565.37347  -7479974.44246  23211820.8754                   23211815.8954
        42.0004         37.5004
  -4493021.43246  -3482387.34845  24280527.6484                   24280524.8794
        37.0004         34.2504
  -9417492.48546  -7295667.91546  23543955.7274                   23543951.5204
        41.2504         37.5004
 -11105423.99347  -8596204.76046  23359563.7894                   23359556.5664
        45.0004         41.2504
  -9400861.32247  -7445203.32746  22973431.5004                   22973427.0634
        42.5004         40.5004
 20  5 21  0 17 30.0000000  0  9G16G04G09G22G27G08G03G07G26
 -22732462.80748 -17597622.89346  20669007.1254                   20668999.2774
        48.5004         39.0004
 -27679038.39747 -21519279.19946  20249861.2974                   20249854.5474
        47.2504         41.7504
 -23095885.58948 -17982988.81348  21034204.9924                   21034199.5044
        48.2504         51.5004
  26900211.682 6                  25500062.836
        37.750
  -9706086.55247  -7542718.19146  23196498.5784                   23196494.5394
        42.7504         40.0004
  -4594303.21746  -3561308.22145  24261255.7344                   24261251.6954
        38.2504         33.0004
  -9311320.97346  -7212936.91546  23564160.0864                   23564154.9964
        41.2504         38.5004
 -11175310.42447  -8650661.70746  23346265.2504                   23346257.3984
        45.0004         40.5004
  -9306530.91347  -7371699.13046  22991381.7194                   22991377.5164
        42.2504         39.0004
 20  5 21  0 18  0.0000000  0  9G16G04G09G22G27G08G03G07G26
 -22689240.98647 -17563943.54946  20677231.8204                   20677223.9804
        47.7504         38.7504
 -27669762.91047 -21512051.56046  20251626.3524                   20251619.3954
        47.5004         41.7504
 -23153344.26548 -18027761.80648  21023271.1564                   21023265.1724
        48.0004         51.7504
  27002539.29846  20958747.06152  25519534.9384                   25519525.2934
        38.5004         17.7504
  -9786282.25847  -7605208.33946  23181238.3204                   23181233.8404
        43.0004         40.7504
  -4695556.44646  -3640206.86145  24241987.3364                   24241983.6884
        38.5004         34.0004
  -9205028.31646  -7130111.51746  23584387.0554                   23584382.0434
        41.5004         38.5004
 -11245089.85447  -8705035.28346  23332986.1094                   23332978.8164
        45.0004         40.5004
  -9211963.96347  -7298010.64046  23009377.7664                   23009372.7424
        42.2504         39.0004
 20  5 21  0 18 30.0000000  0  9G16G04G09G22G27G08G03G07G26
 -22645439.62948 -17529812.62646  20685567.2274                   20685559.0274
        48.2504         39.2504
 -27660029.13647 -21504466.80846  20253478.4304                   20253472.0354
        47.7504         41.7504
 -23210447.92747 -18072258.17348  21012404.7504                   21012398.9104
        47.7504         51.7504
  27104764.10345  21038402.70042  25538986.3594                   25538978.2624
        34.7504         16.2504
  -9866148.81747  -7667442.01046  23166040.5234                   23166035.5084
        44.2504         40.2504
  -4796777.82346  -3719080.69245  24222726.1094                   24222721.8954
        39.5004         34.0004
  -9098616.98646  -7047193.63946  23604636.3914                   23604631.3554
        41.2504         37.7504
 -11314761.46347  -8759324.85346  23319728.7034                   23319720.5594
        45.0004         40.7504
  -9117162.68347  -7224139.53746  23027417.5864                   23027412.9064
        42.7504         39.2504
 20  5 21  0 19  0.0000000  0  9G16G04G09G22G27G08G03G07G26
 -22601061.02248 -17495231.89846  20694012.1884                   20694003.6024
        48.0004         38.0004
 -27649836.90448 -21496524.82147  20255418.0164                   20255411.7384
        48.0004         42.0004
 -23267194.95648 -18116476.64248  21001606.1094                   21001600.4384
        48.0004         52.0004
  27206883.13346  21117975.85142  25558419.8674                   25558410.8794
        36.7504         17.7504
  -9945683.27447  -7729416.95746  23150905.0864                   23150901.3834
        43.7504         41.5004
  -4897964.58346  -3797927.53945  24203470.4384                   24203465.9574
        38.5004         33.0004
  -8992090.35246  -6964185.90546  23624907.1334                   23624903.0554
        41.0004         37.5004
 -11384325.90047  -8813530.89446  23306490.5084                   23306483.5084
        44.0004         41.2504
  -9022129.99446  -7150088.12246  23045501.3594                   23045497.0474
        41.5004         39.2504
 20  5 21  0 19 30.0000000  0  9G16G04G09G22G27G08G03G07G26
 -22556106.84748 -17460202.68446  20702566.5704                   20702558.2774
        48.5004         38.5004
 -27639184.82848 -21488224.50747  20257445.1644                   20257438.7384
        48.2504         42.0004
 -23323582.61448 -18160415.08548  20990875.6334                   20990870.2504
        48.7504         52.0004
  27308894.79246  21197465.40143  25577831.6484                   25577822.8874
        37.2504         19.2504
 -10024881.74747  -7791129.99746  23135834.6804                   23135830.2854
        44.0004         41.5004
  -4999112.66746  -3876744.27545  24184222.0004                   24184218.3984
        37.5004         32.2504
  -8885450.63946  -6881090.06446  23645199.9614                   23645195.5234
        40.7504         36.5004
 -11453782.64247  -8867653.02846  23293273.0784                   23293265.5864
        44.0004         40.2504
  -8926867.85546  -7075857.90446  23063629.1564                   23063625.0474
        41.5004         38.5004
 20  5 21  0 20  0.0000000  0  9G16G04G09G22G27G08G03G07G26
 -22510575.15948 -17424723.45646  20711230.6254                   20711222.9104
        48.7504         38.7504
 -27628068.23948 -21479562.24747  20259560.3594                   20259553.7584
        48.2504         42.0004
 -23379604.79048 -18204068.73148  20980215.2274                   20980209.4654
        48.7504         52.0004
                                  25597226.086
        28.750
 -10103736.71147  -7852575.44246  23120828.2034                   23120824.7584
        42.5004         41.5004
  -5100214.98146  -3955525.30745  24164983.2344                   24164979.6134
        37.0004         33.0004
  -8778696.80146  -6797905.28546  23665515.1094                   23665510.0944
        41.7504         36.7504
 -11523127.23947  -8921687.76346  23280077.3054                   23280069.7234
        44.7504         40.5004
  -8831374.62547  -7001447.61846  23081800.4384                   23081796.6844
        42.0004         38.7504
 20  5 21  0 20 30.0000000  0  8G16G04G09G27G08G03G07G26
 -22464477.14848 -17388802.93146  20720003.0004                   20719995.2584
        48.2504         38.5004
 -27616495.73348 -21470544.74546  20261763.0394                   20261756.4534
        48.5004         41.7504
 -23435268.73348 -18247443.24348  20969622.7504                   20969616.9144
        48.5004         52.0004
 -10182254.20047  -7913757.84346  23105886.7664                   23105883.3524
        42.2504         41.5004
  -5201277.69146  -4034275.45345  24145753.4144                   24145747.9964
        38.0004         32.7504
  -8671840.92946  -6714640.99146  23685849.0164                   23685844.0234
        40.7504         36.2504
 -11592368.83747  -8975642.24446  23266901.4694                   23266893.5944
        44.2504         40.5004
  -8735662.18646  -6926866.52546  23100014.2664                   23100010.2274
        41.7504         38.5004
 20  5 21  0 21  0.0000000  0  8G16G04G09G27G08G03G07G26
 -22417810.43348 -17352439.26746  20728883.3204                   20728875.4384
        48.2504         38.5004
 -27604461.84448 -21461167.71846  20264053.2814                   20264046.3364
        48.0004         41.7504
 -23490567.46548 -18290533.17348  20959099.6414                   20959093.9694
        49.5004         52.2504
 -10260426.08947  -7974670.98946  23091011.1724                   23091006.7234
        43.7504         41.0004
  -5302293.00146  -4112988.67245  24126529.4144                   24126524.9104
        37.5004         32.2504
  -8564881.11546  -6631295.69646  23706202.3984                   23706197.9494
        40.5004         36.7504
 -11661502.08747  -9029512.31046  23253745.7344                   23253738.3714
        43.2504         40.7504
  -8639728.14247  -6852112.75946  23118270.0864                   23118265.8834
        42.0004         38.5004
 20  5 21  0 21 30.0000000  0  8G16G04G09G27G08G03G07G26
 -22370577.25448 -17315634.20246  20737871.4694                   20737863.8914
        48.0004         39.0004
 -27591966.16448 -21451430.84446  20266430.4534                   20266423.8714
        48.2504         41.5004
 -23545499.25348 -18333337.16348  20948646.3524                   20948641.0164
        49.0004         52.2504
 -10338249.20847  -8035312.36846  23076202.3134                   23076197.6914
        45.0004         40.5004
  -5403257.93446  -4191662.63245  24107316.4534                   24107311.9414
        37.5004         34.0004
  -8457820.53746  -6547871.90446  23726574.8134                   23726571.4344
        40.2504         36.7504
 -11730527.56247  -9083298.38846  23240609.9694                   23240602.9884
        43.5004         41.2504
  -8543575.33347  -6777188.51046  23136567.7424                   23136563.2034
        42.5004         38.2504
 20  5 21  0 22  0.0000000  0  8G16G04G09G27G08G03G07G26
 -22322779.76747 -17278389.41846  20746967.0944                   20746959.0084
        47.5004         38.0004
 -27579008.02248 -21441333.61646  20268896.5084                   20268890.0354
        48.0004         41.5004
 -23600061.90248 -18375853.51848  20938263.5004                   20938258.0944
        49.2504         52.5004
 -10415720.26147  -8095679.44046  23061459.5554                   23061455.2424
        44.5004         40.5004
  -5504169.30146  -4270294.84345  24088113.3984                   24088110.2344
        38.2504         34.7504
  -8350661.96946  -6464371.77846  23746968.1884                   23746962.6914
        41.2504         37.2504
 -11799445.32747  -9137000.54246  23227495.7034                   23227488.9534
        43.5004         41.5004
  -8447206.06047  -6702095.59946  23154906.1334                   23154901.9454
        42.5004         38.7504
 20  5 21  0 22 30.0000000  0  8G16G04G09G27G08G03G07G26
 -22274420.67347 -17240707.01146  20756169.5634                   20756161.4144
        47.5004         38.7504
 -27565587.16947 -21430875.81946  20271450.2424                   20271443.6484
        47.5004         41.5004
 -23654253.76048 -18418080.94948  20927951.4064                   20927945.5984
        49.5004         52.2504
 -10492836.28547  -8155769.85046  23046786.2664                   23046780.5164
        45.2504         40.5004
  -5605024.09446  -4348883.01445  24068921.6804                   24068917.7274
        39.2504         34.7504
  -8243408.73246  -6380797.84646  23767376.0474                   23767372.7734
        40.0004         37.0004
 -11868255.10347  -9190618.53746  23214402.3284                   23214394.6334
        44.5004         41.7504
  -8350623.24347  -6626836.29246  23173285.4694                   23173280.9414
        43.0004         38.2504
 20  5 21  0 23  0.0000000  0  8G16G04G09G27G08G03G07G26
 -22225501.48547 -17202588.16946  20765478.5704                   20765470.4614
        47.5004         38.0004
 -27551702.57847 -21420056.67746  20274092.7114                   20274086.1644
        47.5004         41.7504
 -23708072.36548 -18460017.53048  20917710.2344                   20917704.1954
        50.0004         52.2504
 -10569593.62347  -8215580.75446  23032179.0704                   23032174.3754
        44.0004         40.7504
  -5705818.75546  -4427424.32045  24049740.6884                   24049736.8484
        39.7504         34.7504
  -8136063.23146  -6297152.04946  23787805.0704                   23787800.0044
        40.5004         36.5004
 -11936956.28347  -9244151.91846  23201328.5634                   23201321.4494
        43.7504         41.7504
  -8253828.97047  -6551412.22146  23191705.4064                   23191700.8404
        42.2504         38.5004
 20  5 21  0 23 30.0000000  0  8G16G04G09G27G08G03G07G26
 -22176024.24947 -17164034.48146  20774893.7034                   20774885.3914
        47.7504         38.7504
 -27537353.57147 -21408875.64746  20276823.3054                   20276816.7234
        47.7504         41.5004
 -23761515.43448 -18501661.48648  20907540.0474                   20907534.2544
        49.5004         52.2504
 -10645988.75647  -8275109.43046  23017641.2504                   23017636.8204
        44.0004         41.0004
  -5806550.35646  -4505916.48145  24030571.5234                   24030568.1214
        38.0004         33.5004
  -8028628.15846  -6213436.45846  23808248.6954                   23808244.0664
        40.5004         36.0004
 -12005549.14947  -9297600.89646  23188275.7894                   23188268.4734
        44.5004         41.7504
  -8156825.50547  -6475825.11846  23210163.2114                   23210159.7274
        42.2504         38.7504
 20  5 21  0 24  0.0000000  0  8G16G04G09G27G08G03G07G26
 -22125992.31647 -17125048.57346  20784414.9384                   20784406.3754
        47.7504         37.7504
 -27522539.99748 -21397332.63046  20279642.0474                   20279635.4844
        48.0004         41.5004
 -23814581.37648 -18543011.56848  20897442.1094                   20897436.3204
        50.0004         52.2504
 -10722018.88147  -8334353.65146  23003173.5394                   23003169.0234
        43.5004         41.0004
  -5907215.72346  -4584357.03045  24011416.4534                   24011412.8014
        38.2504         34.0004
  -7921106.90946  -6129653.68545  23828709.4144                   23828704.2704
        40.5004         35.7504
 -12074033.10847  -9350965.00846  23175243.8364                   23175236.4024
        43.7504         41.5004
  -8059615.77747  -6400077.32246  23228662.8754                   23228658.0514
        42.7504         38.5004
 20  5 21  0 24 30.0000000  0  8G16G04G09G27G08G03G07G26
 -22075407.53748 -17085631.87046  20794040.3834                   20794032.6724
        48.0004         38.0004
 -27507261.20148 -21385427.09247  20282549.5234                   20282543.1604
        48.0004         42.0004
 -23867268.08248 -18584066.15748  20887416.2664                   20887410.1454
        50.0004         52.5004
 -10797680.64747  -8393310.87546  22988774.9694                   22988771.1684
        43.5004         41.5004
  -6007811.56946  -4662743.42345  23992273.5704                   23992269.5204
        38.5004         33.7504
  -7813502.20146  -6045805.89345  23849186.4924                   23849181.0084
        40.7504         35.5004
 -12142408.56647  -9404244.58546  23162232.0784                   23162225.0234
        44.0004         41.5004
  -7962202.16446  -6324170.63846  23247199.7974                   23247195.2274
        41.7504         37.2504
 20  5 21  0 25  0.0000000  0  8G16G04G09G27G08G03G07G26
 -22024271.72848 -17045785.79346  20803771.2114                   20803763.1914
        48.0004         38.2504
 -27491516.23248 -21373158.30146  20285545.7424                   20285539.4024
        48.0004         41.5004
 -23919573.08748 -18624823.31748  20877462.4064                   20877456.7114
        49.5004         52.5004
 -10872970.35447  -8451978.14746  22974448.0474                   22974444.2274
        43.7504         41.7504
  -6108334.76046  -4741073.17345  23973144.5784                   23973140.1684
        37.5004         33.0004
  -7705816.58546  -5961895.05845  23869678.8834                   23869672.4734
        41.2504         35.5004
 -12210675.24447  -9457439.37846  23149241.1804                   23149234.1914
        44.5004         41.0004
  -7864586.79646  -6248106.75746  23265775.0004                   23265771.2894
        41.5004         37.5004
 20  5 21  0 25 30.0000000  0  8G16G04G09G27G08G03G07G26
 -21972587.79048 -17005512.60346  20813606.4614                   20813598.5984
        48.5004         38.0004
 -27475305.27447 -21360526.40246  20288630.6804                   20288624.2234
        47.5004         41.5004
 -23971495.03448 -18665281.97948  20867582.1724                   20867577.0354
        50.2504         52.5004
 -10947885.44047  -8510353.53047  22960191.8754                   22960188.0944
        43.0004         42.0004
  -6208782.43346  -4819344.06945  23954029.8674                   23954025.9064
        38.0004         34.0004
  -7598053.56046  -5877923.87045  23890183.8134                   23890179.6994
        40.5004         35.7504
 -12278832.97847  -9510549.29746  23136271.5864                   23136264.3594
        45.0004         41.2504
  -7766772.72947  -6171888.02846  23284388.1334                   23284383.3634
        42.2504         37.7504
 20  5 21  0 26  0.0000000  0  8G16G04G09G27G08G03G07G26
 -21920358.28748 -16964814.29646  20823545.6254                   20823537.5784
        48.5004         38.0004
 -27458627.87248 -21347531.03846  20291804.0784                   20291797.6914
        48.2504         41.5004
 -24023031.96648 -18705440.62548  20857774.5164                   20857769.2114
        49.0004         52.0004
 -11022422.71047  -8568434.48347  22946008.7274                   22946004.4184
        44.7504         42.2504
  -6309151.44046  -4897553.71146  23934930.3914                   23934927.4184
        39.0004         36.0004
  -7490216.11046  -5793894.72146  23910704.1334                   23910700.2194
        40.0004         36.5004
 -12346882.01847  -9563574.52546  23123322.1954                   23123314.7234
        45.0004         41.5004
  -7668762.48746  -6095516.43746  23303039.2114                   23303034.8164
        41.2504         37.2504
 20  5 21  0 26 30.0000000  0  8G16G04G09G27G08G03G07G26
 -21867585.18848 -16923692.40046  20833587.9454                   20833579.7234
        48.5004         38.0004
 -27441483.27748 -21334171.63246  20295066.9694                   20295060.4304
        48.0004         41.5004
 -24074181.61548 -18745297.49848  20848041.6804                   20848036.1294
        49.2504         52.5004
 -11096578.73247  -8626218.38547  22931897.4384                   22931892.6214
        44.0004         42.0004
