     2.11           OBSERVATION DATA    G (GPS)             RINEX VERSION / TYPE
teqc  2008Oct2                          20220510 03:47:53UTCPGM / RUN BY / DATE
MSXP|IAx86-PII|bcc32 5.0|MSWin95->XP|486/DX+                COMMENT
BIT 2 OF LLI FLAGS DATA COLLECTED UNDER A/S CONDITION       COMMENT
NtRSkaza                                                    MARKER NAME
kaza                                                        MARKER NUMBER
-Unknown-           -Unknown-                               OBSERVER / AGENCY
4752143407          TRIMBLE NETRS       NP 1.32 / SP 0.00   REC # / TYPE / VERS
30895097            TRM55971.00                             ANT # / TYPE
  1325807.4470  4606495.7499  4195524.6579                  APPROX POSITION XYZ
        0.1705        0.0000        0.0000                  ANTENNA: DELTA H/E/N
     1     1                                                WAVELENGTH FACT L1/2
     7    L1    L2    C1    P2    P1    S1    S2            # / TYPES OF OBSERV
 SNR is mapped to RINEX snr flag value [0-9]                COMMENT
  L1 & L2: min(max(int(snr_dBHz/6), 0), 9)                  COMMENT
  2020     5     1     0     0    0.0000000     GPS         TIME OF FIRST OBS
                                                            END OF HEADER
 20  5  1  0  0  0.0000000  0 10G16G23G 6G 9G 4G22G 3G26G14G31
 -18111043.99447 -14410721.63045  21401834.0314   21401826.2274
        46.7504         35.0004
  -5295583.58247  -4434418.59144  23758758.9614   23758750.0594
        42.7504         28.0004
   -605413.22045   -475255.65445  25210491.2424   25210486.3914
        35.7504         30.0004
  -7275166.60146  -5647523.78346  23999567.5314   23999563.3984
        38.0004         36.0004
 -21899870.48247 -17039794.08246  21337295.5084   21337289.1764
        45.5004         36.5004
 -20506960.11047 -15959845.80446  21793470.1644   21793460.2974
        47.0004         36.7504
 -24565190.96448 -19127976.57848  20687291.0474   20687286.3874
        48.0004         52.0004
 -20291218.54247 -15927819.20248  20912476.3284   20912472.0904
        47.0004         50.2504
  -7280730.95647  -5606697.91843  23746756.2814   23746749.3754
        42.0004         22.5004
 -12705480.35347  -9754885.44747  22575310.9064   22575302.6994
        45.0004         43.0004
 20  5  1  0  0 30.0000000  0 10G16G23G 6G 9G 4G22G 3G26G14G31
 -18189462.20947 -14471826.73946  21386911.7894   21386903.3914
        46.0004         36.0004
  -5378771.66347  -4499240.47244  23742928.5004   23742920.0474
        42.7504         27.7504
   -622471.86146   -488548.10145  25207245.6564   25207240.8094
        37.0004         31.5004
  -7366181.21046  -5718444.25246  23982250.0004   23982243.7624
        39.5004         36.2504
 -21957941.23747 -17085044.01646  21326244.8524   21326238.4614
        45.7504         36.0004
 -20436333.61547 -15904812.17846  21806909.6334   21806900.5204
        46.7504         37.0004
 -24537899.82147 -19106710.76448  20692484.1954   20692479.2344
        47.5004         52.0004
 -20290603.77247 -15927340.15948  20912593.5314   20912588.8134
        47.0004         50.2504
  -7204469.30446  -5547273.27143  23761268.1254   23761260.9924
        40.7504         22.7504
 -12616533.41547  -9685576.16647  22592236.9534   22592228.7344
        44.5004         43.0004
 20  5  1  0  1  0.0000000  0 10G16G23G 6G 9G 4G22G 3G26G14G31
 -18267390.09347 -14532549.77345  21372082.1024   21372074.2544
        46.7504         35.0004
  -5461939.06547  -4564046.20444  23727103.7584   23727093.8164
        44.0004         28.0004
   -639003.27646   -501429.75545  25204099.9304   25204095.5004
        36.7504         30.0004
  -7457166.19746  -5789341.64846  23964934.8054   23964929.9774
        39.2504         36.2504
 -22015804.94247 -17130132.61345  21315233.7114   21315227.1024
        45.2504         35.7504
 -20365306.76947 -15849466.60246  21820425.7584   21820416.0824
        46.5004         37.0004
 -24510027.71447 -19084992.25148  20697787.9534   20697783.3444
        47.5004         52.0004
 -20289371.09647 -15926379.63148  20912827.9304   20912823.3794
        47.0004         50.2504
  -7128054.24546  -5487729.08343  23775810.3444   23775801.4884
        41.7504         22.0004
 -12527468.19247  -9616174.72547  22609185.4454   22609177.3444
        45.0004         42.7504
 20  5  1  0  1 30.0000000  0 10G16G23G 6G 9G 4G22G 3G26G14G31
 -18344823.71447 -14592887.67345  21357347.1174   21357338.9574
        47.0004         35.2504
  -5545084.04447  -4628834.51844  23711280.3134   23711271.3634
        43.2504         27.2504
   -655006.42346   -513899.74745  25201054.7504   25201049.6844
        36.0004         30.0004
  -7548119.87746  -5860214.66346  23947627.3594   23947622.2194
        39.2504         36.0004
 -22073459.65747 -17175058.36745  21304262.6174   21304255.6884
        45.2504         35.2504
 -20293881.14847 -15793810.28346  21834017.4844   21834008.0234
        47.5004         36.2504
 -24481574.53147 -19062820.94848  20703202.4454   20703197.6954
        47.5004         51.7504
 -20287519.96147 -15924937.19948  20913180.5704   20913175.7154
        47.0004         50.2504
  -7051485.19146  -5428064.89243  23790379.4614   23790373.1254
        39.7504         20.7504
 -12438285.73447  -9546681.92047  22626156.0084   22626148.2584
        44.5004         42.7504
 20  5  1  0  2  0.0000000  0 10G16G23G 6G 9G 4G22G 3G26G14G31
 -18421760.56147 -14652838.45045  21342706.6884   21342698.2304
        46.7504         35.5004
  -5628205.73147  -4693604.66544  23695462.8134   23695453.7894
        42.2504         26.2504
   -670481.14945   -525957.99945  25198109.3364   25198104.4964
        35.7504         30.0004
  -7639041.18746  -5931062.46746  23930326.0784   23930320.7584
        40.0004         36.2504
 -22130904.07247 -17219820.24245  21293330.8914   21293324.5354
        45.2504         35.7504
 -20222058.46147 -15737844.56646  21847685.3524   21847675.5434
        46.5004         36.5004
 -24452540.87947 -19040197.33748  20708727.9614   20708722.5664
        47.5004         51.7504
 -20285050.49047 -15923012.93348  20913650.1024   20913645.7274
        47.0004         50.2504
  -6974762.20446  -5368280.79543  23804978.8134   23804973.1374
        38.7504         19.5004
 -12348987.81547  -9477099.14847  22643148.3284   22643141.3324
        43.7504         42.5004
 20  5  1  0  2 30.0000000  0 10G16G23G 6G 9G 4G22G 3G26G14G31
 -18498197.93347 -14712400.03446  21328160.6174   21328153.1524
        46.5004         36.0004
  -5711303.33047  -4758356.02344  23679650.9144   23679641.3134
        43.7504         26.7504
   -685427.30246   -537604.37444  25195265.8914   25195259.8754
        36.7504         29.5004
  -7729929.23846  -6001884.33846  23913029.7424   23913025.3134
        39.2504         36.2504
 -22188137.01747 -17264417.34845  21282440.1724   21282433.7154
        45.2504         35.5004
 -20149840.65147 -15681570.96246  21861427.6484   21861418.3204
        47.0004         36.5004
 -24422927.58347 -19017122.05648  20714362.8674   20714358.2154
        47.5004         52.0004
 -20281962.94647 -15920607.06048  20914237.6564   20914233.3524
        47.0004         50.2504
  -6897885.72046  -5308377.15543  23819609.1094   23819602.2774
        39.0004         19.7504
 -12259576.12247  -9407427.72647  22660163.2034   22660155.5204
        44.5004         42.7504
 20  5  1  0  3  0.0000000  0 10G16G23G 6G 9G 4G22G 3G26G14G31
 -18574134.06647 -14771571.06245  21313710.8134   21313702.6564
        46.5004         35.5004
  -5794377.18747  -4823088.92744  23663841.9064   23663832.4804
        43.5004         28.0004
   -699846.00146   -548839.74044  25192521.7194   25192516.9384
        36.7504         29.7504
  -7820784.26246  -6072680.45346  23895740.4144   23895735.6214
        38.7504         37.5004
 -22245158.53947 -17308849.70246  21271589.3524   21271583.0434
        45.0004         36.2504
 -20077231.30047 -15624992.25146  21875244.8524   21875235.4924
        47.5004         36.5004
 -24392736.66247 -18993596.67348  20720107.7894   20720103.1724
        47.5004         52.0004
 -20278258.83547 -15917720.73548  20914942.5634   20914938.1024
        47.5004         50.2504
  -6820857.24746  -5248355.00243  23834267.2504   23834260.8674
        40.2504         22.5004
 -12170053.42047  -9337669.80047  22677199.3284   22677191.5274
        44.5004         42.7504
 20  5  1  0  3 30.0000000  0 10G16G23G 6G 9G 4G22G 3G26G14G31
 -18649564.66647 -14830348.14545  21299356.6024   21299349.1134
        45.7504         35.5004
  -5877425.07047  -4887801.54744  23648038.9614   23648028.6054
        44.0004         28.7504
   -713735.96345   -559663.10245  25189878.0164   25189874.3014
        35.5004         31.0004
  -7911604.03446  -6143449.07446  23878459.6174   23878453.9804
        40.0004         37.7504
 -22301966.11047 -17353115.34645  21260779.2274   21260772.5084
        45.2504         35.5004
 -20004231.32347 -15568109.16945  21889136.1024   21889126.7304
        47.5004         35.7504
 -24361967.64947 -18969620.82948  20725963.2584   20725958.2424
        47.5004         52.0004
 -20273937.14847 -15914353.18948  20915764.8444   20915760.4924
        47.5004         50.2504
  -6743675.69946  -5188213.58843  23848954.3204   23848947.7344
        41.2504         22.7504
 -12080420.41647  -9267825.92947  22694255.9224   22694248.1134
        44.5004         42.2504
 20  5  1  0  4  0.0000000  0 10G16G23G 6G 9G 4G22G 3G26G14G31
 -18724487.97347 -14888729.95546  21285099.3524   21285091.9454
        47.0004         36.2504
  -5960446.80247  -4952493.82844  23632239.5864   23632230.6134
        43.5004         26.5004
   -727097.75046   -570074.90345  25187335.9064   25187332.1564
        36.5004         31.0004
  -8002388.23646  -6214190.01646  23861182.7344   23861177.8794
        40.0004         37.7504
 -22358559.19747 -17397213.84745  21250009.6484   21250003.4024
        45.5004         35.5004
 -19930843.12447 -15510923.56546  21903101.2344   21903091.8554
        47.0004         36.5004
 -24330622.03447 -18945195.69248  20731928.0554   20731923.0084
        47.2504         51.7504
 -20268998.92147 -15910505.21748  20916704.5004   20916699.8914
        47.0004         50.2504
  -6666341.79946  -5127953.43743  23863669.8204   23863663.5634
        39.2504         22.5004
 -11990679.46347  -9197897.93847  22711332.4774   22711324.9184
        44.5004         42.5004
 20  5  1  0  4 30.0000000  0 10G16G23G 6G 9G 4G22G 3G26G14G31
 -18798900.42847 -14946713.70046  21270938.7274   21270931.4064
        47.0004         36.5004
  -6043440.76747  -5017164.42744  23616447.4774   23616437.4694
        44.2504         27.5004
   -739930.63745   -580074.56045  25184893.3754   25184889.5944
        35.0004         30.5004
  -8093135.13346  -6284901.89046  23843913.8134   23843909.3404
        38.7504         37.2504
 -22414935.79647 -17441143.67746  21239281.3134   21239274.7624
        45.5004         36.0004
 -19857068.10347 -15453436.55646  21917140.5474   21917130.5164
        47.2504         36.7504
 -24298699.91147 -18920321.32348  20738002.4454   20737997.7194
        47.2504         51.7504
 -20263443.68947 -15906176.47348  20917761.5004   20917757.3094
        47.0004         50.0004
  -6588855.24646  -5067574.36643  23878415.0474   23878408.7114
        38.5004         21.0004
 -11900831.65947  -9127886.69547  22728430.7504   22728422.4844
        44.5004         42.7504
 20  5  1  0  5  0.0000000  0 10G16G23G 6G 9G 4G22G 3G26G14G31
 -18872799.26847 -15004297.22146  21256876.7974   21256869.1724
        46.7504         36.2504
  -6126405.85147  -5081812.54944  23600659.0234   23600649.6374
        43.2504         28.7504
   -752234.37646   -589661.91144  25182552.4774   25182547.7814
        36.5004         29.5004
  -8183843.62946  -6355583.81346  23826653.8914   23826647.9574
        39.7504         36.7504
 -22471094.58647 -17484903.77646  21228594.8204   21228588.2114
        45.5004         36.0004
 -19782908.50447 -15395649.86246  21931252.2504   21931243.0394
        47.0004         36.5004
 -24266202.11547 -18894998.37748  20744186.7584   20744181.6094
        47.2504         51.7504
 -20257271.74247 -15901367.16148  20918936.0394   20918931.7734
        47.0004         50.0004
  -6511216.15546  -5007076.41943  23893189.8284   23893182.6644
        38.2504         19.5004
 -11810878.38647  -9057793.25647  22745547.6254   22745540.1804
        44.2504         43.0004
 20  5  1  0  5 30.0000000  0 10G16G23G 6G 9G 4G22G 3G26G14G31
 -18946182.33748 -15061478.84346  21242912.0004   21242904.3134
        48.0004         36.0004
  -6209341.74047  -5146437.90644  23584876.5704   23584867.8794
        43.5004         28.5004
   -764009.67746   -598837.50445  25180312.2114   25180307.1764
        36.5004         30.0004
  -8274513.31046  -6426235.52246  23809400.4224   23809394.1094
        41.0004         36.7504
 -22527034.94847 -17528493.66446  21217949.9454   21217943.6334
        45.2504         36.2504
 -19708367.01947 -15337565.60946  21945437.2734   21945427.5234
        46.2504         36.0004
 -24233130.08147 -18869227.96748  20750480.0634   20750475.0984
        47.7504         51.7504
 -20250484.09247 -15896078.08348  20920227.9384   20920223.4384
        47.5004         50.0004
  -6433425.31546  -4946460.21043  23907992.5474   23907985.6764
        37.5004         19.0004
 -11720822.12247  -8987619.55947  22762684.6804   22762677.3444
        44.5004         42.0004
 20  5  1  0  6  0.0000000  0 10G16G23G 6G 9G 4G22G 3G26G14G31
 -19019047.01148 -15118256.51446  21229046.5864   21229038.9774
        48.0004         36.5004
  -6292247.67447  -5211039.92544  23569100.4384   23569090.9384
        44.0004         28.5004
   -775256.62046   -607601.36844  25178172.0864   25178166.4384
        37.5004         29.2504
  -8365143.27746  -6496856.29646  23792153.5164   23792147.9304
        40.5004         37.5004
 -22582755.70547 -17571912.43646  21207346.3674   21207340.1524
        46.0004         36.0004
 -19633445.67247 -15279185.35446  21959694.3914   21959684.8954
        47.2504         36.2504
 -24199484.87248 -18843010.93348  20756882.1724   20756877.8364
        48.0004         51.7504
 -20243081.25147 -15890309.64748  20921636.4064   20921632.1054
        47.5004         50.0004
  -6355483.15246  -4885726.10143  23922825.4304   23922818.6214
        39.2504         20.5004
 -11630664.46147  -8917366.88447  22779841.4694   22779833.5824
        44.2504         42.0004
 20  5  1  0  6 30.0000000  0 10G16G23G 6G 9G 4G22G 3G26G14G31
 -19091390.35847 -15174627.95446  21215280.1884   21215272.1374
        47.0004         36.0004
  -6375122.63747  -5275617.81144  23553328.8524   23553320.6134
        43.0004         27.2504
   -785975.22846   -615953.54444  25176132.4224   25176127.1294
        36.7504         29.7504
  -8455732.48446  -6567445.26946  23774915.3674   23774909.0664
        41.0004         37.2504
 -22638255.58947 -17615159.09645  21196785.4534   21196778.6484
        46.0004         35.5004
 -19558146.41247 -15220510.61545  21974023.3984   21974013.8324
        47.0004         35.7504
 -24165267.37147 -18816347.95348  20763393.9774   20763389.1524
        47.7504         51.7504
 -20235063.58747 -15884062.10948  20923162.5784   20923157.9844
        47.2504         50.0004
  -6277390.04146  -4824874.39543  23937686.0004   23937679.0824
        40.5004         22.5004
 -11540407.08247  -8847036.48647  22797017.5084   22797009.0004
        45.0004         42.2504
 20  5  1  0  7  0.0000000  0 10G16G23G 6G 9G 4G22G 3G26G14G31
 -19163209.43647 -15230590.86646  21201613.3594   21201605.9064
        46.5004         36.2504
  -6457964.93347  -5340170.25244  23537565.5004   23537556.1414
        43.0004         28.7504
   -796164.91846   -623893.58744  25174192.5784   25174188.3244
        36.5004         29.2504
  -8546279.18946  -6638001.18346  23757684.4064   23757678.2304
        40.7504         37.7504
 -22693532.64247 -17658232.12246  21186266.4534   21186260.1724
        45.5004         36.2504
 -19482471.07047 -15161542.82846  21988423.7664   21988414.2934
        46.2504         36.7504
 -24130477.90648 -18789239.29348  20770014.2734   20770009.0514
        48.5004         51.7504
 -20226430.94347 -15877335.37948  20924804.8444   20924800.7114
        47.5004         50.0004
  -6199145.47246  -4763904.65943  23952575.2274   23952569.1094
        39.5004         22.5004
 -11450050.91747  -8776629.09646  22814211.0944   22814203.3834
        44.7504         41.7504
 20  5  1  0  7 30.0000000  0 10G16G23G 6G 9G 4G22G 3G26G14G31
 -19234501.61047 -15286143.22146  21188046.6174   21188038.8634
        47.0004         36.5004
  -6540774.14247  -5404696.89944  23521807.2344   23521797.6134
        43.7504         28.7504
   -805826.05246   -631421.74544  25172354.1024   25172349.6564
        36.5004         29.5004
  -8636782.63046  -6708523.34346  23740461.6484   23740456.8554
        40.0004         37.5004
 -22748585.89647 -17701130.76846  21175790.3054   21175783.8554
        46.0004         37.0004
 -19406421.94647 -15102283.78946  22002895.7584   22002885.7344
        47.2504         36.5004
 -24095117.66947 -18761685.87748  20776742.9534   20776738.0864
        47.5004         51.7504
 -20217184.05447 -15870130.01448  20926564.6884   20926560.2544
        47.5004         50.0004
  -6120749.89146  -4702817.25743  23967493.2894   23967487.3204
        38.5004         22.5004
 -11359598.15647  -8706146.45547  22831423.8284   22831416.3954
        44.2504         42.0004
 20  5  1  0  8  0.0000000  0 10G16G23G 6G 9G 4G22G 3G26G14G31
 -19305263.64547 -15341282.47246  21174581.5004   21174573.4804
        47.0004         36.2504
  -6623548.78847  -5469196.64844  23506054.5864   23506046.2974
        42.5004         28.7504
   -814958.29845   -638537.79844  25170616.7734   25170612.2704
        35.7504         29.5004
  -8727241.34846  -6779010.65646  23723247.2814   23723242.9654
        39.7504         38.0004
 -22803413.62647 -17743853.66946  21165356.7734   21165350.4614
        46.2504         37.5004
 -19330000.72747 -15042734.79446  22017438.0084   22017428.2774
        47.0004         36.0004
 -24059187.28947 -18733688.19248  20783580.1644   20783575.4884
        47.5004         51.7504
 -20207322.94548 -15862446.03648  20928441.0314   20928436.6804
        48.0004         50.0004
  -6042203.26646  -4641612.13543  23982440.0944   23982433.3134
        39.0004         20.0004
 -11269049.85147  -8635589.35847  22848654.5554   22848646.9804
        44.2504         42.0004
 20  5  1  0  8 30.0000000  0 10G16G23G 6G 9G 4G22G 3G26G14G31
 -19375493.71447 -15396007.20046  21161217.2894   21161209.6524
        46.7504         36.7504
  -6706288.20747  -5533668.89944  23490310.2344   23490301.3634
        43.7504         28.5004
   -823562.39846   -645242.29045  25168979.3204   25168975.2934
        36.2504         30.2504
  -8817654.84746  -6849462.70046  23706043.7344   23706038.4964
        40.5004         37.7504
 -22858015.13647 -17786400.29846  21154966.7424   21154960.1564
        45.7504         36.7504
 -19253210.41647 -14982898.19945  22032050.6884   22032041.1254
        47.0004         35.5004
 -24022688.36647 -18705247.49248  20790525.6024   20790521.0704
        47.7504         51.7504
 -20196848.81947 -15854284.37948  20930434.3914   20930429.8954
        47.5004         50.2504
  -5963506.24146  -4580289.85943  23997416.2344   23997409.2274
        38.7504         19.7504
 -11178408.13147  -8564959.48046  22865903.2424   22865895.6684
        44.5004         41.7504
 20  5  1  0  9  0.0000000  0 10G16G23G 6G 9G 4G22G 3G26G14G31
 -19445189.32547 -15450315.46546  21147954.1334   21147946.4224
        47.0004         36.5004
  -6788991.51147  -5598113.03944  23474572.2274   23474563.4964
        44.2504         28.7504
   -831638.37845   -651535.28344  25167443.0004   25167438.2304
        35.5004         29.5004
  -8908022.02946  -6919878.68546  23688847.2504   23688841.7114
        41.5004         39.5004
 -22912389.15347 -17828769.65946  21144619.5314   21144612.9734
        46.0004         36.7504
 -19176052.90947 -14922775.48145  22046733.4614   22046723.6644
        47.2504         35.5004
 -23985621.89848 -18676364.54048  20797579.8284   20797574.7704
        48.2504         51.7504
 -20185762.18748 -15845645.45148  20932544.1884   20932539.6054
        48.0004         50.0004
  -5884659.19346  -4518850.64843  24012419.5704   24012413.0124
        38.5004         19.2504
 -11087674.56347  -8494258.03146  22883168.8284   22883161.4804
        44.2504         41.7504
 20  5  1  0  9 30.0000000  0 10G16G23G 6G 9G 4G22G 3G26G14G31
 -19514347.82647 -15504205.21746  21134793.9694   21134786.4304
        47.0004         36.5004
  -6871658.14447  -5662528.59744  23458841.6024   23458832.2934
        43.5004         29.0004
   -839186.82846   -657417.20444  25166005.8054   25166002.2114
        36.2504         29.7504
  -8998342.12946  -6990257.98946  23671659.4144   23671654.3954
        41.0004         39.0004
 -22966534.62347 -17870960.93346  21134315.6254   21134309.5044
        45.5004         36.7504
 -19098530.82047 -14862368.67945  22061485.3834   22061475.8834
        46.7504         35.7504
 -23947989.28947 -18647040.43848  20804740.5394   20804736.0234
        47.5004         51.5004
 -20174063.89548 -15836529.90348  20934769.8204   20934765.4144
        48.0004         50.0004
  -5805662.76346  -4457295.01743  24027452.4454   24027446.3524
        39.0004         20.5004
 -10996851.02647  -8423486.48046  22900452.0864   22900444.9734
        44.7504         41.7504
 20  5  1  0 10  0.0000000  0 10G16G23G 6G 9G 4G22G 3G26G14G31
 -19582966.92747 -15557674.65946  21121736.3984   21121728.8404
        46.5004         36.7504
  -6954286.89447  -5726914.62344  23443118.5164   23443109.1334
        43.7504         29.5004
   -846207.94446   -662888.20344  25164669.4924   25164666.1334
        36.5004         29.2504
  -9088613.98246  -7060599.70746  23654482.4144   23654475.9024
        41.7504         38.5004
 -23020450.31547 -17912973.15646  21124056.2894   21124049.5434
        45.5004         36.7504
 -19020646.50447 -14801679.61945  22076306.4614   22076296.9884
        46.5004         35.7504
 -23909791.59647 -18617276.02348  20812009.1884   20812004.7704
        47.5004         51.5004
 -20161754.62548 -15826938.27048  20937112.8594   20937107.9614
        49.2504         50.0004
  -5726517.18546  -4395623.17643  24042513.6884   24042507.1254
        40.0004         23.5004
 -10905939.45447  -8352646.33846  22917752.1954   22917744.5394
        44.2504         41.5004
 20  5  1  0 10 30.0000000  0 10G16G23G 6G 9G 4G22G 3G26G14G31
 -19651043.38047 -15610721.25546  21108781.8754   21108774.0314
        47.0004         37.0004
  -7036875.94147  -5791269.72445  23427402.1564   23427392.8284
        44.0004         30.0004
   -852701.05146   -667947.78945  25163434.5084   25163429.8094
        36.5004         30.0004
  -9178835.73146  -7130902.37246  23637312.8054   23637307.3014
        41.0004         38.0004
 -23074133.98047 -17954804.58845  21113840.1724   21113833.5274
        45.7504         35.7504
 -18942400.87847 -14740709.02245  22091196.2664   22091186.1524
        46.7504         35.5004
 -23871029.10647 -18587071.50048  20819385.7504   20819380.9414
        47.2504         51.2504
 -20148834.06147 -15816870.30548  20939571.1644   20939566.9184
        47.7504         50.0004
  -5647221.88346  -4333834.69943  24057604.3834   24057596.4184
        39.7504         22.5004
 -10814940.58947  -8281738.15946  22935068.4224   22935061.1994
        43.7504         41.5004
 20  5  1  0 11  0.0000000  0 10G16G23G 6G 9G 4G22G 3G26G14G31
 -19718574.83647 -15663343.18046  21095930.9614   21095923.0434
        47.5004         37.0004
  -7119424.99747  -5855593.65644  23411693.4224   23411684.4344
        44.0004         29.5004
   -858667.07046   -672596.65845  25162299.3444   25162294.5394
        36.5004         30.0004
  -9269006.89446  -7201165.63646  23620153.4694   23620148.2624
        39.5004         37.2504
 -23127585.05247 -17996454.77546  21103668.7974   21103662.0664
        46.0004         37.0004
 -18863797.05047 -14679459.30845  22106153.9064   22106144.0314
        47.5004         35.5004
 -23831703.57047 -18556428.23948  20826868.8914   20826864.1414
        47.5004         51.5004
 -20135303.56448 -15806327.07148  20942145.8914   20942141.2624
        48.0004         50.0004
  -5567777.77446  -4271930.25943  24072720.6414   24072714.0234
        37.5004         21.7504
 -10723856.40147  -8210763.49046  22952401.4454   22952394.1214
        44.2504         41.5004
 20  5  1  0 11 30.0000000  0 10G16G23G 6G 9G 4G22G 3G26G14G31
 -19785558.12747 -15715537.96246  21083184.4534   21083176.7304
        47.0004         36.2504
  -7201931.98247  -5919884.80844  23395993.9304   23395984.1294
        44.2504         29.5004
   -864105.36046   -676834.28945  25161264.9774   25161259.7504
        37.0004         30.2504
  -9359125.45546  -7271387.88246  23603005.4144   23602999.0824
        41.0004         36.7504
 -23180801.32947 -18037921.99846  21093542.2424   21093535.8014
        45.7504         36.7504
 -18784836.51047 -14617931.62745  22121179.1884   22121170.0004
        47.0004         35.5004
 -23791815.31347 -18525346.49248  20834459.3674   20834454.9924
        47.0004         51.2504
 -20121162.93248 -15795308.39348  20944836.6414   20944832.1414
        48.0004         50.0004
  -5488184.21146  -4209909.37243  24087866.5554   24087860.5234
        36.7504         20.7504
 -10632687.60647  -8139722.91246  22969750.6954   22969742.2974
        44.7504         40.7504
 20  5  1  0 12  0.0000000  0 10G16G23G 6G 9G 4G22G 3G26G14G31
 -19851991.72547 -15767304.41146  21070542.2894   21070534.7704
        47.2504         37.0004
  -7284397.10647  -5984143.33944  23380300.8524   23380291.0084
        44.5004         29.2504
   -869017.41846   -680661.90845  25160330.2344   25160324.7974
        37.5004         30.2504
  -9449191.46046  -7341569.20446  23585864.9844   23585860.1724
        40.5004         38.0004
 -23233782.59847 -18079206.10546  21083460.2734   21083453.8914
        45.5004         36.7504
 -18705522.26547 -14556128.32945  22136272.4534   22136262.6604
        46.7504         35.2504
 -23751366.63247 -18493828.06448  20842156.7034   20842151.8094
        47.7504         51.5004
 -20106414.03348 -15783815.75148  20947643.2274   20947639.0274
        49.2504         50.0004
  -5408442.66946  -4147773.16443  24103040.7974   24103034.4104
        37.0004         19.7504
 -10541436.87347  -8068618.47146  22987115.1094   22987107.1174
        44.5004         40.5004
 20  5  1  0 12 30.0000000  0 10G16G23G 6G 9G 4G22G 3G26G14G31
 -19917872.94947 -15818640.43946  21058005.8754   21057998.0594
        47.5004         37.2504
  -7366818.97247  -6048368.17744  23364615.8674   23364606.9804
        45.0004         28.5004
   -873402.81046   -684079.10344  25159493.9774   25159490.7194
        36.5004         29.7504
  -9539203.14846  -7411708.17946  23568736.0634   23568732.0474
        40.7504         39.0004
 -23286526.91247 -18120305.57246  21073423.2734   21073416.5984
        46.2504         36.5004
 -18625856.37847 -14494051.04445  22151432.6724   22151422.7074
        47.2504         35.5004
 -23710358.12148 -18461873.38748  20849960.4844   20849955.5274
        48.2504         51.5004
 -20091056.96048 -15771849.19948  20950566.0314   20950561.5004
        48.2504         50.0004
  -5328552.87746  -4085521.44243  24118243.6884   24118237.4144
        39.2504         20.7504
 -10450105.30347  -7997451.03946  23004494.1954   23004486.5044
        43.5004         41.0004
 20  5  1  0 13  0.0000000  0 10G16G23G 6G 9G 4G22G 3G26G14G31
 -19983199.34547 -15869544.12446  21045574.5554   21045567.2774
        47.0004         37.2504
  -7449196.70147  -6112558.60144  23348940.8984   23348930.9454
        45.5004         29.5004
   -877262.42446   -687086.59044  25158760.6174   25158756.3834
        36.0004         29.2504
  -9629159.76146  -7481804.22846  23551618.8364   23551614.2234
        41.0004         39.5004
 -23339033.40947 -18161219.72746  21063431.7734   21063425.1994
        46.7504         36.5004
 -18545841.31547 -14431701.65745  22166658.5164   22166649.3524
        46.7504         35.5004
 -23668791.38448 -18429483.73748  20857870.2504   20857865.7154
        48.0004         51.5004
 -20075092.87147 -15759409.65848  20953603.5554   20953599.2544
        47.7504         50.0004
  -5248515.40246  -4023154.65443  24133474.6954   24133468.0274
        40.0004         21.2504
 -10358694.77947  -7926222.09246  23021889.5084   23021881.9574
        44.5004         41.0004
 20  5  1  0 13 30.0000000  0 10G16G23G 6G 9G 4G22G 3G26G14G31
 -20047968.15447 -15920013.33446  21033249.4384   21033242.1024
        47.0004         37.0004
  -7531528.42147  -6176713.19544  23333273.6884   23333263.3094
        45.0004         29.5004
   -880596.03646   -689684.24045  25158126.2344   25158122.0124
        37.5004         30.2504
  -9719059.65946  -7551856.08946  23534511.8754   23534506.3794
        40.7504         39.2504
 -23391300.20647 -18201947.10346  21053485.2504   21053478.4534
        47.5004         36.5004
 -18465478.75147 -14369081.48845  22181951.2584   22181941.6914
        46.7504         34.7504
 -23626667.14048 -18396659.66848  20865886.4224   20865881.6254
        48.7504         51.5004
 -20058522.02248 -15746497.31048  20956757.1414   20956752.5944
        48.0004         50.0004
  -5168330.36646  -3960672.80243  24148733.1094   24148726.3444
        40.5004         21.5004
 -10267206.35747  -7854932.45646  23039299.3364   23039291.8874
        44.0004         40.5004
 20  5  1  0 14  0.0000000  0 10G16G23G 6G 9G 4G22G 3G26G14G31
 -20112177.51247 -15970046.60446  21021030.4614   21021023.0824
        47.2504         37.0004
  -7613813.66147  -6240831.58145  23317614.4774   23317605.1094
        44.5004         30.0004
   -883404.40246   -691872.60545  25157592.2504   25157587.2974
        37.5004         30.0004
  -9808902.09246  -7621863.17446  23517414.6884   23517410.0274
        41.0004         39.5004
 -23443326.42547 -18242487.01646  21043585.6644   21043579.0514
        47.0004         36.7504
 -18384771.69047 -14306192.89045  22197308.9774   22197299.6254
        46.7504         34.7504
 -23583987.14248 -18363402.54548  20874007.4924   20874002.8554
        48.7504         51.5004
 -20041345.69648 -15733113.16448  20960025.8444   20960021.3484
        48.0004         50.0004
  -5087998.38146  -3898076.46443  24164019.6884   24164012.9924
        37.7504         20.5004
 -10175641.79447  -7783583.48346  23056723.8284   23056715.8094
        44.0004         40.2504
 20  5  1  0 14 30.0000000  0 10G16G23G 6G 9G 4G22G 3G26G14G31
 -20175824.47147 -16019641.63546  21008919.2274   21008911.3244
        47.5004         37.2504
  -7696051.17447  -6304912.76444  23301965.3364   23301956.2154
        45.5004         29.2504
   -885687.65446   -693651.79945  25157157.0864   25157152.9384
        36.7504         30.0004
  -9898685.52546  -7691824.28846  23500330.3284   23500324.5864
        41.7504         39.5004
 -23495110.29647 -18282838.09746  21033731.5634   21033724.7934
        46.5004         37.2504
 -18303721.43747 -14243036.85945  22212732.3834   22212723.1804
        46.5004         35.2504
 -23540752.24948 -18329713.03248  20882235.3834   20882230.4774
        49.0004         51.5004
 -20023564.25648 -15719257.50148  20963409.2734   20963404.7704
        48.2504         50.0004
  -5007519.03746  -3835365.37243  24179334.6724   24179328.1484
        37.2504         19.5004
 -10084002.17647  -7712176.01446  23074161.7734   23074154.0824
        43.7504         40.2504
 20  5  1  0 15  0.0000000  0 10G16G23G 6G 9G 4G22G 3G26G14G31
 -20238906.67047 -16068796.58846  20996914.9304   20996907.1804
        47.0004         37.0004
  -7778239.72147  -6368955.77545  23286326.0004   23286316.0904
        46.2504         30.0004
   -887446.18946   -695022.07545  25156823.2114   25156817.8714
        37.2504         30.2504
  -9988408.91846  -7761738.62746  23483255.4454   23483251.0274
        39.7504         39.0004
 -23546650.61847 -18322999.38146  21023923.2734   21023916.9844
        47.0004         36.7504
 -18222330.80847 -14179615.60945  22228220.9694   22228211.6644
        46.2504         34.7504
 -23496963.84648 -18295592.21348  20890567.5944   20890563.3554
        49.5004         51.5004
 -20005178.75848 -15704931.14348  20966908.1334   20966903.0864
        48.0004         50.0004
  -4926892.84446  -3772539.85143  24194676.9384   24194670.6524
        36.2504         19.5004
  -9992289.25647  -7640711.42446  23091613.9774   23091606.5234
        43.7504         41.0004
 20  5  1  0 15 30.0000000  0 10G16G23G 6G 9G 4G22G 3G26G14G31
 -20301422.60947 -16117510.32246  20985018.7894   20985011.0004
        46.7504         37.2504
  -7860379.07547  -6432960.45945  23270695.4614   23270684.8164
        45.2504         30.5004
   -888681.19046   -695984.44045  25156588.2194   25156582.7504
        37.0004         30.7504
 -10078071.70046  -7831605.74946  23466193.0784   23466188.2934
        40.2504         38.5004
 -23597946.72447 -18362970.37746  21014161.7734   21014155.3834
        47.0004         36.5004
 -18140602.78247 -14115931.45745  22243773.1024   22243764.0204
        46.5004         35.0004
 -23452624.00748 -18261041.70348  20899005.2814   20899000.9774
        48.5004         51.2504
 -19986190.65048 -15690135.21848  20970521.2424   20970516.8524
        48.2504         50.0004
  -4846121.02446  -3709600.84543  24210047.5314   24210042.4414
        38.5004         22.2504
  -9900505.05347  -7569191.30746  23109080.1564   23109072.8484
        43.5004         40.7504
 20  5  1  0 16  0.0000000  0 10G16G23G 6G 9G 4G22G 3G26G14G31
 -20363368.79747 -16165780.09646  20973230.7424   20973223.1994
        46.2504         37.2504
  -7942467.00747  -6496925.09344  23255074.2584   23255064.7854
        45.7504         29.5004
   -889392.16646   -696538.44745  25156453.2974   25156447.6214
        37.2504         30.0004
 -10167671.68046  -7901423.91546  23449143.3984   23449137.9384
        40.7504         39.0004
 -23648996.16847 -18402749.16646  21004447.6724   21004441.2074
        47.0004         37.0004
 -18058538.75147 -14051985.48245  22259389.2734   22259380.1604
        45.7504         35.5004
 -23407732.94848 -18226061.67048  20907548.2114   20907543.4574
        49.5004         51.0004
 -19966599.82448 -15674869.64148  20974249.4064   20974244.6804
        48.0004         50.0004
  -4765202.67946  -3646547.70043  24225446.5634   24225439.9224
        39.2504         20.5004
  -9808650.35347  -7497616.27346  23126559.6954   23126552.4454
        43.2504         41.0004
 20  5  1  0 16 30.0000000  0 10G16G23G 6G 9G 4G22G 3G26G14G31
 -20424743.62647 -16213604.64746  20961551.5234   20961543.9534
        46.7504         37.2504
  -8024503.09647  -6560849.32645  23239463.2584   23239453.8524
        46.0004         31.0004
   -889580.15246   -696684.97345  25156417.2504   25156412.4844
        36.7504         30.5004
 -10257208.40046  -7971192.76946  23432105.5474   23432100.0044
        41.5004         40.0004
 -23699798.35647 -18442335.28446  20994780.0314   20994773.9574
        46.5004         37.0004
 -17976141.34647 -13987779.73445  22275069.1174   22275059.9694
        45.7504         35.0004
 -23362292.86248 -18190653.83348  20916195.0084   20916190.3954
        49.5004         51.0004
 -19946408.01247 -15659135.76048  20978091.6804   20978087.3204
        47.7504         50.0004
  -4684139.02846  -3583381.23643  24240872.5704   24240865.9614
        41.0004         20.5004
  -9716727.26147  -7425987.92446  23144051.7894   23144044.4774
        43.0004         40.5004
 20  5  1  0 17  0.0000000  0 10G16G23G 6G 9G 4G22G 3G26G14G31
 -20485544.27047 -16260981.77946  20949981.4224   20949973.8134
        46.5004         37.0004
  -8106485.69447  -6624731.85445  23223862.2664   23223853.1294
        45.5004         30.5004
   -889245.39845   -696424.13545  25156481.6414   25156476.1684
        35.5004         31.0004
 -10346680.12846  -8040911.00646  23415079.5944   23415073.9454
        41.7504         39.7504
 -23750351.46647 -18481727.32046  20985160.3914   20985153.7854
        46.2504         37.2504
 -17893412.52747 -13923315.74245  22290811.9454   22290802.3914
        46.5004         34.7504
 -23316304.60048 -18154818.84148  20924946.1564   20924941.5044
        48.7504         51.0004
 -19925615.56948 -15642933.87048  20982048.1174   20982043.7034
        48.2504         50.0004
  -4602929.70946  -3520101.32543  24256325.4924   24256319.2704
        39.0004         19.7504
  -9624736.62247  -7354306.95346  23161557.0944   23161549.9184
        43.2504         40.0004
 20  5  1  0 17 30.0000000  0 10G16G23G 6G 9G 4G22G 3G26G14G31
 -20545768.95947 -16307910.11046  20938521.1484   20938513.5634
        47.5004         37.7504
  -8188413.93847  -6688572.04145  23208271.7974   23208262.5004
        45.7504         30.0004
   -888388.41946   -695756.38345  25156644.4064   25156639.7074
        36.2504         31.7504
 -10436085.90546  -8110577.82546  23398066.0784   23398060.8444
        41.5004         40.0004
 -23800654.24547 -18520924.28946  20975588.4534   20975582.1724
        46.7504         37.2504
 -17810354.95647 -13858595.58045  22306616.9384   22306607.8094
        46.5004         35.0004
 -23269769.83648 -18118558.00048  20933801.4614   20933796.8594
        49.0004         51.2504
 -19904223.71847 -15626264.89048  20986119.2344   20986114.8244
        47.2504         50.0004
  -4521575.55546  -3456708.49443  24271807.1644   24271800.8914
        39.2504         18.5004
  -9532680.09447  -7282574.62446  23179074.9144   23179067.4414
        43.7504         40.0004
 20  5  1  0 18  0.0000000  0 10G16G23G 6G 9G 4G22G 3G26G14G31
 -20605415.19947 -16354387.70746  20927170.7344   20927163.1564
        47.0004         37.5004
  -8270286.75047  -6752369.04744  23192692.3364   23192682.5594
        45.5004         29.5004
   -887009.98346   -694682.29845  25156906.0634   25156902.0864
        38.0004         32.0004
 -10525424.52446  -8180192.36046  23381064.7974   23381060.3284
        40.5004         40.0004
 -23850705.54147 -18559925.29846  20966063.9454   20966057.3634
        46.5004         37.5004
 -17726971.08547 -13793621.16045  22322484.6884   22322474.8164
        46.5004         34.5004
 -23222690.01348 -18081872.44248  20942760.5314   20942755.7464
        48.7504         51.0004
 -19882233.53947 -15609129.69148  20990303.8444   20990298.9734
        47.7504         50.0004
  -4440076.83346  -3393202.96742  24287315.3984   24287309.9494
        36.0004         17.7504
  -9440559.18947  -7210792.13546  23196605.3284   23196597.6844
        43.7504         39.5004
 20  5  1  0 18 30.0000000  0 10G16G23G 6G 9G 4G22G 3G26G14G31
 -20664480.61247 -16400412.70546  20915931.0394   20915923.2664
        47.0004         37.5004
  -8352102.63747  -6816121.69844  23177122.4304   23177113.4264
        44.5004         29.7504
   -885110.48346   -693202.19945  25157268.3594   25157262.8164
        36.5004         31.5004
 -10614694.53446  -8249753.38646  23364078.5554   23364072.6484
        41.5004         39.7504
 -23900503.66647 -18598729.03346  20956587.7504   20956581.3714
        46.2504         37.2504
 -17643262.96547 -13728394.06345  22338413.7194   22338404.4104
        45.7504         33.7504
 -23175066.35548 -18044763.11948  20951823.2034   20951818.3874
        49.7504         51.0004
 -19859645.74747 -15591528.82348  20994601.8284   20994597.1484
        47.7504         50.0004
  -4358433.54546  -3329584.93243  24302853.1094   24302845.8714
        38.2504         18.5004
  -9348375.09747  -7138960.43146  23214147.6644   23214139.4804
        43.5004         40.0004
 20  5  1  0 19  0.0000000  0 10G16G23G 6G 9G 4G22G 3G26G14G31
 -20722963.67947 -16445983.93446  20904801.9304   20904794.3204
        46.7504         37.5004
  -8433860.94547  -6879829.46445  23161565.4534   23161555.4144
        46.5004         30.7504
   -882691.01946   -691316.91245  25157728.5704   25157723.6254
        37.2504         32.0004
 -10703895.28146  -8319260.46446  23347103.8054   23347098.1214
        41.5004         39.5004
 -23950047.86847 -18637334.90946  20947159.7584   20947153.0784
        47.2504         37.0004
 -17559233.60947 -13662916.66645  22354403.9614   22354394.3484
        45.7504         34.2504
 -23126900.93448 -18007231.64048  20960988.6254   20960983.8984
        49.0004         51.0004
 -19836462.04847 -15573463.60548  20999013.7584   20999009.0664
        47.5004         49.7504
  -4276646.69446  -3265854.93043  24318414.6564   24318409.4804
        36.0004         19.0004
  -9256129.81047  -7067081.02446  23231701.1334   23231693.7274
        43.0004         39.7504
 20  5  1  0 19 30.0000000  0 10G16G23G 6G 9G 4G22G 3G26G14G31
 -20780861.19647 -16491098.88746  20893784.7734   20893776.8634
        47.0004         38.0004
  -8515560.02047  -6943491.08245  23146018.4534   23146008.5864
        45.2504         30.5004
   -879751.46346   -689026.36145  25158287.7114   25158282.9884
        37.0004         31.2504
 -10793024.77446  -8388712.03546  23330142.5864   23330137.1094
        41.2504         39.5004
 -23999335.97447 -18675741.23346  20937780.3284   20937773.9224
        46.0004         37.0004
 -17474884.53247 -13597190.12645  22370454.8984   22370445.2664
        45.7504         33.5004
 -23078194.54748 -17969278.62948  20970256.9144   20970252.4734
        48.7504         51.0004
 -19812682.72047 -15554934.26248  21003539.2504   21003534.5784
        47.7504         50.0004
  -4194715.74145  -3202012.71943  24334005.5784   24334000.2934
        35.0004         20.0004
  -9163824.21447  -6995154.62846  23249265.9064   23249258.5554
        43.5004         40.0004
 20  5  1  0 20  0.0000000  0 10G16G23G 6G 9G 4G22G 3G26G14G31
 -20838171.74547 -16535756.46646  20882878.7194   20882870.9734
        46.5004         37.5004
  -8597199.15347  -7007105.99445  23130482.6644   23130473.5044
        45.5004         30.7504
   -876293.07346   -686331.52445  25158945.6334   25158941.2624
        37.0004         30.5004
 -10882082.39446  -8458107.58046  23313195.4224   23313190.2194
        41.5004         40.0004
 -24048367.21447 -18713947.40446  20928450.1724   20928443.4454
        46.0004         37.0004
 -17390218.82947 -13531216.86645  22386566.9454   22386557.0394
        45.7504         33.5004
 -23028949.26648 -17930905.70248  20979628.2974   20979623.3404
        49.0004         51.0004
 -19788309.48747 -15535942.13648  21008176.7504   21008172.2544
        47.5004         50.0004
  -4112641.90546  -3138059.22843  24349626.0004   24349619.4924
        38.0004         21.2504
  -9071460.25547  -6923182.75146  23266842.8834   23266835.5474
        42.5004         40.5004
 20  5  1  0 20 30.0000000  0 10G16G23G 6G 9G 4G22G 3G26G14G31
 -20894893.03147 -16579954.87846  20872085.1094   20872077.1644
        47.0004         37.5004
  -8678776.86847  -7070673.04345  23114959.3134   23114949.7464
        46.5004         31.0004
   -872316.30646   -683232.79345  25159702.1174   25159698.4344
        36.5004         31.7504
 -10971066.57246  -8527445.91146  23296262.0554   23296256.9734
        41.2504         40.0004
 -24097139.97347 -18751952.15146  20919168.9224   20919162.1994
        46.0004         37.5004
 -17305238.40747 -13464998.37745  22402737.8444   22402728.0944
        45.5004         34.0004
 -22979166.36348 -17892113.84548  20989101.7424   20989097.1564
        48.2504         51.0004
 -19763343.16747 -15516487.86248  21012928.0314   21012923.8594
        47.5004         50.0004
  -4030425.23246  -3073994.33643  24365271.3674   24365264.1054
        37.5004         18.2504
  -8979038.86647  -6851166.12146  23284429.7194   23284421.9964
        43.2504         40.0004
 20  5  1  0 21  0.0000000  0 10G16G23G 6G 9G 4G22G 3G26G14G31
 -20951022.93847 -16623692.46846  20861403.8674   20861395.9574
        47.0004         37.5004
  -8760292.06147  -7134191.36545  23099447.2034   23099437.8134
        46.0004         30.0004
   -867821.84146   -679730.61045  25160557.2894   25160553.1054
        37.5004         31.7504
 -11059975.99346  -8596725.96846  23279342.7274   23279338.8094
        41.0004         39.7504
 -24145652.84647 -18789754.39246  20909937.1254   20909930.7304
        46.0004         37.0004
 -17219945.72847 -13398536.56945  22418968.9614   22418959.1484
        46.0004         33.5004
 -22928847.38348 -17852904.27248  20998677.0314   20998672.2814
        48.2504         51.0004
 -19737784.85048 -15496572.29348  21017791.5864   21017787.0784
        48.0004         50.0004
  -3948065.88146  -3009818.20843  24380943.1094   24380935.8484
        38.0004         18.2504
  -8886561.85847  -6779106.15746  23302027.5554   23302020.1374
        42.7504         39.7504
 20  5  1  0 21 30.0000000  0 10G16G23G 6G 9G 4G22G 3G26G14G31
 -21006559.15047 -16666967.44346  20850835.5784   20850827.6134
        46.5004         37.2504
  -8841743.38347  -7197659.93245  23083947.0944   23083938.2584
        45.0004         31.5004
   -862810.14646   -675825.41145  25161510.1884   25161506.5864
        36.5004         30.5004
 -11148809.29446  -8665946.72046  23262438.4144   23262433.7814
        40.0004         40.2504
 -24193904.26347 -18827352.90346  20900755.1254   20900748.7974
        47.0004         36.7504
 -17134343.17047 -13331833.29245  22435258.3284   22435248.8834
        45.2504         34.5004
 -22877993.78848 -17813278.11248  21008354.1884   21008349.4264
        48.0004         51.0004
 -19711635.60047 -15476196.26148  21022767.4844   21022763.1884
        47.5004         50.0004
  -3865564.35546  -2945531.32942  24396642.1804   24396635.1334
        36.0004         17.7504
  -8794029.93247  -6707003.40846  23319636.3134   23319628.5044
        42.7504         40.0004
 20  5  1  0 22  0.0000000  0 10G16G23G 6G 9G 4G22G 3G26G14G31
 -21061499.58847 -16709778.18846  20840380.4144   20840373.0274
        47.0004         37.0004
  -8923129.28847  -7261077.50445  23068460.2814   23068451.0354
        45.5004         31.7504
   -857281.98145   -671517.76044  25162562.9844   25162558.5044
        34.5004         29.5004
 -11237565.03346  -8735107.02746  23245549.1484   23245544.0944
        41.0004         39.7504
 -24241892.72747 -18864746.50746  20891623.2194   20891617.0274
        46.2504         37.0004
 -17048432.80847 -13264890.17945  22451605.9924   22451597.0164
        45.5004         34.2504
 -22826606.97148 -17773236.45648  21018133.0004   21018128.2704
        48.0004         50.7504
 -19684896.42847 -15455360.54348  21027856.0314   21027851.7074
        47.5004         50.0004
  -3782920.63345  -2881133.79542  24412368.2584   24412363.5274
        35.0004         16.7504
  -8701444.63547  -6634859.05946  23337254.1804   23337246.8914
        42.5004         39.0004
 20  5  1  0 22 30.0000000  0 10G16G23G 6G 9G 4G22G 3G26G14G31
 -21115842.63647 -16752123.41846  20830039.6644   20830031.9454
        47.0004         37.7504
  -9004449.55447  -7324443.93345  23052985.2344   23052976.1374
        45.2504         31.2504
   -851238.78246   -666808.80445  25163712.7034   25163708.5204
        36.2504         30.5004
 -11326242.68347  -8804206.48446  23228674.5784   23228669.6914
        42.0004         40.5004
 -24289617.58647 -18901934.71946  20882541.7424   20882535.2274
        47.0004         37.2504
 -16962217.95547 -13197709.79145  22468012.6024   22468003.0904
        45.2504         33.2504
 -22774689.40148 -17732781.22448  21028012.6174   21028007.8754
        48.2504         50.5004
 -19657569.35047 -15434066.72448  21033055.7034   21033051.4574
        47.5004         49.7504
  -3700135.96146  -2816626.29043  24428122.8284   24428116.2774
        39.0004         19.5004
  -8608808.05147  -6562674.75446  23354883.1334   23354875.1844
        42.5004         39.0004
 20  5  1  0 23  0.0000000  0 10G16G23G 6G 9G 4G22G 3G26G14G31
 -21169586.24447 -16794001.56646  20819812.7424   20819805.0084
        47.5004         38.0004
  -9085702.60347  -7387757.99945  23037523.4144   23037513.9104
        46.0004         31.0004
   -844681.06546   -661698.94645  25164960.8754   25164957.3874
        37.5004         31.5004
 -11414840.61047  -8873243.83246  23211815.5864   23211809.4344
        42.2504         40.5004
 -24337077.13947 -18938916.18846  20873510.2734   20873504.1024
        47.0004         37.5004
 -16875700.58047 -13130293.68745  22484476.0084   22484467.1414
        45.0004         34.5004
 -22722242.41548 -17691913.46248  21037992.6884   21037988.1644
        48.0004         50.7504
 -19629655.23147 -15412315.47048  21038367.8134   21038363.3164
        47.2504         50.0004
  -3617210.70846  -2752009.12542  24443902.8754   24443895.8324
        39.5004         17.7504
  -8516121.12947  -6490451.19946  23372519.5864   23372512.6134
        42.0004         39.0004
 20  5  1  0 23 30.0000000  0 10G16G23G 6G 9G 4G22G 3G26G14G31
 -21222727.80147 -16835410.57746  20809700.6094   20809692.6024
        47.7504         37.7504
  -9166886.67647  -7451018.32445  23022074.3524   23022065.4384
        46.5004         31.2504
   -837609.12146   -656188.34245  25166306.6644   25166302.7544
        37.2504         31.0004
 -11503357.00146  -8942217.66146  23194970.6564   23194965.4844
        41.5004         40.0004
 -24384269.51547 -18975689.47046  20864530.0784   20864523.3594
        47.2504         37.5004
 -16788882.70447 -13062643.40845  22500996.8754   22500987.3674
        45.0004         33.2504
 -22669267.09948 -17650634.01048  21048073.5784   21048069.0314
        48.0004         50.5004
 -19601154.81047 -15390107.35448  21043791.0234   21043786.7814
        46.7504         49.5004
  -3534144.24346  -2687282.13243  24459709.5864   24459704.0124
        38.2504         19.7504
  -8423384.72347  -6418189.10646  23390167.0234   23390159.5944
        43.0004         38.7504
 20  5  1  0 24  0.0000000  0 10G16G23G 6G 9G 4G22G 3G26G14G31
 -21275265.61348 -16876349.14446  20799702.7664   20799694.8914
        48.0004         37.5004
  -9248000.69647  -7514224.06845  23006639.1954   23006629.5434
        45.7504         30.7504
   -830024.02646   -650277.95445  25167750.3834   25167745.5944
        37.7504         30.2504
 -11591790.89046  -9011127.17546  23178142.0864   23178138.0984
        41.2504         41.0004
 -24431193.54247 -19012253.64446  20855600.6334   20855594.2664
        47.0004         37.7504
 -16701767.19847 -12994761.21645  22517574.8594   22517565.3134
        45.0004         33.5004
 -22615765.43748 -17608944.42348  21058254.7814   21058249.9924
        48.0004         50.5004
 -19572069.70747 -15367443.64548  21049326.1174   21049321.5784
        47.0004         50.0004
  -3450937.22746  -2622445.66043  24475544.7194   24475537.7384
        39.5004         21.5004
  -8330600.46047  -6345889.72546  23407824.1414   23407815.9184
        43.0004         38.7504
 20  5  1  0 24 30.0000000  0 10G16G23G 6G 9G 4G22G 3G26G14G31
 -21327198.42848 -16916816.27946  20789820.1954   20789812.5204
        48.0004         38.2504
  -9329043.93647  -7577374.64345  22991217.2664   22991207.6914
        45.7504         31.0004
   -821927.14646   -643968.73245  25169292.5394   25169287.0004
        38.0004         32.0004
 -11680141.30047  -9079971.63746  23161330.2114   23161324.8794
        42.0004         40.5004
 -24477848.28547 -19048607.98946  20846722.8054   20846715.6954
        47.0004         37.0004
 -16614356.68447 -12926649.14845  22534208.1484   22534199.2624
        45.2504         33.5004
 -22561739.59647 -17566846.38848  21068535.2194   21068530.8794
        47.7504         50.5004
 -19542401.61547 -15344325.65648  21054971.8364   21054967.3444
        46.7504         50.0004
  -3367591.09846  -2557500.60943  24491403.8914   24491397.6214
        38.7504         19.5004
  -8237770.22947  -6273554.51946  23425489.2114   23425481.0314
        43.0004         39.2504
 20  5  1  0 25  0.0000000  0 10G16G23G 6G 9G 4G22G 3G26G14G31
 -21378523.64048 -16956809.95546  20780053.2424   20780045.2624
        48.0004         38.0004
  -9410014.58147  -7640468.64645  22975809.8754   22975799.7704
        46.2504         31.0004
   -813318.80346   -637260.95345  25170928.8204   25170924.7624
        37.0004         31.7504
 -11768406.40746  -9148749.65346  23144533.3284   23144529.2304
        41.0004         41.0004
 -24524231.82647 -19084751.01546  20837895.8444   20837889.3364
        47.7504         37.5004
 -16526653.34047 -12858308.90245  22550898.0234   22550888.3444
        45.2504         32.2504
 -22507190.76847 -17524340.82848  21078915.6804   21078911.3404
        47.0004         50.5004
 -19512151.35047 -15320754.02948  21060727.7504   21060723.8754
        47.0004         50.0004
  -3284105.50645  -2492446.91142  24507289.2034   24507284.9104
        32.0004         15.5004
  -8144894.95747  -6201184.21446  23443161.8444   23443155.1644
        42.2504         38.7504
 20  5  1  0 25 30.0000000  0 10G16G23G 6G 9G 4G22G 3G26G14G31
 -21429238.82347 -16996328.28846  20770402.3134   20770394.8094
        47.7504         38.0004
  -9490911.00947  -7703504.83045  22960415.0634   22960405.7664
        45.7504         31.2504
   -804199.45446   -630154.99144  25172665.0164   25172660.2274
        37.2504         29.7504
 -11856584.42447  -9217459.79446  23127753.3364   23127749.1764
        42.0004         40.7504
 -24570342.17447 -19120681.16046  20829121.7814   20829115.0824
        46.7504         37.7504
 -16438658.72547 -12789741.68445  22567642.5634   22567633.3014
        44.7504         32.5004
 -22452120.15747 -17481428.68248  21089395.4694   21089390.7734
        47.2504         50.5004
 -19481319.66047 -15296729.34448  21066595.0234   21066590.6604
        47.0004         49.7504
  -3200480.21045  -2427284.45342  24523203.1804   24523199.0084
        34.5004         16.7504
  -8051975.13447  -6128779.20246  23460844.0474   23460837.3364
        42.0004         38.7504
 20  5  1  0 26  0.0000000  0 10G16G23G 6G 9G 4G22G 3G26G14G31
 -21479343.49947 -17035370.89246  20760867.7274   20760860.2034
        47.7504         38.7504
  -9571733.71447  -7766483.55545  22945034.8984   22945025.5824
        46.0004         31.0004
   -794571.58446   -622652.75445  25174497.2584   25174492.1564
        38.0004         31.2504
 -11944675.60347  -9286102.25846  23110991.9844   23110985.4654
        43.0004         41.0004
 -24616179.66547 -19156398.69346  20820398.8674   20820392.5124
        47.5004         37.7504
 -16350377.31647 -12720950.99645  22584441.9924   22584432.2934
        45.0004         32.5004
 -22396531.21947 -17438112.64348  21099973.5084   21099969.1214
        47.0004         50.2504
 -19449909.66047 -15272254.02748  21072572.3834   21072567.7774
        47.0004         49.5004
  -3116717.23646  -2362014.67343  24539144.0784   24539137.2584
        38.5004         20.2504
  -7959013.69147  -6056341.75246  23478534.1884   23478527.2504
        42.0004         37.7504
 20  5  1  0 26 30.0000000  0 10G16G23G 6G 9G 4G22G 3G26G14G31
 -21528834.88647 -17073935.61146  20751449.9844   20751442.5904
        46.5004         38.7504
  -9652479.89547  -7829402.66245  22929669.6724   22929660.2934
        45.7504         31.5004
   -784434.85746   -614754.07045  25176426.1954   25176421.5044
        37.2504         32.0004
 -12032677.32547  -9354675.05346  23094244.9694   23094238.9184
        42.5004         40.7504
 -24661741.61447 -19191901.50246  20811728.8284   20811722.1844
        46.5004         37.5004
 -16261810.10947 -12651937.59945  22601295.4844   22601286.5984
        44.5004         34.0004
 -22340424.47347 -17394393.12348  21110650.1564   21110645.9144
        47.2504         50.5004
 -19417921.46847 -15247328.17448  21078659.3134   21078654.9924
        46.7504         49.5004
  -3032815.63846  -2296636.97442  24555109.3284   24555104.2034
        36.0004         16.7504
  -7866010.83247  -5983872.04346  23496232.5474   23496224.6254
        43.0004         38.7504
 20  5  1  0 27  0.0000000  0 11G16G23G 6G 9G 4G22G 7G 3G26G14G31
 -21577711.00047 -17112020.89646  20742149.0234   20742141.6254
        47.2504         37.5004
  -9733148.16047  -7892261.04145  22914318.7974   22914309.3444
        46.5004         31.5004
   -773790.14345   -606459.51745  25178450.9224   25178447.2034
        35.5004         31.0004
 -12120588.19346  -9423177.05046  23077515.1804   23077510.2544
        41.0004         41.0004
 -24707026.43847 -19227188.38446  20803111.0394   20803104.7974
        47.0004         38.0004
 -16172959.41547 -12582703.32245  22618203.4694   22618193.8404
        44.5004         33.2504
    142289.09055    151250.26453  25470176.8754   25470168.4264
        31.0004         18.5004
 -22283801.50047 -17350271.34748  21121424.9694   21121420.6804
        47.0004         50.2504
 -19385356.24847 -15221952.68248  21084856.2504   21084852.5474
        46.5004         49.5004
  -2948776.07245  -2231151.61742  24571101.4844   24571097.0124
        35.2504         13.7504
  -7772967.69947  -5911370.93846  23513937.5474   23513930.8834
        42.5004         38.7504
 20  5  1  0 27 30.0000000  0 11G16G23G 6G 9G 4G22G 7G 3G26G14G31
 -21625972.82647 -17149627.52246  20732965.1414   20732957.4534
        47.7504         38.5004
  -9813739.72347  -7955059.66245  22898982.6414   22898973.1524
        45.5004         31.0004
   -762641.11346   -597771.97845  25180573.1564   25180568.0354
        37.2504         31.0004
 -12208409.34446  -9491609.11746  23060803.5704   23060798.5124
        41.0004         40.5004
 -24752035.42747 -19262260.32846  20794546.5474   20794539.6954
        47.5004         37.5004
 -16083830.44947 -12513252.19645  22635164.4534   22635155.1294
        45.0004         33.0004
     58339.40745     85834.88343  25454200.7274   25454192.9344
        33.2504         21.7504
 -22226666.91647 -17305750.90948  21132297.6724   21132293.2384
        47.2504         50.5004
 -19352218.21847 -15196130.85648  21091162.5314   21091157.8014
        47.5004         49.5004
  -2864601.36346  -2165560.89643  24587120.8054   24587114.3284
        38.5004         18.2504
  -7679887.90547  -5838841.27446  23531650.7274   23531643.2664
        43.2504         38.5004
 20  5  1  0 28  0.0000000  0 11G16G23G 6G 9G 4G22G 7G 3G26G14G31
 -21673614.04747 -17186750.55246  20723899.2974   20723891.7854
        47.2504         37.2504
  -9894249.34347  -8017794.43745  22883662.9384   22883652.5124
        46.2504         31.2504
   -750984.50345   -588688.95245  25182791.1024   25182786.6644
        35.7504         31.0004
 -12296135.20047  -9559966.90446  23044110.1804   23044105.5474
        42.0004         41.5004
 -24796762.86447 -19297112.88346  20786035.1414   20786028.3094
        47.5004         37.2504
 -15994421.29747 -12443582.75245  22652178.4774   22652168.9104
        44.5004         31.7504
    -25527.94245     20483.68844  25438241.6954   25438233.5004
        34.7504         24.7504
 -22169018.19247 -17260829.85648  21143268.2424   21143263.4414
        47.5004         50.5004
 -19318504.48548 -15169860.42348  21097578.0084   21097573.5554
        48.0004         49.5004
  -2780287.67646  -2099861.99443  24603163.6954   24603158.2974
        36.0004         20.0004
  -7586768.81647  -5766280.97646  23549370.0864   23549362.3874
        42.7504         37.7504
 20  5  1  0 28 30.0000000  0 11G16G23G 6G 9G 4G22G 7G 3G26G14G31
