     2.11           OBSERVATION DATA    G (GPS)             RINEX VERSION / TYPE
teqc  2008Oct2                          20220511 01:29:23UTCPGM / RUN BY / DATE
MSXP|IAx86-PII|bcc32 5.0|MSWin95->XP|486/DX+                COMMENT
BIT 2 OF LLI FLAGS DATA COLLECTED UNDER A/S CONDITION       COMMENT
NtRSkaza                                                    MARKER NAME
kaza                                                        MARKER NUMBER
-Unknown-           -Unknown-                               OBSERVER / AGENCY
4752143407          TRIMBLE NETRS       NP 1.32 / SP 0.00   REC # / TYPE / VERS
30895097            TRM55971.00                             ANT # / TYPE
  1325807.4829  4606495.7979  4195524.7455                  APPROX POSITION XYZ
        0.1705        0.0000        0.0000                  ANTENNA: DELTA H/E/N
     1     1                                                WAVELENGTH FACT L1/2
     7    L1    L2    C1    P2    P1    S1    S2            # / TYPES OF OBSERV
 SNR is mapped to RINEX snr flag value [0-9]                COMMENT
  L1 & L2: min(max(int(snr_dBHz/6), 0), 9)                  COMMENT
  2020     5     2     0     0    0.0000000     GPS         TIME OF FIRST OBS
                                                            END OF HEADER
 20  5  2  0  0  0.0000000  0 10G23G16G 6G 4G22G 9G 3G26G14G31
  -5167187.34347  -4013788.95044  23689175.4614   23689166.2034
        43.2504         27.0004
 -20595544.38747 -15887201.20845  21284224.3134   21284216.5354
        46.5004         35.5004
   -445109.46246   -349239.89145  25184758.0634   25184753.8014
        37.2504         30.0004
 -22075965.39247 -17161186.01045  21248694.3754   21248688.2234
        45.2504         35.7504
 -19579259.17548 -15235426.11446  21909309.5394   21909299.7384
        48.0004         36.7504
  -9313964.90146  -7225573.36146  23861175.6804   23861170.0784
        40.5004         37.2504
 -24019709.57947 -18701341.79248  20733873.3984   20733868.8594
        47.5004         51.7504
 -21758197.78947 -16923852.46448  20917504.7424   20917500.3204
        47.0004         50.0004
  -7878112.30846  -6092284.09643  23867811.9144   23867805.1844
        40.0004         21.5004
 -13199660.77847 -10135909.37947  22719330.4304   22719322.9804
        44.0004         42.2504
 20  5  2  0  0 30.0000000  0 10G23G16G 6G 4G22G 9G 3G26G14G31
  -5250504.85047  -4078711.67244  23673320.3754   23673310.9534
        43.2504         28.2504
 -20669945.19047 -15945175.86345  21270066.1564   21270058.6134
        46.5004         35.5004
   -457758.13946   -359096.02044  25182351.9454   25182346.4654
        38.5004         29.7504
 -22132315.04547 -17205094.81946  21237971.2504   21237964.9064
        45.5004         36.0004
 -19505301.76047 -15177796.96746  21923383.0234   21923373.3134
        47.7504         36.2504
  -9404719.34346  -7296291.07946  23843905.6024   23843899.6884
        40.0004         37.2504
 -23987577.02647 -18676303.44548  20739988.4384   20739983.3594
        47.5004         51.7504
 -21752460.80547 -16919382.08248  20918596.6414   20918592.2114
        47.0004         50.0004
  -7800591.83646  -6031878.57343  23882562.6884   23882555.8674
        38.2504         19.7504
 -13109750.03147 -10065849.08347  22736440.3834   22736432.4224
        44.7504         42.2504
 20  5  2  0  1  0.0000000  0 10G23G16G 6G 4G22G 9G 3G26G14G31
  -5333795.12447  -4143613.16544  23657470.9224   23657461.2854
        44.5004         27.2504
 -20743830.76747 -16002749.04246  21256006.5704   21255998.8954
        47.5004         36.5004
   -469876.26246   -368538.75245  25180044.9384   25180040.5434
        36.2504         30.0004
 -22188445.27247 -17248832.64546  21227290.1884   21227283.6214
        45.2504         36.0004
 -19430959.29147 -15119867.78246  21937530.0234   21937520.9304
        46.7504         36.2504
  -9495433.93246  -7366977.74146  23826642.5944   23826637.2734
        40.0004         36.7504
 -23954867.66647 -18650815.63948  20746212.7734   20746207.5784
        47.7504         51.7504
 -21746105.87647 -16914430.17948  20919805.6174   20919800.9264
        47.5004         50.0004
  -7722917.43246  -5971353.12343  23897344.0474   23897337.1414
        37.2504         18.5004
 -13019733.07747  -9995706.02747  22753569.9384   22753562.0944
        44.7504         42.0004
 20  5  2  0  1 30.0000000  0 10G23G16G 6G 4G22G 9G 3G26G14G31
  -5417058.63047  -4208493.81644  23641626.6564   23641617.4574
        43.2504         28.5004
 -20817199.76747 -16059919.69546  21242044.4534   21242037.1054
        47.0004         36.5004
   -481465.33146   -377569.21244  25177839.4454   25177835.1334
        36.7504         29.5004
 -22244356.45147 -17292399.78546  21216650.7814   21216643.9024
        45.5004         36.2504
 -19356235.36547 -15061641.36046  21951749.5944   21951739.7304
        47.2504         36.2504
  -9586109.26846  -7437633.84246  23809387.4924   23809382.7464
        40.2504         36.7504
 -23921584.04547 -18624880.35348  20752546.4064   20752541.4494
        47.5004         51.7504
 -21739134.91247 -16908998.26148  20921132.5314   20921127.8594
        47.0004         50.0004
  -7645091.21746  -5910709.37643  23912154.4454   23912147.3834
        38.0004         20.5004
 -12929613.27047  -9925482.83946  22770718.7424   22770711.0474
        44.0004         41.5004
 20  5  2  0  2  0.0000000  0 10G23G16G 6G 4G22G 9G 3G26G14G31
  -5500295.63547  -4273353.79244  23625787.7664   23625777.6484
        43.2504         28.5004
 -20890050.57447 -16116686.55546  21228181.7194   21228173.3524
        47.5004         36.0004
   -492526.20446   -386188.09344  25175734.0394   25175730.5274
        36.0004         29.2504
 -22300048.12447 -17335795.87446  21206052.6094   21206046.3164
        46.0004         36.2504
 -19281133.00547 -15003120.04846  21966040.9064   21966031.3674
        47.5004         37.0004
  -9676745.09946  -7508259.15146  23792139.9924   23792134.7734
        41.0004         37.0004
 -23887727.86748 -18598498.92248  20758989.2194   20758984.5594
        48.5004         51.7504
 -21731549.11847 -16903087.25348  20922575.9384   20922571.3204
        47.7504         50.0004
  -7567114.36846  -5849948.24443  23926994.3284   23926986.4224
        40.0004         21.5004
 -12839393.39947  -9855181.67646  22787887.0704   22787879.3324
        44.0004         41.2504
 20  5  2  0  2 30.0000000  0 10G23G16G 6G 4G22G 9G 3G26G14G31
  -5583505.06347  -4338192.29544  23609952.7344   23609943.2074
        43.0004         29.2504
 -20962380.23247 -16173047.33346  21214417.5784   21214409.7154
        47.5004         36.7504
   -503058.81846   -394395.35344  25173730.1644   25173725.9064
        36.5004         28.2504
 -22355518.85347 -17379019.81946  21195496.9844   21195490.9184
        45.2504         36.0004
 -19205653.97347 -14944305.22346  21980404.1024   21980394.6484
        46.5004         36.2504
  -9767340.24446  -7578852.74446  23774901.2814   23774895.2584
        41.2504         37.0004
 -23853299.93547 -18571671.96748  20765540.2974   20765535.5394
        47.7504         51.7504
 -21723348.77747 -16896697.37748  20924136.3054   20924132.0664
        47.5004         50.0004
  -7488986.23046  -5789069.25243  23941861.9694   23941854.2544
        40.2504         22.5004
 -12749074.64247  -9784803.45746  22805074.9614   22805066.4774
        45.0004         41.5004
 20  5  2  0  3  0.0000000  0 10G23G16G 6G 4G22G 9G 3G26G14G31
  -5666685.36347  -4403008.09544  23594124.3364   23594114.9844
        43.2504         29.5004
 -21034185.50047 -16228999.48546  21200753.4614   21200746.0474
        47.0004         36.5004
   -513062.72246   -402190.60444  25171826.7894   25171822.9104
        36.2504         29.2504
 -22410766.83247 -17422070.17846  21184983.5234   21184977.3554
        46.0004         36.0004
 -19129799.97747 -14885198.22646  21994838.6884   21994828.9654
        47.0004         36.0004
  -9857893.09746  -7649413.42046  23757669.0474   23757663.9454
        40.7504         37.2504
 -23818300.60148 -18544399.77848  20772200.7274   20772196.0784
        48.0004         51.7504
 -21714533.77648 -16889828.54348  20925813.5164   20925809.0434
        48.0004         50.0004
  -7410706.92246  -5728072.43643  23956756.8984   23956749.9774
        40.0004         22.5004
 -12658658.20747  -9714349.11446  22822279.9924   22822272.3244
        43.7504         41.7504
 20  5  2  0  3 30.0000000  0 10G23G16G 6G 4G22G 9G 3G26G14G31
  -5749835.13247  -4467800.12344  23578300.4384   23578291.5004
        43.2504         28.7504
 -21105463.61547 -16284540.87546  21187189.8364   21187181.8404
        47.0004         36.2504
   -522537.71846   -409573.73444  25170023.7344   25170019.6374
        36.0004         29.5004
 -22465790.56447 -17464945.79546  21174513.0314   21174506.5124
        46.2504         36.0004
 -19053573.02747 -14825800.60846  22009344.5704   22009334.5744
        47.5004         36.7504
  -9948402.41046  -7719940.13946  23740445.8364   23740440.5164
        40.7504         37.5004
 -23782730.70447 -18516682.98348  20778969.1564   20778964.3364
        47.5004         51.5004
 -21705104.38847 -16882480.96748  20927608.3444   20927603.2814
        47.7504         50.0004
  -7332276.32146  -5666957.75643  23971682.4924   23971675.1884
        39.2504         22.0004
 -12568145.13847  -9643819.48646  22839503.7114   22839496.1604
        44.5004         41.2504
 20  5  2  0  4  0.0000000  0 10G23G16G 6G 4G22G 9G 3G26G14G31
  -5832953.87247  -4532567.96644  23562483.5944   23562474.9694
        43.2504         28.7504
 -21176212.12247 -16339669.57746  21173727.1254   21173718.7074
        47.0004         36.5004
   -531484.15446   -416545.00144  25168321.5554   25168317.8404
        36.0004         29.5004
 -22520588.95247 -17507645.82546  21164085.2424   21164078.8404
        46.0004         37.0004
 -18976975.43147 -14766114.17746  22023920.4924   22023910.6484
        47.0004         36.0004
 -10038867.36346  -7790432.31246  23723230.1884   23723225.6724
        40.0004         37.7504
 -23746591.43348 -18488522.52348  20785846.4454   20785841.5204
        48.7504         51.7504
 -21695061.37248 -16874655.24248  20929519.4774   20929514.8984
        48.2504         50.0004
  -7253695.26746  -5605725.87043  23986634.7894   23986628.3714
        38.0004         19.7504
 -12477537.57247  -9573216.22846  22856746.6024   22856738.5354
        45.0004         41.5004
 20  5  2  0  4 30.0000000  0 10G23G16G 6G 4G22G 9G 3G26G14G31
  -5916040.16447  -4597310.51144  23546673.6174   23546664.4844
        44.2504         28.2504
 -21246428.00547 -16394383.25746  21160365.6174   21160357.3954
        47.0004         36.7504
   -539901.76746   -423104.21845  25166719.2034   25166716.1844
        36.2504         30.7504
 -22575160.30147 -17550168.94046  21153700.7274   21153694.5314
        46.0004         36.5004
 -18900009.08947 -14706140.41646  22038566.6094   22038556.6134
        47.0004         36.2504
 -10129286.45046  -7860888.67846  23706024.6724   23706019.4574
        41.0004         38.5004
 -23709883.36647 -18459918.84248  20792831.5554   20792827.0354
        47.5004         51.7504
 -21684404.76747 -16866351.39348  20931547.1254   20931542.6214
        47.2504         50.0004
  -7174963.52146  -5544376.48242  24001616.7114   24001610.3554
        38.7504         17.7504
 -12386836.79647  -9502540.34046  22874006.1724   22873998.5234
        44.5004         41.5004
 20  5  2  0  5  0.0000000  0 10G23G16G 6G 4G22G 9G 3G26G14G31
  -5999094.13347  -4662027.87044  23530869.9454   23530859.3324
        44.7504         28.5004
 -21316109.60347 -16448680.59546  21147105.4454   21147097.5904
        47.5004         36.5004
   -547792.00446   -429252.45545  25165218.7034   25165214.4494
        36.7504         30.0004
 -22629504.61247 -17592515.13846  21143359.0394   21143352.5704
        45.7504         37.0004
 -18822677.15447 -14645881.76646  22053282.0474   22053272.1844
        47.0004         36.2504
 -10219659.79246  -7931309.47946  23688827.0704   23688822.2624
        40.5004         39.2504
 -23672608.91648 -18430873.82248  20799924.5394   20799920.1024
        48.7504         51.5004
 -21673136.51348 -16857570.94448  20933691.5944   20933686.7974
        48.0004         50.0004
  -7096082.42246  -5482910.70943  24016627.7274   24016621.2034
        38.7504         19.5004
 -12296045.66947  -9431794.04846  22891283.2584   22891275.8634
        44.5004         41.5004
 20  5  2  0  5 30.0000000  0 10G23G16G 6G 4G22G 9G 3G26G14G31
  -6082114.74047  -4726719.25344  23515070.4384   23515061.2584
        43.7504         27.7504
 -21385254.29547 -16502559.57346  21133947.6174   21133939.6334
        46.7504         36.7504
   -555154.78546   -434989.71244  25163816.9224   25163813.1294
        36.0004         29.5004
 -22683620.38147 -17634683.25846  21133061.2664   21133054.8094
        46.2504         36.5004
 -18744981.78247 -14585339.93946  22068067.3984   22068057.8754
        47.0004         36.2504
 -10309986.19047  -8001693.64346  23671638.9454   23671633.3324
        42.2504         38.5004
 -23634768.87347 -18401388.08648  20807125.4454   20807120.4574
        47.5004         51.5004
 -21661256.94848 -16848314.13448  20935952.3524   20935947.4454
        48.2504         50.0004
  -7017052.01046  -5421328.61543  24031667.3754   24031659.9844
        39.7504         21.5004
 -12205165.39647  -9360978.27946  22908577.0784   22908569.6254
        44.0004         41.5004
 20  5  2  0  6  0.0000000  0 10G23G16G 6G 4G22G 9G 3G26G14G31
  -6165100.09547  -4791383.16644  23499278.1644   23499269.3874
        44.2504         28.5004
 -21453858.95847 -16556017.75246  21120892.4924   21120884.7894
        47.2504         36.2504
   -561989.48546   -440315.49844  25162515.2274   25162512.6954
        37.0004         29.5004
 -22737505.51547 -17676671.66546  21122807.1884   21122800.4844
        45.7504         36.7504
 -18666924.36947 -14524515.99045  22082921.1724   22082911.3674
        47.2504         35.5004
 -10400263.70746  -8072039.77546  23654458.3054   23654454.1804
        40.5004         38.2504
 -23596363.53947 -18371461.86548  20814433.4384   20814428.7734
        47.7504         51.2504
 -21648765.84148 -16838580.81248  20938329.1334   20938324.4384
        48.0004         50.0004
  -6937871.98646  -5359629.97343  24046735.3444   24046728.3284
        39.7504         21.5004
 -12114196.81947  -9290093.71946  22925887.9224   22925880.4264
        44.7504         41.2504
 20  5  2  0  6 30.0000000  0 10G23G16G 6G 4G22G 9G 3G26G14G31
  -6248049.48047  -4856019.03944  23483494.0864   23483484.4884
        44.0004         29.7504
 -21521921.26647 -16609053.31746  21107940.6254   21107932.8524
        46.2504         36.5004
   -568296.79746   -445230.29544  25161316.8444   25161312.1994
        37.0004         29.0004
 -22791159.05047 -17718479.60046  21112597.6564   21112591.0274
        46.0004         36.7504
 -18588507.44647 -14463411.90345  22097843.4534   22097833.7504
        47.0004         35.5004
 -10490491.61346  -8142347.20846  23637289.3914   23637284.0514
        41.2504         37.7504
 -23557394.40947 -18341096.31848  20821849.1174   20821844.6054
        47.0004         51.2504
 -21635664.25848 -16828371.79348  20940822.2584   20940817.6024
        48.0004         50.0004
  -6858542.84346  -5297815.11243  24061830.1724   24061823.9224
        38.5004         21.5004
 -12023142.08547  -9219142.02346  22943215.2114   22943207.2504
        44.2504         41.0004
 20  5  2  0  7  0.0000000  0 10G23G16G 6G 4G22G 9G 3G26G14G31
  -6330961.47047  -4920625.76344  23467716.5704   23467706.9144
        43.7504         28.7504
 -21589438.00747 -16661663.75846  21095092.7194   21095084.6524
        47.2504         36.0004
   -574076.35746   -449733.88344  25160216.2194   25160212.2544
        36.2504         29.5004
 -22844579.12347 -17760105.61546  21102431.9144   21102425.5204
        46.0004         36.2504
 -18509732.92147 -14402029.16345  22112833.2734   22112823.9064
        46.5004         35.5004
 -10580668.25746  -8212614.70946  23620129.1564   23620123.5044
        40.7504         37.2504
 -23517862.05547 -18310291.89548  20829372.0394   20829367.2304
        47.7504         51.5004
 -21621952.25348 -16817687.11948  20943431.5164   20943426.9774
        48.0004         50.0004
  -6779064.42246  -5235883.92943  24076954.5234   24076948.1724
        37.0004         21.7504
 -11932002.11247  -9148123.88446  22960558.3594   22960551.0004
        44.2504         41.0004
 20  5  2  0  7 30.0000000  0 10G23G16G 6G 4G22G 9G 3G26G14G31
  -6413835.31947  -4985202.78344  23451945.6414   23451936.9494
        43.5004         29.7504
 -21656407.18847 -16713847.53946  21082348.7114   21082340.6844
        47.0004         37.2504
   -579328.80746   -453826.72444  25159217.2814   25159212.9534
        36.5004         28.5004
 -22897764.84047 -17801549.01946  21092310.7894   21092304.6724
        46.5004         37.0004
 -18430603.17647 -14340369.64045  22127891.6414   22127881.8094
        47.2504         35.7504
 -10670792.85446  -8282841.66446  23602978.4064   23602973.7664
        40.5004         37.7504
 -23477768.06348 -18279049.82948  20837001.5784   20836997.0554
        48.0004         51.5004
 -21607630.91048 -16806527.63948  20946156.9384   20946152.1764
        48.7504         50.0004
  -6699437.13446  -5173836.75743  24092106.3364   24092100.9064
        36.2504         19.7504
 -11840778.70947  -9077040.74846  22977917.7734   22977909.4384
        44.2504         41.0004
 20  5  2  0  8  0.0000000  0 10G23G16G 6G 4G22G 9G 3G26G14G31
  -6496670.34847  -5049749.54244  23436182.6564   23436173.6994
        44.5004         28.5004
 -21722826.36947 -16765602.73746  21069709.6094   21069701.5084
        47.0004         37.5004
   -584054.54146   -457509.14345  25158317.2194   25158313.7114
        37.7504         30.0004
 -22950714.93947 -17842808.82246  21082234.8134   21082228.5124
        45.7504         36.5004
 -18351120.48947 -14278435.09345  22143016.8984   22143007.2234
        47.5004         35.5004
 -10760864.47546  -8353027.33346  23585838.7894   23585833.5434
        41.2504         38.0004
 -23437113.68848 -18247371.11148  20844738.0314   20844733.5744
        48.5004         51.5004
 -21592701.07448 -16794893.99548  20948997.3054   20948993.2624
        48.7504         50.0004
  -6619661.57146  -5111674.07443  24107287.2814   24107281.6254
        37.5004         19.2504
 -11749473.57947  -9005893.92046  22995292.1094   22995284.5664
        44.0004         40.2504
 20  5  2  0  8 30.0000000  0 10G23G16G 6G 4G22G 9G 3G26G14G31
  -6579465.45147  -5114265.18444  23420427.3594   23420418.2934
        44.5004         29.2504
 -21788693.00647 -16816927.38846  21057175.4694   21057167.4964
        47.2504         36.5004
   -588254.06846   -460781.53044  25157518.5704   25157514.7974
        37.2504         29.5004
 -23003428.25447 -17883884.13046  21072204.0634   21072197.3484
        46.2504         37.0004
 -18271287.34547 -14216227.45345  22158208.8594   22158198.8094
        47.5004         35.7504
 -10850882.01347  -8423170.84646  23568709.2424   23568704.5124
        42.0004         38.7504
 -23395900.28548 -18215256.78448  20852580.7894   20852576.1294
        48.7504         51.5004
 -21577163.59848 -16782786.87948  20951954.3984   20951950.0514
        48.2504         49.7504
  -6539738.28746  -5049396.23943  24122497.1884   24122490.4844
        39.5004         20.7504
 -11658088.63347  -8934684.91846  23012682.8524   23012674.5824
        44.5004         40.5004
 20  5  2  0  9  0.0000000  0 10G23G16G 6G 4G22G 9G 3G26G14G31
  -6662219.69047  -5178748.97445  23404680.2974   23404670.8164
        44.5004         30.0004
 -21854004.81747 -16867819.70746  21044747.1954   21044739.5274
        47.0004         37.2504
   -591927.80346   -463644.19145  25156819.8134   25156815.6724
        37.2504         30.0004
 -23055903.52047 -17924773.94146  21062218.7814   21062211.6764
        47.0004         36.0004
 -18191106.48947 -14153748.86845  22173466.3674   22173456.3714
        47.2504         35.5004
 -10940844.48046  -8493271.45446  23551589.8914   23551584.7424
        41.2504         39.0004
 -23354129.13448 -18182707.83848  20860529.8674   20860524.8204
        48.2504         51.5004
 -21561019.31448 -16770206.91848  20955026.7194   20955022.2704
        48.0004         50.0004
  -6459667.65346  -4987003.52443  24137733.7664   24137726.4804
        39.7504         19.5004
 -11566625.20947  -8863414.74846  23030087.3834   23030079.5004
        44.0004         40.2504
 20  5  2  0  9 30.0000000  0 10G23G16G 6G 4G22G 9G 3G26G14G31
  -6744931.20147  -5243199.49644  23388941.5004   23388931.6134
        45.0004         28.7504
 -21918759.06647 -16918277.55746  21032424.9694   21032417.4344
        47.2504         36.2504
   -595075.59546   -466097.05845  25156220.8524   25156216.5434
        36.7504         30.0004
 -23108138.97547 -17965476.88246  21052278.5474   21052271.5084
        46.0004         37.0004
 -18110579.05547 -14091000.23245  22188790.0864   22188780.4144
        46.5004         35.0004
 -11030750.24646  -8563327.85846  23534481.8134   23534476.5744
        41.5004         40.0004
 -23311801.06248 -18149724.93648  20868584.2974   20868579.3874
        48.7504         51.2504
 -21544268.65648 -16757154.46148  20958214.1094   20958209.6134
        48.0004         50.0004
  -6379449.15846  -4924495.63943  24152998.6564   24152992.1054
        38.7504         19.5004
 -11475084.53447  -8792084.39146  23047506.6174   23047499.0904
        44.0004         40.0004
 20  5  2  0 10  0.0000000  0 10G23G16G 6G 4G22G 9G 3G26G14G31
  -6827599.26847  -5307616.15444  23373208.8444   23373200.0314
        44.5004         29.5004
 -21982953.41147 -16968299.12546  21020209.1804   21020201.1294
        47.5004         36.7504
   -597697.89246   -468140.42145  25155722.5784   25155717.8404
        36.5004         30.7504
 -23160133.24947 -18005991.90346  21042384.0004   21042377.5514
        46.5004         37.0004
 -18029707.43747 -14027983.40045  22204179.3914   22204170.1764
        46.2504         34.7504
 -11120598.07746  -8633339.14246  23517384.3984   23517378.9104
        41.5004         39.2504
 -23268917.32048 -18116309.04448  20876744.8524   20876739.9734
        49.7504         51.2504
 -21526912.18048 -16743629.94048  20961516.9844   20961512.1994
        48.5004         50.0004
  -6299083.13046  -4861872.81143  24168292.3914   24168285.4384
        37.7504         19.7504
 -11383468.09947  -8720695.00246  23064940.5704   23064933.6334
        43.7504         40.2504
 20  5  2  0 10 30.0000000  0 10G23G16G 6G 4G22G 9G 3G26G14G31
  -6910222.96947  -5371998.23244  23357486.0554   23357477.0864
        45.5004         29.2504
 -22046585.42447 -17017882.51946  21008100.4694   21008092.3484
        47.5004         37.5004
   -599795.33446   -469774.82045  25155323.5554   25155318.2344
        37.0004         30.2504
 -23211885.30147 -18046318.17046  21032535.5004   21032529.1294
        46.7504         36.2504
 -17948494.33447 -13964700.47645  22219633.8754   22219623.8954
        46.0004         35.0004
 -11210387.16346  -8703304.65146  23500297.3444   23500292.7774
        41.0004         38.5004
 -23225479.44948 -18082461.36248  20885010.6254   20885005.9694
        49.2504         51.2504
 -21508951.18047 -16729634.35848  20964934.8674   20964929.9104
        47.5004         50.0004
  -6218570.52946  -4799135.80743  24183612.9304   24183606.5824
        37.0004         20.2504
 -11291777.57947  -8649247.87746  23082389.1644   23082381.5434
        44.5004         40.0004
 20  5  2  0 11  0.0000000  0 10G23G16G 6G 4G22G 9G 3G26G14G31
  -6992801.91447  -5436345.44344  23341772.0474   23341762.7464
        45.2504         28.5004
 -22109653.12547 -17067026.18146  20996099.0394   20996090.7814
        47.2504         37.0004
   -601368.45246   -471000.63345  25155023.2584   25155019.0744
        37.5004         31.0004
 -23263394.03247 -18086454.84246  21022734.0394   21022727.3984
        46.7504         37.0004
 -17866942.36947 -13901153.49745  22235152.7974   22235143.1564
        46.2504         35.0004
 -11300116.66046  -8773223.71346  23483223.1724   23483217.1564
        41.0004         38.0004
 -23181489.08648 -18048183.17148  20893381.8754   20893377.6024
        48.5004         51.2504
 -21490386.75547 -16715168.58148  20968468.0234   20968462.9264
        47.7504         50.0004
  -6137911.76446  -4736284.86043  24198961.9614   24198956.2584
        37.5004         20.0004
 -11200014.84547  -8577744.47546  23099850.7274   23099843.8674
        43.5004         40.5004
 20  5  2  0 11 30.0000000  0 10G23G16G 6G 4G22G 9G 3G26G14G31
  -7075334.23147  -5500656.32645  23326067.0004   23326057.3524
        45.0004         30.0004
 -22172153.63247 -17115727.87446  20984205.7424   20984198.1174
        46.5004         37.0004
   -602417.60646   -471818.17645  25154823.7974   25154819.1884
        37.7504         30.0004
 -23314657.68047 -18126400.52946  21012978.6024   21012972.2304
        47.0004         36.7504
 -17785053.45247 -13837343.96745  22250735.5314   22250726.0984
        46.2504         35.0004
 -11389784.82646  -8843095.02346  23466158.0314   23466154.0944
        39.7504         38.0004
 -23136947.10448 -18013475.13948  20901857.7274   20901853.3404
        48.7504         51.2504
 -21471219.34348 -16700232.93948  20972114.9924   20972110.4224
        48.0004         49.7504
  -6057106.72046  -4673319.97643  24214339.1884   24214332.4454
        39.7504         21.5004
 -11108181.01947  -8506185.70246  23117326.4694   23117318.9654
        43.7504         40.7504
 20  5  2  0 12  0.0000000  0 10G23G16G 6G 4G22G 9G 3G26G14G31
  -7157818.92647  -5564930.10644  23310370.3204   23310361.4184
        44.0004         29.5004
 -22234084.81947 -17163985.93746  20972420.6804   20972412.4614
        47.2504         36.7504
   -602943.27446   -472227.81545  25154723.7504   25154719.1174
        37.2504         30.5004
 -23365675.06847 -18166154.34046  21003270.3444   21003264.3134
        46.7504         37.0004
 -17702829.79147 -13773273.59645  22266382.4454   22266372.5354
        46.0004         34.2504
 -11479390.68746  -8912917.76846  23449107.3984   23449103.0084
        40.0004         39.2504
 -23091855.02148 -17978338.47748  20910438.5634   20910433.3284
        49.2504         51.2504
 -21451450.01748 -16684828.27248  20975877.2734   20975872.4884
        48.0004         49.7504
  -5976155.70546  -4610241.29343  24229743.2114   24229737.1724
        39.5004         20.2504
 -11016277.58247  -8434572.68146  23134815.1024   23134807.4344
        43.5004         40.5004
 20  5  2  0 12 30.0000000  0 10G23G16G 6G 4G22G 9G 3G26G14G31
  -7240254.44547  -5629165.55745  23294683.5944   23294674.2504
        45.5004         30.2504
 -22295443.95547 -17211798.25146  20960744.2344   20960736.3484
        47.2504         36.7504
   -602945.54646   -472229.59645  25154722.6024   25154719.0474
        36.0004         30.2504
 -23416444.36247 -18205714.82646  20993609.2814   20993603.0164
        47.0004         36.7504
 -17620273.44247 -13708943.99245  22282092.2114   22282082.8634
        46.0004         35.2504
 -11568932.63346  -8982690.69946  23432069.4534   23432064.1954
        41.2504         39.0004
 -23046213.82048 -17942773.91048  20919124.0314   20919119.3094
        48.7504         51.2504
 -21431079.27748 -16668954.97148  20979753.3754   20979748.6054
        48.0004         49.7504
  -5895059.08546  -4547049.17643  24245176.2974   24245169.7624
        40.5004         19.5004
 -10924305.73147  -8362906.35446  23152317.0474   23152309.5274
        43.2504         39.5004
 20  5  2  0 13  0.0000000  0 10G23G16G 6G 4G22G 9G 3G26G14G31
  -7322639.99847  -5693362.06845  23279006.3284   23278996.7234
        45.0004         30.0004
 -22356229.11247 -17259163.31646  20949177.1644   20949169.2194
        47.0004         36.7504
   -602425.34046   -471824.25845  25154822.4694   25154817.8794
        36.0004         31.0004
 -23466964.66247 -18245081.28546  20983995.6414   20983989.3484
        46.5004         37.0004
 -17537387.47447 -13644357.53545  22297864.7664   22297855.0274
        46.0004         34.0004
 -11658409.77746  -9052413.12546  23415041.9694   23415036.6804
        41.7504         39.5004
 -23000025.24248 -17906782.82148  20927913.1564   20927908.7234
        49.0004         51.2504
 -21410108.46948 -16652614.08848  20983744.2504   20983739.1644
        48.2504         50.0004
  -5813817.46346  -4483743.97043  24260634.1334   24260628.4184
        38.0004         18.2504
 -10832267.37547  -8291188.18146  23169831.3524   23169823.3444
        43.2504         39.5004
 20  5  2  0 13 30.0000000  0 10G23G16G 6G 4G22G 9G 3G26G14G31
  -7404974.91847  -5757519.14044  23263338.0704   23263328.7304
        44.5004         29.7504
 -22416438.22647 -17306079.51346  20937720.0164   20937711.4184
        47.0004         37.2504
   -601383.13746   -471012.21845  25155020.4454   25155016.8444
        37.0004         31.0004
 -23517234.53347 -18284252.61046  20974429.5234   20974423.3444
        46.5004         37.0004
 -17454173.96347 -13579515.85345  22313699.8674   22313690.3524
        46.0004         34.5004
 -11747820.94547  -9122084.14346  23398028.3134   23398022.3554
        42.0004         40.5004
 -22953290.69148 -17870366.30848  20936806.7274   20936802.0164
        49.0004         51.2504
 -21388538.58548 -16635806.38348  20987848.9774   20987844.0204
        48.7504         49.7504
  -5732430.70146  -4420325.76442  24276123.4614   24276115.7194
        37.5004         17.2504
 -10740163.68047  -8219419.11346  23187358.5004   23187350.3554
        43.2504         39.5004
 20  5  2  0 14  0.0000000  0 10G23G16G 6G 4G22G 9G 3G26G14G31
  -7487257.36947  -5821635.32345  23247680.7424   23247671.6374
        45.2504         30.2504
 -22476068.67947 -17352544.79546  20926372.6564   20926364.8444
        47.7504         37.2504
   -599819.16445   -469793.56645  25155317.1094   25155314.5474
        35.7504         31.7504
 -23567252.26247 -18323227.46046  20964911.8834   20964905.4654
        46.0004         37.2504
 -17370634.51747 -13514420.19545  22329596.6094   22329586.9494
        45.7504         34.0004
 -11837164.57746  -9191702.54146  23381025.5864   23381020.7344
        41.0004         40.2504
 -22906011.28448 -17833525.21048  20945803.4774   20945798.8594
        49.5004         51.0004
 -21366370.19347 -16618532.32048  20992067.4454   20992062.8094
        47.5004         49.7504
  -5650899.04446  -4356794.64042  24291637.2274   24291631.2974
        36.5004         16.7504
 -10647995.85547  -8147600.05446  23204897.5394   23204889.2384
        43.0004         39.2504
 20  5  2  0 14 30.0000000  0 10G23G16G 6G 4G22G 9G 3G26G14G31
  -7569487.19547  -5885710.51445  23232032.3754   23232023.1254
        45.5004         30.2504
 -22535118.90847 -17398557.96146  20915135.4304   20915127.7194
        46.5004         37.7504
   -597734.93946   -468169.51945  25155714.5234   25155710.9534
        37.0004         31.0004
 -23617017.33847 -18362005.44246  20955441.8204   20955435.6294
        46.2504         37.0004
 -17286772.54447 -13449073.21745  22345555.4844   22345545.6644
        46.5004         34.5004
 -11926440.24846  -9261267.99046  23364036.3284   23364032.2304
        41.2504         40.0004
 -22858189.37548 -17796261.40148  20954903.9774   20954899.2154
        48.5004         51.0004
 -21343605.26848 -16600793.42448  20996399.7814   20996394.6914
        48.0004         49.7504
  -5569223.64046  -4293151.54342  24307179.8914   24307173.1484
        36.2504         17.2504
 -10555766.13947  -8075732.78046  23222447.7344   23222440.0744
        43.2504         39.7504
 20  5  2  0 15  0.0000000  0 10G23G16G 6G 4G22G 9G 3G26G14G31
  -7651662.74347  -5949743.37745  23216395.0084   23216385.8594
        45.2504         30.0004
 -22593586.19447 -17444116.88746  20904009.5474   20904001.5164
        47.0004         37.0004
   -595130.61646   -466140.20645  25156210.6644   25156206.3984
        36.5004         31.2504
 -23666527.96447 -18400585.14346  20946020.4304   20946013.9024
        46.5004         37.2504
 -17202589.94547 -13383476.40845  22361574.5864   22361565.3164
        46.0004         34.5004
 -12015646.34947  -9330779.20846  23347062.0864   23347056.1484
        42.0004         39.5004
 -22809825.96248 -17758575.63548  20964107.0474   20964102.2114
        49.0004         51.0004
 -21320244.42847 -16582590.16848  21000844.8524   21000840.0204
        47.2504         49.7504
  -5487404.58046  -4229396.49843  24322750.7974   24322743.4144
        38.5004         18.2504
 -10463475.58747  -8003818.12346  23240010.0864   23240002.6564
        43.2504         40.0004
 20  5  2  0 15 30.0000000  0 10G23G16G 6G 4G22G 9G 3G26G14G31
  -7733782.63847  -6013732.91144  23200767.8834   23200758.5944
        45.0004         29.7504
 -22651468.47847 -17489219.96846  20892995.1724   20892986.9184
        46.5004         38.0004
   -592006.75246   -463706.02845  25156805.3834   25156800.7854
        36.5004         31.2504
 -23715782.66347 -18438965.42146  20936647.4064   20936641.1024
        46.5004         37.5004
 -17118089.24647 -13317631.71745  22377654.5234   22377644.7704
        45.2504         33.2504
 -12104781.46346  -9400235.16446  23330098.9454   23330094.7504
        40.7504         39.7504
 -22760922.45748 -17720469.01848  20973413.5554   20973408.1914
        48.5004         51.0004
 -21296288.57547 -16563923.27748  21005403.3914   21005398.8014
        47.0004         49.7504
  -5405441.76446  -4165529.39643  24338347.4694   24338341.2704
        38.2504         21.2504
 -10371125.46047  -7931857.01246  23257583.5784   23257577.0004
        42.7504         39.5004
 20  5  2  0 16  0.0000000  0 10G23G16G 6G 4G22G 9G 3G26G14G31
  -7815845.97847  -6077678.34544  23185152.3984   23185142.4264
        45.7504         29.7504
 -22708763.78847 -17533865.66346  20882091.7664   20882084.2624
        46.5004         38.0004
   -588364.09846   -460867.64445  25157497.8674   25157494.4574
        36.2504         31.5004
 -23764780.25247 -18477145.36446  20927323.5634   20927316.7664
        46.0004         38.0004
 -17033272.87947 -13251541.04445  22393794.7734   22393785.0554
        45.7504         33.7504
 -12193844.55046  -9469634.96146  23313151.2424   23313146.1844
        41.0004         39.2504
 -22711480.59548 -17681942.90748  20982821.7504   20982817.0084
        48.7504         51.0004
 -21271739.02147 -16544793.75148  21010075.5394   21010070.4964
        47.2504         49.7504
  -5323336.21446  -4101551.05443  24353970.3674   24353964.7704
        36.7504         21.5004
 -10278717.61347  -7859850.95046  23275169.0004   23275161.0554
        43.0004         40.0004
 20  5  2  0 16 30.0000000  0 10G23G16G 6G 4G22G 9G 3G26G14G31
  -7897851.07447  -6141578.41945  23169546.8054   23169537.2814
        45.0004         30.5004
 -22765469.22947 -17578051.71846  20871301.2114   20871293.5904
        46.5004         37.5004
   -584202.77046   -457625.09245  25158290.4064   25158286.7114
        36.2504         31.5004
 -23813518.67947 -18515123.35046  20918049.0084   20918042.0204
        46.2504         37.0004
 -16948142.51047 -13185205.71845  22409994.6954   22409984.7074
        45.5004         34.7504
 -12282833.75346  -9538977.18946  23296217.6334   23296212.6724
        41.2504         39.5004
 -22661501.27048 -17642997.99148  20992332.3914   20992327.6684
        48.0004         51.0004
 -21246596.23447 -16525201.97948  21014859.6644   21014855.1374
        47.2504         49.7504
  -5241087.33845  -4037461.11543  24369621.1484   24369616.3554
        35.2504         19.2504
 -10186252.57047  -7787800.32246  23292764.2664   23292756.6884
        43.0004         39.7504
 20  5  2  0 17  0.0000000  0 10G23G16G 6G 4G22G 9G 3G26G14G31
  -7979797.60547  -6205432.84745  23153953.2424   23153944.1454
        46.2504         30.0004
 -22821583.78847 -17621777.35146  20860622.8984   20860615.1024
        46.7504         37.0004
   -579524.62346   -453979.83445  25159180.8204   25159176.8874
        37.0004         31.7504
 -23861997.75647 -18552899.25646  20908823.5164   20908817.0204
        46.7504         37.0004
 -16862701.89747 -13118628.63245  22426253.4384   22426244.0864
        46.5004         33.5004
 -12371748.87646  -9608261.69546  23279296.9144   23279292.7114
        40.7504         40.0004
 -22610987.18848 -17603636.38148  21001944.8914   21001940.6914
        48.7504         50.7504
 -21220862.54647 -16505149.75848  21019756.6334   21019752.0234
        47.2504         50.0004
  -5158696.85046  -3973260.69743  24385301.2424   24385294.0474
        37.7504         19.2504
 -10093732.78247  -7715707.00746  23310370.1094   23310362.4654
        42.7504         39.2504
 20  5  2  0 17 30.0000000  0 10G23G16G 6G 4G22G 9G 3G26G14G31
  -8061682.80047  -6269239.49145  23138370.7114   23138361.5904
        45.7504         30.2504
 -22877103.87347 -17665039.75546  20850057.9454   20850049.7194
        47.2504         37.5004
   -574328.71346   -449931.07745  25160169.6804   25160164.9654
        37.7504         30.5004
 -23910214.48147 -18590470.71746  20899648.2814   20899641.5474
        46.7504         37.2504
 -16776951.56047 -13051810.20045  22442571.6334   22442562.1094
        45.5004         34.0004
 -12460587.11146  -9677486.26546  23262392.7424   23262387.4654
        41.2504         39.7504
 -22559938.39548 -17563858.11648  21011659.3524   21011654.4774
        48.2504         50.7504
 -21194537.52947 -16484636.76148  21024765.8674   21024761.3524
        47.7504         49.7504
  -5076163.54946  -3908949.09242  24401005.9614   24401000.3244
        36.7504         17.7504
 -10001158.40547  -7643571.17946  23327986.0314   23327978.8054
        42.2504         39.0004
 20  5  2  0 18  0.0000000  0 10G23G16G 6G 4G22G 9G 3G26G14G31
  -8143506.54047  -6332998.24445  23122800.1414   23122791.3134
        45.2504         31.0004
 -22932028.10847 -17707837.86446  20839606.2344   20839598.2114
        47.2504         37.0004
   -568616.65546   -445480.15845  25161255.4844   25161252.1334
        37.0004         30.0004
 -23958168.27447 -18627837.29946  20890522.8134   20890515.9144
        46.7504         36.5004
 -16690894.97547 -12984753.13045  22458947.4454   22458937.6334
        45.7504         34.0004
 -12549347.97746  -9746650.56546  23245501.4534   23245496.8634
        41.2504         40.5004
 -22508357.27148 -17523665.04448  21021474.6724   21021469.7034
        49.0004         50.5004
 -21167623.13747 -16463664.51648  21029887.5704   21029882.7934
        47.5004         50.0004
  -4993488.39945  -3844526.98742  24416737.8524   24416733.3524
        35.7504         17.2504
  -9908531.35047  -7571394.29246  23345612.9774   23345605.0944
        42.5004         39.0004
 20  5  2  0 18 30.0000000  0 10G23G16G 6G 4G22G 9G 3G26G14G31
  -8225267.71147  -6396708.24645  23107241.6884   23107232.3324
        45.0004         31.7504
 -22986354.79147 -17750170.34246  20829267.8284   20829260.1054
        46.7504         37.5004
   -562389.35246   -440627.71845  25162441.2894   25162436.7624
        36.7504         30.0004
 -24005857.80947 -18664997.97346  20881447.6644   20881441.3094
        47.0004         37.2504
 -16604534.68347 -12917459.42945  22475381.2424   22475371.8094
        45.0004         33.7504
 -12638030.25547  -9815753.62546  23228626.0784   23228620.6604
        42.2504         40.2504
 -22456245.51047 -17483058.48348  21031390.8754   21031386.6254
        47.7504         50.7504
 -21140120.71947 -16442234.07048  21035121.2734   21035116.1724
        46.7504         49.5004
  -4910672.15146  -3779995.00142  24432499.9614   24432492.5004
        40.5004         16.7504
  -9815853.12747  -7499177.54746  23363249.2974   23363241.6884
        43.2504         39.0004
 20  5  2  0 19  0.0000000  0 10G23G16G 6G 4G22G 9G 3G26G14G31
  -8306965.72547  -6460369.02345  23091694.5084   23091685.7234
        45.2504         30.7504
 -23040082.44447 -17792036.05246  20819044.2504   20819036.1564
        47.0004         38.0004
   -555648.21946   -435374.93845  25163724.2424   25163719.9734
        37.0004         31.0004
 -24053282.35847 -18701952.16246  20872423.5084   20872416.7274
        47.0004         37.2504
 -16517873.45747 -12849931.21145  22491872.0554   22491862.3794
        45.0004         33.2504
 -12726633.24847  -9884794.92246  23211765.9384   23211760.1804
        42.0004         40.0004
 -22403605.45748 -17442040.27348  21041408.2034   21041403.5394
        48.7504         50.5004
 -21112032.11747 -16420346.85148  21040466.1644   21040461.6254
        47.0004         49.7504
  -4827715.40046  -3715353.24143  24448284.8134   24448278.3094
        38.7504         19.2504
  -9723125.71147  -7426922.44846  23380893.8134   23380886.8834
        42.5004         38.5004
 20  5  2  0 19 30.0000000  0 10G23G16G 6G 4G22G 9G 3G26G14G31
  -8388598.42347  -6523978.89245  23076160.8134   23076151.7664
        45.2504         30.5004
 -23093207.83947 -17833432.46246  20808934.8284   20808927.2074
        47.5004         38.0004
   -548393.13746   -429721.66245  25165104.2114   25165100.6094
        38.0004         31.2504
 -24100439.55647 -18738698.03346  20863449.3364   20863443.0784
        47.0004         37.5004
 -16430912.64947 -12782169.56045  22508419.6804   22508410.3634
        46.0004         33.2504
 -12815154.71346  -9953772.69046  23194919.9614   23194915.1604
        41.5004         40.0004
 -22350437.76148 -17400610.91548  21051525.8134   21051521.3284
        48.5004         50.7504
 -21083357.65947 -16398003.12548  21045922.8284   21045918.4534
        47.0004         49.5004
  -4744617.93046  -3650602.12143  24464097.6254   24464092.1334
        37.5004         20.0004
  -9630349.52847  -7354629.37646  23398548.8594   23398541.8284
        42.7504         38.5004
 20  5  2  0 20  0.0000000  0 10G23G16G 6G 4G22G 9G 3G26G14G31
  -8470164.84847  -6587537.12545  23060638.8674   23060629.9384
        45.5004         30.7504
 -23145729.86347 -17874358.71946  20798940.2664   20798932.4494
        47.5004         37.7504
   -540625.31146   -423668.84245  25166582.2194   25166578.1954
        37.0004         30.0004
 -24147328.38248 -18775234.77546  20854526.7194   20854520.3554
        48.0004         38.0004
 -16343655.59847 -12714177.06545  22525024.7194   22525014.9144
        45.0004         33.2504
 -12903593.77246 -10022686.22946  23178090.7344   23178085.7734
        41.5004         40.7504
 -22296744.51747 -17358772.03748  21061743.2584   21061738.3244
        47.7504         50.5004
 -21054098.98647 -16375204.16948  21051490.1334   21051485.7384
        47.0004         49.7504
  -4661380.39246  -3585741.71243  24479937.5474   24479931.1604
        39.0004         20.5004
  -9537526.17247  -7282299.52746  23416212.9924   23416205.0474
        42.5004         38.2504
 20  5  2  0 20 30.0000000  0 10G23G16G 6G 4G22G 9G 3G26G14G31
  -8551663.25547  -6651042.36645  23045130.5084   23045121.2464
        46.5004         31.5004
 -23197645.96948 -17914812.83046  20789060.8284   20789053.1604
        48.5004         37.7504
   -532345.22946   -417216.88145  25168158.2584   25168154.3324
        36.5004         31.0004
 -24193947.13647 -18811561.07546  20845655.5084   20845649.2464
        47.2504         37.2504
 -16256104.29147 -12645955.28845  22541685.0864   22541675.6254
        45.5004         33.5004
 -12991948.71247 -10091534.19646  23161278.4924   23161272.8634
        42.2504         40.5004
 -22242527.15747 -17316524.75148  21072060.2274   21072055.9414
        47.0004         50.5004
 -21024257.09247 -16351950.75448  21057169.6254   21057164.5124
        47.0004         49.5004
  -4578003.25046  -3520772.51843  24495803.9384   24495797.2344
        38.0004         18.5004
  -9444656.80347  -7209933.82646  23433886.0474   23433878.0784
        42.7504         39.0004
 20  5  2  0 21  0.0000000  0 10G23G16G 6G 4G22G 9G 3G26G14G31
  -8633092.43147  -6714493.66245  23029635.1414   23029625.3444
        47.0004         31.0004
 -23248954.04747 -17954793.14546  20779297.1484   20779289.0514
        47.7504         37.7504
   -523553.61146   -410366.29645  25169831.8364   25169827.3554
        37.5004         31.5004
 -24240294.11248 -18847675.60246  20836836.0394   20836829.9264
        48.0004         37.5004
 -16168260.74947 -12577505.79345  22558401.5554   22558391.5744
        45.0004         33.0004
 -13080217.97146 -10160315.44246  23144480.4694   23144475.4414
        41.2504         41.5004
 -22187787.11747 -17273870.19248  21082477.1484   21082472.2664
        47.2504         50.5004
 -20993833.03647 -16328243.70348  21062958.6024   21062954.0944
        47.2504         49.5004
  -4494486.07745  -3455694.25442  24511695.9534   24511690.7384
        32.5004         15.5004
  -9351742.39047  -7137533.02846  23451567.0634   23451558.9884
        43.0004         39.7504
 20  5  2  0 21 30.0000000  0 10G23G16G 6G 4G22G 9G 3G26G14G31
  -8714451.95647  -6777890.69345  23014153.0474   23014143.1994
        46.2504         31.2504
 -23299653.31048 -17994299.07746  20769649.5314   20769642.2234
        48.2504         38.0004
   -514252.51346   -403118.71345  25171601.3284   25171597.2234
        36.0004         31.2504
 -24286369.09347 -18883578.18046  20828068.2274   20828061.5984
        47.5004         37.2504
 -16080128.65447 -12508831.44645  22575172.3914   22575162.6294
        45.0004         33.0004
 -13168401.35047 -10229029.74246  23127699.3284   23127694.2734
        42.0004         40.7504
 -22132527.32448 -17230810.62248  21092992.9924   21092987.9574
        48.0004         50.5004
 -20962829.34447 -16304084.99548  21068858.7034   21068854.2974
        47.5004         49.5004
  -4410830.73746  -3390508.33442  24527617.0084   24527609.6254
        37.7504         17.7504
  -9258785.40947  -7065099.08246  23469255.2664   23469247.7194
        42.0004         38.0004
 20  5  2  0 22  0.0000000  0 10G23G16G 6G 4G22G 9G 3G26G14G31
  -8795741.00247  -6841232.79745  22998683.8754   22998674.4304
        46.2504         31.7504
 -23349741.75647 -18033329.02746  20760118.2814   20760110.2664
        47.7504         38.7504
   -504442.56446   -395474.64545  25173468.6954   25173463.9804
        37.5004         31.0004
 -24332170.42347 -18919267.53446  20819352.7114   20819345.9494
        47.2504         37.5004
 -15991709.95747 -12439933.78145  22591997.8834   22591988.1374
        45.0004         33.0004
 -13256497.25347 -10297675.88246  23110936.5784   23110930.5594
        43.5004         41.5004
 -22076749.25347 -17187347.20248  21103606.9774   21103602.4104
        47.2504         50.2504
 -20931247.08247 -16279475.45048  21074868.5084   21074863.8594
        46.7504         49.5004
  -4327037.29646  -3325214.85143  24543560.2974   24543555.3874
        36.2504         20.7504
  -9165786.78047  -6992632.65946  23486952.1804   23486945.7934
        42.0004         38.0004
 20  5  2  0 22 30.0000000  0 10G23G16G 6G 4G22G 9G 3G26G14G31
  -8876957.25047  -6904518.17845  22983228.6254   22983219.8834
        45.0004         31.2504
 -23399216.88447 -18071881.08146  20750703.0004   20750695.4734
        47.0004         38.7504
   -494124.32846   -387434.46845  25175431.2504   25175427.7504
        36.0004         31.2504
 -24377696.16147 -18954742.13846  20810689.5394   20810682.9024
        47.5004         37.5004
 -15903006.68247 -12370814.36345  22608877.3054   22608867.8014
        45.0004         33.0004
 -13344503.86247 -10366252.46346  23094188.6804   23094183.0944
        42.5004         41.0004
 -22020454.22447 -17143480.96148  21114319.4924   21114314.8674
        47.5004         50.5004
 -20899087.18547 -16254415.80648  21080988.3674   21080984.1684
        47.0004         49.5004
  -4243105.85845  -3259813.86442  24559532.6024   24559527.4844
        35.2504         16.7504
  -9072747.47147  -6920134.54446  23504657.1724   23504649.7664
        42.5004         38.2504
 20  5  2  0 23  0.0000000  0 11G23G16G 6G 4G22G 9G 3G26G 7G14G31
  -8958099.22647  -6967745.66545  22967788.0394   22967779.0634
        45.7504         31.0004
 -23448076.80247 -18109953.74146  20741405.3204   20741397.4924
        46.7504         37.7504
   -483298.24146   -378998.62245  25177491.7974   25177488.4924
        36.2504         31.2504
 -24422944.60747 -18990000.66346  20802079.1804   20802072.4534
        47.5004         37.2504
 -15814021.28147 -12301475.11245  22625810.7814   22625801.3554
        44.7504         32.5004
 -13432419.47646 -10434758.13046  23077458.2194   23077453.7344
        41.5004         40.5004
 -21963643.72647 -17099213.05648  21125130.3594   21125125.5554
        47.2504         50.2504
 -20866350.75447 -16228906.91648  21087217.7814   21087213.1954
        47.2504         49.2504
    369429.23055    354840.93653  25466832.9384   25466826.6414
        32.0004         19.7504
  -4159036.018 6                  24575530.773
        36.500
  -8979668.35447  -6847605.41046  23522369.6334   23522362.3954
        42.5004         38.2504
 20  5  2  0 23 30.0000000  0 11G23G16G 6G 4G22G 9G 3G26G 7G14G31
  -9039165.68947  -7030914.32645  22952361.6024   22952352.6994
        45.5004         32.0004
 -23496319.63247 -18147545.55846  20732225.2584   20732217.4884
        46.7504         38.0004
   -471965.71146   -370168.10545  25179648.9384   25179644.2464
        37.5004         30.5004
 -24467914.43147 -19025042.08546  20793521.2344   20793515.0124
        45.2504         37.0004
 -15724756.23247 -12231917.96045  22642797.5864   22642787.6884
        44.7504         33.5004
 -13520242.85546 -10503191.90846  23060745.7424   23060741.5944
        40.5004         40.2504
 -21906319.64947 -17054544.95748  21136038.4924   21136034.1484
        47.0004         50.2504
 -20833039.27047 -16202949.92648  21093556.8674   21093552.3054
        47.2504         49.5004
    285502.13545    289443.20343  25450862.0164   25450855.8714
        33.0004         22.0004
  -4074828.99946  -3223401.89153  24591554.4454   24591548.4494
        37.7504         20.0004
  -8886550.85347  -6775046.36746  23540089.9064   23540081.9654
        43.5004         37.5004
 20  5  2  0 24  0.0000000  0 11G23G16G 6G 4G22G 9G 3G26G 7G14G31
  -9120155.94947  -7094023.58945  22936950.1334   22936941.0234
        46.0004         32.2504
 -23543944.15647 -18184655.57446  20723162.3594   20723154.4884
        47.5004         38.0004
   -460127.98146   -360943.92045  25181901.2584   25181896.7114
        36.7504         31.0004
 -24512604.70347 -19059865.68346  20785016.9774   20785010.6844
        47.2504         37.0004
 -15635214.38447 -12162145.11045  22659836.6724   22659826.7974
        44.7504         32.7504
 -13607973.07747 -10571553.08946  23044052.3524   23044047.2464
        42.2504         41.0004
 -21848484.41047 -17009478.54948  21147044.6564   21147040.1454
        47.0004         50.5004
 -20799154.75047 -16176546.42048  21100004.9384   21100000.5514
        47.2504         49.5004
    201655.05345    224107.80643  25434906.5784   25434899.9534
        35.0004         23.0004
  -3990485.31146  -3157679.62143  24607605.8984   24607599.3014
        37.0004         19.2504
  -8793396.55647  -6702458.64246  23557815.7814   23557809.0594
        42.0004         38.5004
 20  5  2  0 24 30.0000000  0 11G23G16G 6G 4G22G 9G 3G26G 7G14G31
  -9201068.79547  -7157072.53745  22921552.5394   22921543.5784
        45.5004         32.5004
 -23590948.60247 -18221282.42446  20714218.1174   20714210.0354
        47.5004         38.0004
   -447786.33346   -351327.07345  25184250.1254   25184245.8094
        38.0004         31.5004
 -24557014.10247 -19094470.40446  20776566.3134   20776559.7424
        45.5004         37.2504
 -15545398.77247 -12092158.94545  22676928.5704   22676918.3364
        44.7504         32.5004
 -13695608.80847 -10639840.67946  23027374.3674   23027370.1804
        42.0004         41.7504
 -21790139.85647 -16964015.28048  21158147.1884   21158142.3714
        47.5004         50.2504
 -20764698.66447 -16149697.52848  21106561.5314   21106556.8094
        47.5004         49.5004
    117888.14246    158834.87144  25418966.6484   25418959.8444
        37.0004         27.5004
  -3906005.52945  -3091851.31042  24623680.0864   24623675.6524
        31.0004         15.5004
  -8700207.44747  -6629843.79046  23575549.8444   23575541.9924
        42.7504         37.2504
 20  5  2  0 25  0.0000000  0 11G23G16G 6G 4G22G 9G 3G26G 7G14G31
  -9281902.10147  -7220059.51545  22906170.3594   22906161.3834
        46.0004         31.2504
 -23637330.89348 -18257424.47446  20705391.8754   20705383.9104
        48.5004         38.0004
   -434941.04246   -341317.77045  25186693.8524   25186689.7854
        37.0004         30.2504
 -24601140.45147 -19128854.58746  20768169.5004   20768162.7974
        47.2504         38.0004
 -15455310.91647 -12021960.64145  22694071.1644   22694061.6024
        45.0004         32.2504
 -13783148.02147 -10708053.01247  23010717.5004   23010712.1724
        42.7504         42.0004
 -21731287.23647 -16918156.12148  21169346.4694   21169341.7504
        47.0004         50.0004
 -20729671.85647 -16122403.92748  21113227.1484   21113222.7274
        47.0004         49.5004
     34202.77146     93625.48244  25403041.9924   25403034.7274
        37.5004         29.5004
  -3821389.58645  -3025916.83242  24639783.0394   24639778.1254
        34.0004         12.5004
  -8606983.73846  -6557201.99846  23593289.0084   23593282.3634
        41.2504         37.2504
 20  5  2  0 25 30.0000000  0 11G23G16G 6G 4G22G 9G 3G26G 7G14G31
  -9362655.58347  -7282984.25544  22890803.8364   22890794.7624
        45.7504         29.2504
 -23683089.86348 -18293080.82446  20696683.9304   20696675.7934
        48.5004         38.2504
   -421594.10746   -330917.54944  25189233.5314   25189229.5594
        38.0004         25.5004
 -24644983.30547 -19163017.82546  20759826.0084   20759819.6454
        45.7504         36.2504
 -15364953.79447 -11951552.52845  22711266.0084   22711256.0204
        45.2504         33.0004
 -13870590.21647 -10776189.72146  22994078.3914   22994072.6054
        42.5004         39.0004
 -21671929.31647 -16871903.22348  21180641.7274   21180637.1684
        46.5004         50.0004
 -20694076.76347 -16094667.47847  21120000.7504   21119996.3984
        46.5004         47.7504
    -49401.61646     28479.11945  25387132.4614   25387125.1294
        39.5004         33.2504
  -3736638.58946  -2959877.15642  24655910.3834   24655905.6134
        37.5004         17.2504
  -8513727.15246  -6484534.55445  23611035.7274   23611028.6724
        39.5004         35.0004
 20  5  2  0 26  0.0000000  0 11G23G16G 6G 4G22G 9G 3G26G 7G14G31
  -9443327.00847  -7345845.13745  22875452.6254   22875442.9844
        46.0004         31.7504
 -23728223.27547 -18328249.71446  20688095.2894   20688087.3014
        47.5004         37.5004
   -407745.84345   -320126.79745  25191868.9304   25191865.3054
        35.7504         30.2504
 -24688540.39747 -19196958.44346  20751537.7344   20751531.2854
        47.0004         37.7504
 -15274329.54047 -11880936.22945  22728510.8674   22728501.1914
        44.7504         33.5004
 -13957933.09147 -10844249.11947  22977457.0234   22977451.4924
        42.5004         42.0004
 -21612067.25147 -16825257.44848  21192033.1254   21192028.6644
        47.0004         49.7504
 -20657914.06547 -16066488.78448  21126882.1334   21126877.5984
        46.7504         49.2504
   -132924.66446    -36603.74945  25371238.5394   25371231.8054
        38.2504         30.7504
  -3651752.29645  -2893732.04342  24672063.9224   24672058.1994
        35.5004         17.7504
  -8420438.25446  -6411841.98346  23628788.0394   23628781.0124
        41.7504         38.0004
 20  5  2  0 26 30.0000000  0 11G23G16G 6G 4G22G 9G 3G26G 7G14G31
  -9523915.52547  -7408641.38245  22860116.7274   22860107.3284
        46.0004         32.2504
 -23772729.70547 -18362930.05346  20679626.3524   20679618.2194
        47.7504         38.5004
   -393397.87546   -308946.59245  25194599.7034   25194595.7504
        36.7504         31.2504
 -24731810.68747 -19230675.55746  20743303.6254   20743297.0744
        47.0004         37.5004
 -15183440.99147 -11810114.00445  22745806.5784   22745797.0474
        44.7504         32.2504
 -14045175.71547 -10912230.37946  22960854.3444   22960849.2624
        42.5004         41.0004
 -21551703.30947 -16778220.62148  21203519.6414   21203515.2814
        47.0004         49.7504
 -20621185.72447 -16037869.30748  21133871.3284   21133866.8284
        47.5004         49.2504
   -216365.01146   -101622.21445  25355360.6644   25355353.1804
        37.5004         30.5004
  -3566731.46645  -2827482.14942  24688241.4534   24688237.2934
        32.2504         15.5004
  -8327119.05347  -6339125.76346  23646545.7584   23646538.4454
        42.0004         37.2504
 20  5  2  0 27  0.0000000  0 11G23G16G 6G 4G22G 9G 3G26G 7G14G31
  -9604419.74047  -7471371.92445  22844797.2424   22844788.2384
        45.2504         32.0004
 -23816607.61348 -18397120.62646  20671276.3134   20671268.4884
        48.0004         38.0004
   -378551.24846   -297377.83245  25197425.1414   25197420.6524
        36.5004         31.5004
 -24774792.84247 -19264168.14846  20735124.4694   20735117.9654
        46.0004         37.2504
 -15092290.75747 -11739087.87745  22763151.2734   22763142.2074
        44.7504         32.0004
 -14132316.71647 -10980132.44146  22944272.2664   22944267.0314
        42.5004         41.5004
 -21490839.56147 -16730794.34948  21215102.5004   21215097.2584
        47.5004         50.0004
 -20583893.43647 -16008810.38248  21140967.7504   21140963.3954
        47.2504         49.2504
   -299723.20146   -166576.64944  25339497.6804   25339491.1644
        36.7504         29.2504
  -3481577.07645  -2761128.24042  24704446.8754   24704441.6844
        35.5004         15.5004
  -8233770.58347  -6266386.75146  23664309.9454   23664302.3204
        42.0004         37.7504
 20  5  2  0 27 30.0000000  0 11G23G16G 6G 4G22G 9G 3G26G 7G14G31
  -9684838.42847  -7534035.83045  22829494.3284   22829485.0864
        45.5004         31.7504
 -23859855.58248 -18430820.34346  20663046.4454   20663038.8134
        48.0004         38.0004
   -363206.98046   -285421.27945  25200344.8204   25200340.8404
        36.0004         30.7504
 -24817485.17447 -19297434.89146  20726999.8754   20726993.7034
        46.5004         37.7504
 -15000881.08647 -11667859.59045  22780546.9844   22780537.0864
        44.5004         32.0004
 -14219354.41747 -11047954.02046  22927709.4144   22927704.4494
        42.5004         41.2504
 -21429477.69147 -16682979.92548  21226778.6804   21226774.1374
        47.0004         50.0004
 -20546038.47548 -15979313.02348  21148171.4614   21148166.9414
        48.0004         49.2504
   -382998.52046   -231466.51044  25323650.6254   25323644.4454
        36.0004         29.7504
  -3396289.08846  -2694670.12442  24720677.2664   24720671.0784
        38.2504         14.7504
  -8140393.55746  -6193625.48546  23682078.2114   23682071.6844
        41.5004         37.0004
 20  5  2  0 28  0.0000000  0 11G23G16G 6G 4G22G 9G 3G26G 7G14G31
  -9765169.78247  -7596631.67245  22814207.6334   22814198.5984
        46.2504         32.5004
 -23902471.85047 -18464027.82846  20654937.1884   20654929.0394
        47.7504         39.0004
   -347366.48846   -273078.10745  25203359.5164   25203355.4924
        37.0004         30.7504
 -24859886.38647 -19330474.80146  20718931.2814   20718924.9414
        47.2504         38.0004
