     2.11           OBSERVATION DATA    G (GPS)             RINEX VERSION / TYPE
teqc  2018Jun8                          20200102 01:12:02UTCPGM / RUN BY / DATE
Linux 2.4.20-8|x86|gcc -static|Linux 32|=+                  COMMENT
BIT 2 OF LLI FLAGS DATA COLLECTED UNDER A/S CONDITION       COMMENT
POL2                                                        MARKER NAME
GGN                 JPL                                     OBSERVER / AGENCY
02563                 Javad Delta-3             1s jps      REC # / TYPE / VERS
383-1030            TPSCR.G3                                ANT # / TYPE
  1239971.4511  4530790.0876  4302578.7950                  APPROX POSITION XYZ
        0.0780        0.0000        0.0000                  ANTENNA: DELTA H/E/N
     1     1                                                WAVELENGTH FACT L1/2
     8    L1    L2    C1    P1    C2    P2    S1    S2      # / TYPES OF OBSERV
    30.0000                                                 INTERVAL
Forced Modulo Decimation to 30 seconds                      COMMENT
 SNR is mapped to RINEX snr flag value [0-9]                COMMENT
  L1 & L2: min(max(int(snr_dBHz/6), 0), 9)                  COMMENT
teqc edited: all GLONASS satellites excluded                COMMENT
teqc edited: all SBAS satellites excluded                   COMMENT
teqc edited: all Galileo satellites excluded                COMMENT
teqc edited: all Beidou satellites excluded                 COMMENT
teqc edited: all QZSS satellites excluded                   COMMENT
teqc edited: all IRNSS satellites excluded                  COMMENT
pseudorange smoothing corrections not applied               COMMENT
  2020     1     2     0     0    0.0000000     GPS         TIME OF FIRST OBS
                                                            END OF HEADER
 20  1  2  0  0  0.0000000  0  9G15G16G10G05G20G21G13G26G29
 109080547.765 9  84997828.550 8  20757337.631    20757337.709    20757338.986
  20757338.723          54.500          52.000
 125684382.339 6  97935879.42644  23916942.275    23916941.585
  23916943.614          40.250          24.0004
 125630487.918 6  97893887.022 7  23906686.769    23906687.005    23906690.433
  23906690.989          41.750          44.250
 128509647.745 6 100137392.514 6  24454572.868    24454573.220    24454573.936
  24454573.677          40.000          39.250
 112411304.536 7  87593223.85946  21391159.047    21391158.237
  21391159.966          47.500          41.2504
 111954272.836 8  87237099.58247  21304188.521    21304187.808
  21304188.660          49.000          45.2504
 116160704.330 7  90514838.38346  22104645.765    22104646.019
  22104646.704          45.750          36.7504
 127347864.102 6  99232100.236 7  24233493.783    24233493.103    24233499.026
  24233499.227          37.250          42.250
 113173305.536 8  88186994.239 8  21536163.065    21536163.077    21536164.752
  21536164.724          51.000          49.750
 20  1  2  0  0 30.0000000  0  9G15G16G10G05G20G21G13G26G29
 109065006.856 9  84985718.755 8  20754380.229    20754380.406    20754381.777
  20754381.379          54.250          52.000
 125702760.694 6  97950200.22444  23920439.650    23920439.565
  23920441.380          40.000          25.0004
 125541390.851 6  97824460.739 7  23889732.173    23889732.190    23889735.371
  23889736.178          40.750          44.000
 128610654.957 6 100216099.454 6  24473794.638    24473794.478    24473794.891
  24473793.843          41.500          37.750
 112347434.707 7  87543455.16746  21379004.709    21379004.069
  21379005.818          46.500          41.0004
 111920388.992 8  87210696.58447  21297740.604    21297739.824
  21297740.812          48.500          45.2504
 116190006.288 7  90537671.08146  22110222.375    22110222.047
  22110222.942          46.750          36.7504
 127403278.346 6  99275280.144 6  24244039.516    24244038.614    24244043.408
  24244044.037          39.500          41.500
 113257320.811 8  88252460.678 8  21552150.867    21552150.798    21552152.498
  21552152.419          50.750          49.750
 20  1  2  0  1  0.0000000  0  9G15G16G10G05G20G21G13G26G29
 109050110.838 9  84974111.474 8  20751545.620    20751545.742    20751547.024
  20751546.904          54.250          52.250
 125721688.694 6  97964949.31143  23924041.938    23924042.087
  23924042.426          40.250          23.7504
 125452460.958 6  97755164.722 7  23872809.259    23872809.684    23872813.484
  23872813.321          41.500          44.250
 128711667.405 6 100294810.380 6  24493016.745    24493016.142    24493018.163
  24493018.055          41.250          39.000
 112283851.662 7  87493909.95446  21366905.181    21366904.848
  21366906.351          46.750          41.5004
 111886695.246 8  87184441.71447  21291328.779    21291328.123
  21291329.200          48.750          45.2504
 116219913.480 7  90560975.37646  22115913.736    22115913.088
  22115913.995          46.750          37.0004
 127459039.490 6  99318730.401 6  24254649.845    24254649.383    24254655.136
  24254655.715          38.000          41.750
 113341742.550 8  88318243.852 8  21568215.598    21568215.668    21568217.442
  21568217.312          51.000          50.000
 20  1  2  0  1 30.0000000  0  9G15G16G10G05G20G21G13G26G29
 109035859.460 9  84963006.508 8  20748833.689    20748833.797    20748835.139
  20748835.002          54.250          52.500
 125741164.122 6  97980124.93944  23927746.763    23927747.305
  23927748.088          39.750          25.2504
 125363698.130 6  97685998.868 7  23855918.254    23855918.477    23855922.118
  23855922.560          41.750          44.250
 128812682.838 6 100373523.642 6  24512237.545    24512237.247    24512239.317
  24512239.112          39.750          36.000
 112220554.889 7  87444587.79546  21354860.385    21354859.793
  21354861.431          46.500          41.2504
 111853192.258 8  87158335.49347  21284953.289    21284952.782
  21284953.837          48.500          45.0004
 116250424.120 7  90584749.90746  22121719.552    22121719.229
  22121720.053          46.500          36.7504
 127515144.032 6  99362448.192 6  24265326.741    24265325.706    24265330.351
  24265331.349          38.750          41.500
 113426568.037 8  88384341.622 8  21584357.003    21584357.266    21584359.143
  21584359.033          50.250          49.500
 20  1  2  0  2  0.0000000  0  9G15G16G10G05G20G21G13G26G29
 109022255.348 9  84952405.912 8  20746244.834    20746244.968    20746246.370
  20746246.266          54.000          52.250
 125761187.326 6  97995727.43544  23931557.909    23931557.722
  23931558.492          39.750          25.2504
 125275105.212 7  97616965.427 7  23839059.770    23839059.915    23839063.424
  23839063.738          42.500          44.500
 128913701.984 6 100452239.972 5  24531461.201    24531462.111    24531461.346
  24531461.592          41.250          34.750
 112157546.841 7  87395490.61546  21342870.649    21342869.910
  21342871.386          46.000          41.7504
 111819882.324 8  87132379.69847  21278614.584    21278614.044
  21278615.115          48.000          45.0004
 116281539.252 7  90608995.46546  22127640.278    22127640.011
  22127640.775          46.500          36.5004
 127571591.330 6  99406433.094 7  24276068.357    24276067.927    24276073.122
  24276072.899          39.000          42.000
 113511796.906 8  88450753.717 8  21600575.821    21600575.851    21600577.720
  21600577.529          50.250          49.750
 20  1  2  0  2 30.0000000  0  9G15G16G10G05G20G21G13G26G29
 109009299.449 9  84942310.408 8  20743779.281    20743779.593    20743781.033
  20743780.730          54.000          52.250
 125781758.191 6  98011756.67244  23935472.475    23935472.175
  23935472.875          40.000          25.0004
 125186683.467 6  97548065.364 7  23822233.460    23822233.636    23822237.480
  23822237.765          41.500          45.250
 129014724.510 7 100530958.780 6  24550686.227    24550686.429    24550688.178
  24550687.168          43.000          37.500
 112094828.335 7  87346619.07046  21330935.507    21330934.837
  21330936.447          46.250          41.2504
 111786767.509 8  87106575.94847  21272313.244    21272312.511
  21272313.589          48.000          45.2504
 116313258.176 7  90633711.52246  22133676.233    22133676.257
  22133677.195          46.250          36.7504
 127628379.441 6  99450683.553 6  24286874.544    24286874.064    24286878.770
  24286879.061          38.500          40.750
 113597427.465 8  88517478.820 8  21616870.959    21616870.964    21616872.603
  21616872.782          50.500          49.750
 20  1  2  0  3  0.0000000  0  9G15G16G10G05G20G21G13G26G29
 108996989.946 9  84932718.590 8  20741437.040    20741437.080    20741438.526
  20741438.269          54.500          52.000
 125802873.126 6  98028209.86944  23939491.611    23939490.858
  23939490.449          40.000          24.5004
 125098431.574 6  97479297.684 7  23805439.638    23805439.706    23805443.071
  23805443.892          41.250          45.000
 129115746.647 7 100609677.308 6  24569908.964    24569909.606    24569911.062
  24569910.448          42.000          38.000
 112032398.127 7  87297972.16046  21319055.630    21319054.737
  21319056.508          46.250          41.5004
 111753846.613 7  87080923.30747  21266048.685    21266047.793
  21266049.062          47.750          45.5004
 116345577.777 7  90658895.63246  22139826.220    22139826.463
  22139827.448          46.000          36.5004
 127685503.529 6  99495195.827 7  24297744.749    24297745.084    24297749.652
  24297750.223          38.500          42.000
 113683455.905 8  88584513.958 8  21633241.612    21633241.741    21633242.865
  21633243.134          50.250          49.250
 20  1  2  0  3 30.0000000  0  9G15G16G10G05G20G21G13G26G29
 108985327.945 9  84923631.317 8  20739217.530    20739217.911    20739219.091
  20739219.009          54.000          52.000
 125824530.905 6  98045086.03844  23943611.808    23943611.692
  23943612.967          39.000          25.0004
 125010350.774 7  97410663.312 7  23788678.734    23788678.697    23788681.764
  23788682.571          42.250          45.000
 129216767.819 7 100688395.163 5  24589133.802    24589133.380    24589133.554
  24589132.249          43.250          33.750
 111970256.994 7  87249550.49946  21307230.373    21307229.779
  21307231.652          46.750          41.7504
 111721120.395 8  87055422.36247  21259820.697    21259820.202
  21259821.315          48.000          45.5004
 116378497.284 7  90684547.21046  22146090.528    22146090.482
  22146091.911          46.500          36.5004
 127742961.455 6  99539968.212 6  24308678.062    24308678.153    24308683.018
  24308683.331          38.000          40.750
 113769880.416 8  88651857.720 8  21649687.895    21649687.555    21649689.386
  21649689.249          50.250          49.500
 20  1  2  0  4  0.0000000  0  9G15G16G10G05G20G21G13G26G29
 108974315.257 9  84915050.006 8  20737122.167    20737122.335    20737123.513
  20737123.454          54.000          52.250
 125846731.535 6  98062385.21644  23947836.758    23947836.532
  23947836.288          39.750          24.2504
 124922442.997 7  97342163.725 7  23771950.291    23771950.223    23771953.467
  23771953.791          42.250          44.250
 129317787.879 6 100767112.116 6  24608356.083    24608356.428    24608358.992
  24608357.151          41.250          38.500
 111908406.335 7  87201355.19546  21295460.467    21295459.795
  21295461.530          46.250          41.7504
 111688591.358 7  87030075.06147  21253631.079    21253630.131
  21253631.307          47.750          45.5004
 116412016.970 7  90710666.44046  22152469.470    22152469.089
  22152470.401          46.750          36.2504
 127800751.784 6  99584999.655 6  24319676.192    24319676.087    24319680.788
  24319681.056          39.000          40.750
 113856699.674 8  88719509.079 8  21666208.918    21666208.809    21666210.251
  21666210.491          50.000          49.000
 20  1  2  0  4 30.0000000  0  9G15G16G10G05G20G21G13G26G29
 108963950.938 9  84906973.915 8  20735149.940    20735150.046    20735151.158
  20735151.131          54.000          52.000
 125869472.628 6  98080105.53544  23952163.869    23952164.058
  23952163.870          40.000          24.5004
 124834708.194 7  97273798.945 7  23755254.888    23755255.000    23755258.188
  23755258.418          42.500          44.000
 129418805.304 7 100845826.954 6  24627580.718    24627581.151    24627581.676
  24627581.945          44.250          40.750
 111846846.186 7  87153386.25446  21283746.186    21283745.529
  21283746.841          46.250          41.7504
 111656260.336 7  87004882.06347  21247478.465    21247477.830
  21247479.014          47.750          45.5004
 116446134.508 7  90737251.55045  22158961.576    22158961.378
  22158963.120          46.750          35.7504
 127858871.059 6  99630287.382 6  24330735.746    24330735.624    24330739.700
  24330740.250          38.250          41.250
 113943911.040 8  88787465.973 8  21682804.366    21682804.542    21682806.082
  21682805.976          49.500          48.750
 20  1  2  0  5  0.0000000  0  9G15G16G10G05G20G21G13G26G29
 108954233.332 9  84899401.761 8  20733300.758    20733300.808    20733301.759
  20733301.963          54.000          52.250
 125892750.654 6  98098244.27244  23956593.669    23956593.715
  23956594.423          39.500          24.5004
 124747145.003 7  97205567.897 7  23738592.070    23738592.497    23738595.821
  23738596.245          42.750          44.500
 129519816.211 7 100924536.656 6  24646801.080    24646801.599    24646803.567
  24646803.188          42.250          41.000
 111785574.687 7  87105642.23047  21272086.649    21272085.870
  21272087.182          46.500          42.0004
 111624125.468 7  86979841.90347  21241363.151    21241362.714
  21241364.019          47.250          45.5004
 116480846.936 7  90764300.19146  22165566.893    22165566.867
  22165568.063          46.750          36.0004
 127917314.513 6  99675827.731 6  24341857.423    24341856.882    24341861.518
  24341862.461          39.500          40.500
 114031510.326 8  88855725.149 8  21699474.300    21699473.952    21699475.944
  21699475.807          49.500          49.000
 20  1  2  0  5 30.0000000  0 10G15G16G10G05G20G21G13G27G26G29
 108945166.246 8  84892336.509 8  20731575.048    20731575.357    20731576.745
  20731576.751          53.750          52.250
 125916567.726 6  98116803.03643  23961125.924    23961125.214
  23961126.861          38.750          23.7504
 124659757.656 7  97137473.853 7  23721962.373    23721962.525    23721965.914
  23721966.291          42.250          44.500
 129620822.805 7 101003243.077 6  24666023.260    24666022.776    24666023.140
  24666023.462          43.500          39.750
 111724595.567 7  87058126.04747  21260482.982    21260482.095
  21260483.292          46.500          42.5004
 111592191.557 8  86954958.34547  21235286.608    21235285.996
  21235287.051          48.000          45.5004
 116516156.310 7  90791813.99146  22172286.174    22172285.907
  22172287.531          47.000          36.0004
 129939507.137 6 101251565.183 5  24726666.823    24726666.094    24726669.714
  24726673.385          37.500          34.000
 127976082.984 6  99721621.339 6  24353040.339    24353040.097    24353044.982
  24353045.236          38.750          41.250
 114119498.666 8  88924287.472 8  21716217.816    21716218.087    21716219.758
  21716219.286          49.750          49.000
 20  1  2  0  6  0.0000000  0 10G15G16G10G05G20G21G13G27G26G29
 108936747.980 9  84885776.834 8  20729973.191    20729973.360    20729974.806
  20729974.571          54.000          52.250
 125940920.648 6  98135779.31343  23965760.066    23965760.286
  23965761.336          39.000          23.7504
 124572545.011 7  97069515.979 7  23705366.893    23705366.838    23705370.472
  23705370.913          42.500          45.000
 129721822.438 6 101081944.089 6  24685240.275    24685241.635    24685243.535
  24685242.970          38.750          39.750
 111663907.607 7  87010836.73047  21248933.970    21248933.473
  21248934.874          47.000          42.2504
 111560457.321 7  86930230.36247  21229247.622    21229247.107
  21229248.288          47.750          45.7504
 116552059.510 7  90819790.52146  22179118.573    22179118.324
  22179119.523          46.750          36.0004
 129837681.540 6 101172220.554 6  24707289.481    24707289.540    24707293.854
  24707292.800          38.500          40.250
 128035171.887 6  99767664.632 6  24364284.571    24364284.316    24364289.150
  24364289.995          38.250          41.250
 114207872.030 8  88993149.817 8  21733034.541    21733034.855    21733035.699
  21733036.273          49.750          48.500
 20  1  2  0  6 30.0000000  0 10G15G16G10G05G20G21G13G27G26G29
 108928980.553 8  84879724.302 8  20728495.098    20728495.317    20728496.865
  20728496.565          53.750          52.250
 125965809.147 6  98155172.93244  23970495.096    23970496.398
  23970497.152          38.500          24.5004
 124485509.074 7  97001695.773 7  23688804.283    23688804.515    23688808.135
  23688808.867          42.500          45.000
 129822815.228 6 101160639.770 6  24704460.546    24704460.861    24704461.312
  24704460.747          41.750          39.000
 111603512.697 7  86963775.75147  21237441.099    21237440.540
  21237442.229          46.250          42.2504
 111528925.673 7  86905660.24447  21223247.490    21223246.911
  21223247.985          47.500          45.5004
 116588556.682 7  90848229.87346  22186063.862    22186063.407
  22186064.167          47.500          36.2504
 129736061.157 6 101093035.836 6  24687953.149    24687951.815    24687954.531
  24687955.494          40.250          39.500
 128094579.847 6  99813956.529 6  24375589.317    24375589.632    24375593.215
  24375594.326          38.500          39.500
 114296629.455 8  89062311.438 8  21749924.911    21749924.861    21749926.485
  21749926.402          49.750          49.000
 20  1  2  0  7  0.0000000  0 10G15G16G10G05G20G21G13G27G26G29
 108921861.632 8  84874177.094 8  20727140.257    20727140.708    20727142.204
  20727142.002          53.750          52.500
 125991229.732 6  98174981.17444  23975334.066    23975332.839
  23975335.444          38.250          24.2504
 124398648.749 7  96934012.411 7  23672275.268    23672275.216    23672278.366
  23672279.336          42.500          44.500
 129923797.812 6 101239327.459 6  24723676.929    24723676.972    24723677.811
  24723677.048          40.500          39.000
 111543409.061 7  86916941.76547  21226003.823    21226003.190
  21226004.997          46.750          42.5004
 111497595.225 7  86881246.90047  21217285.474    21217284.781
  21217285.969          47.750          45.2504
 116625644.570 7  90877129.51946  22193121.605    22193121.269
  22193122.464          47.250          36.0004
 129634646.842 6 101014011.694 6  24668652.626    24668653.721    24668657.278
  24668657.508          39.750          39.500
 128154302.312 6  99860493.527 6  24386954.851    24386954.368    24386959.039
  24386959.431          38.000          40.500
 114385766.899 8  89131769.170 8  21766887.182    21766887.140    21766888.318
  21766888.673          49.500          48.500
 20  1  2  0  7 30.0000000  0 10G15G16G10G05G20G21G13G27G26G29
 108915392.355 8  84869136.115 8  20725909.629    20725909.674    20725910.833
  20725910.692          53.750          52.000
 126017181.491 6  98195203.30844  23980272.149    23980271.309
  23980272.836          38.500          24.7504
 124311965.407 7  96866466.956 7  23655780.185    23655780.293    23655783.220
  23655783.388          43.000          44.750
 130024769.900 6 101318006.960 6  24742892.435    24742891.058    24742892.637
  24742891.494          41.250          39.250
 111483598.093 7  86870335.81147  21214622.403    21214621.539
  21214623.234          46.500          42.5004
 111466467.969 8  86856991.90047  21211362.298    21211361.710
  21211362.760          48.000          45.7504
 116663322.604 7  90906489.02945  22200291.168    22200290.683
  22200292.267          47.250          35.7504
 129533441.980 6 100935150.767 6  24649394.902    24649395.054    24649397.824
  24649398.153          39.750          39.750
 128214337.279 6  99907274.005 6  24398379.445    24398378.113    24398383.444
  24398383.791          38.000          40.250
 114475282.750 8  89201521.779 8  21783921.521    21783921.416    21783922.589
  21783922.769          49.750          48.250
 20  1  2  0  8  0.0000000  0 10G15G16G10G05G20G21G13G27G26G29
 108909572.681 9  84864601.305 8  20724802.010    20724802.232    20724803.397
  20724803.278          54.000          52.250
 126043662.887 6  98215838.18544  23985311.954    23985311.838
  23985312.041          38.500          25.0004
 124225459.444 7  96799059.722 7  23639318.553    23639318.666    23639322.228
  23639322.252          42.500          44.750
 130125730.162 7 101396677.332 6  24762104.625    24762104.805    24762105.412
  24762104.837          43.000          38.500
 111424079.879 7  86823957.98647  21203296.443    21203295.708
  21203297.294          46.750          42.5004
 111435544.306 7  86832895.54147  21205477.468    21205477.074
  21205477.896          47.750          45.7504
 116701589.176 7  90936307.14046  22207572.688    22207572.971
  22207574.317          47.250          36.0004
 129432448.915 6 100856454.863 6  24630175.923    24630175.969    24630180.072
  24630179.023          38.750          38.750
 128274681.707 6  99954295.636 6  24409861.057    24409861.286    24409866.025
  24409866.738          36.750          40.250
 114565174.793 8  89271567.521 8  21801026.890    21801027.138    21801029.131
  21801028.536          48.500          48.500
 20  1  2  0  8 30.0000000  0 10G15G16G10G05G20G21G13G27G26G29
 108904403.240 8  84860573.179 8  20723818.285    20723818.372    20723819.697
  20723819.485          53.500          52.250
 126070672.754 6  98236884.80644  23990451.561    23990451.219
  23990452.686          38.500          25.2504
 124139132.279 6  96731791.793 7  23622890.905    23622890.411    23622894.473
  23622894.819          41.750          44.750
 130226678.257 6 101475338.155 6  24781313.277    24781313.123    24781315.004
  24781313.972          41.000          38.000
 111364855.204 7  86777808.89747  21192026.114    21192025.513
  21192027.296          46.500          42.2504
 111404826.238 7  86808959.38347  21199631.997    21199631.561
  21199632.674          47.250          45.7504
 116740443.599 7  90966583.31745  22214966.540    22214966.149
  22214967.608          47.000          35.2504
 129331670.965 6 100777926.581 6  24610998.619    24610998.520    24611001.911
  24611001.167          39.750          38.500
 128335333.583 6 100001556.828 6  24421404.420    24421404.154    24421409.316
  24421408.238          38.750          40.750
 114655441.354 8  89341905.086 8  21818204.322    21818204.418    21818205.755
  21818205.969          49.250          48.250
 20  1  2  0  9  0.0000000  0 10G15G16G10G05G20G21G13G27G26G29
 108899884.405 8  84857052.017 8  20722958.422    20722958.424    20722959.625
  20722959.651          53.000          52.000
 126098209.227 6  98258341.79744  23995691.244    23995690.984
  23995691.514          36.750          24.5004
 124052984.584 7  96664663.728 7  23606497.304    23606497.567    23606500.911
  23606501.728          42.000          45.000
 130327612.484 7 101553988.183 6  24800521.132    24800521.443    24800522.531
  24800521.311          42.500          37.250
 111305924.919 7  86731889.19547  21180812.189    21180811.390
  21180812.951          47.000          42.5004
 111374314.509 7  86785184.00847  21193826.060    21193825.273
  21193826.427          47.500          45.7504
 116779884.416 7  90997316.42945  22222471.941    22222471.777
  22222472.962          47.000          35.2504
 129231110.859 6 100699568.068 6  24591863.654    24591863.160    24591865.961
  24591867.081          39.500          39.500
 128396290.125 6 100049055.412 6  24433002.206    24433002.545    24433007.649
  24433007.724          36.750          40.000
 114746079.905 8  89412532.522 8  21835452.344    21835452.400    21835454.016
  21835453.750          49.000          48.500
 20  1  2  0  9 30.0000000  0 10G15G16G10G05G20G21G13G27G26G29
 108896014.736 8  84854036.695 8  20722221.612    20722222.122    20722223.497
  20722223.218          52.500          52.250
 126126270.049 6  98280207.36043  24001030.825    24001030.845
  24001032.039          37.000          23.7504
 123967015.889 7  96597675.154 7  23590138.781    23590138.581    23590142.642
  23590142.802          42.500          45.250
 130428530.786 7 101632625.789 5  24819724.352    24819724.717    24819725.055
  24819724.282          42.250          34.250
 111247288.211 7  86686198.25447  21169654.044    21169653.308
  21169655.165          46.750          42.7504
 111344008.562 7  86761568.99147  21188058.830    21188058.320
  21188059.280          47.250          45.7504
 116819909.141 7  91028504.53245  22230088.753    22230088.044
  22230089.461          47.000          35.5004
 129130770.120 6 100621380.470 6  24572768.082    24572768.825    24572772.983
  24572772.851          37.750          40.500
 128457547.512 6 100096788.448 6  24444660.710    24444659.910    24444664.012
  24444664.078          37.750          39.750
 114837087.063 8  89483447.187 8  21852770.379    21852770.546    21852772.258
  21852772.046          48.750          48.500
 20  1  2  0 10  0.0000000  0 10G15G16G10G05G20G21G13G27G26G29
 108892795.888 8  84851528.510 8  20721609.485    20721609.542    20721611.129
  20721610.844          53.250          52.500
 126154854.770 6  98302481.14744  24006470.624    24006469.553
  24006471.509          36.750          24.2504
 123881228.184 7  96530827.588 7  23573813.698    23573813.533    23573816.956
  23573817.509          43.000          45.250
 130529433.409 7 101711251.135 6  24838925.155    24838925.676    24838927.145
  24838927.133          42.250          36.750
 111188946.608 7  86640737.26347  21158552.056    21158551.303
  21158553.015          46.500          42.5004
 111313911.486 7  86738116.71747  21182331.636    21182331.075
  21182332.142          47.250          45.7504
 116860517.779 7  91060147.63045  22237816.403    22237815.888
  22237817.050          47.750          35.7504
 129030652.757 6 100543366.907 6  24553716.034    24553716.856    24553720.840
  24553721.022          38.500          41.500
 128519104.203 6 100144754.702 6  24456373.591    24456373.831    24456377.542
  24456378.684          36.750          39.750
 114928461.872 8  89554648.323 8  21870158.241    21870158.429    21870160.232
  21870160.129          48.750          48.000
 20  1  2  0 10 30.0000000  0  9G15G10G05G20G21G13G27G26G29
 108890227.802 8  84849527.412 8  20721120.639    20721120.759    20721122.316
  20721122.046          52.000          52.250
 123795622.388 7  96464121.779 7  23557522.444    23557523.154    23557526.313
  23557526.983          42.000          45.250
 130630319.453 7 101789863.682 5  24858124.311    24858124.621    24858124.013
  24858124.646          42.750          35.750
 111130900.501 7  86595506.54247  21147506.325    21147505.338
  21147507.023          46.500          42.5004
 111284024.300 7  86714827.99647  21176644.466    21176643.753
  21176644.603          47.750          45.7504
 116901708.687 7  91092244.44545  22245654.814    22245654.157
  22245654.980          47.750          35.7504
 128930761.597 6 100465529.635 7  24534707.527    24534707.652    24534712.540
  24534712.160          38.000          42.500
 128580957.742 6 100192952.228 6  24468144.057    24468144.611    24468148.289
  24468149.074          37.000          40.250
 115020202.140 8  89626134.238 8  21887616.223    21887616.144    21887617.759
  21887617.690          49.000          48.250
 20  1  2  0 11  0.0000000  0  9G15G10G05G20G21G13G27G26G29
 108888309.827 8  84848032.900 8  20720755.964    20720755.876    20720757.428
  20720757.288          51.250          52.250
 123710198.596 7  96397557.807 7  23541267.486    23541267.980    23541271.593
  23541271.470          42.500          45.000
 130731188.038 7 101868462.571 6  24877318.827    24877318.771    24877318.645
  24877319.302          42.250          36.500
 111073149.516 7  86550505.76947  21136516.426    21136515.728
  21136517.784          47.250          42.7504
 111254347.228 7  86691703.00347  21170997.038    21170996.391
  21170997.494          47.500          45.7504
 116943480.154 7  91124793.63945  22253603.274    22253603.095
  22253604.408          47.750          35.5004
 128831098.814 6 100387870.323 7  24515743.074    24515743.136    24515747.239
  24515747.230          38.500          42.750
 128643104.743 6 100241378.462 6  24479969.608    24479970.545    24479974.017
  24479974.673          37.250          40.000
 115112305.109 8  89697902.782 7  21905142.440    21905142.486    21905144.149
  21905144.168          48.500          47.750
 20  1  2  0 11 30.0000000  0  9G15G10G05G20G21G13G27G26G29
 108887041.054 8  84847044.250 8  20720514.366    20720514.476    20720515.958
  20720515.640          50.250          52.250
 123624956.452 7  96331135.334 7  23525046.530    23525046.618    23525049.880
  23525050.438          42.750          45.250
 130832035.649 6 101947045.115 5  24896508.869    24896509.734    24896509.711
  24896508.891          41.500          35.000
 111015694.034 7  86505735.27747  21125582.887    21125582.208
  21125583.925          46.500          42.7504
 111224880.332 7  86668741.77847  21165389.555    21165389.072
  21165389.970          46.500          45.7504
 116985829.491 7  91157793.11145  22261662.324    22261661.994
  22261662.991          47.750          35.5004
 128731666.050 6 100310390.263 7  24496821.736    24496822.032    24496825.805
  24496826.349          39.750          42.000
 128705541.446 6 100290030.437 6  24491851.108    24491851.331    24491855.542
  24491857.438          36.250          40.750
 115204767.406 8  89769951.323 7  21922737.687    21922737.618    21922739.124
  21922739.140          48.500          47.500
 20  1  2  0 12  0.0000000  0  9G15G10G05G20G21G13G27G26G29
 108886422.506 8  84846562.275 8  20720396.636    20720396.718    20720398.355
  20720397.977          51.250          52.250
 123539897.610 6  96264855.718 7  23508860.124    23508860.315    23508863.814
  23508864.498          41.750          45.500
 130932862.680 6 102025611.643 6  24915695.008    24915695.442    24915698.899
  24915699.070          41.500          39.250
 110958534.702 7  86461195.52747  21114705.817    21114705.362
  21114706.996          47.000          43.0004
 111195625.404 7  86645945.72447  21159822.604    21159821.894
  21159823.029          47.750          45.5004
 117028756.138 8  91191242.44545  22269831.040    22269830.905
  22269832.049          48.000          35.7504
 128632466.983 6 100233092.298 6  24477945.315    24477943.648    24477948.228
  24477948.254          40.500          41.000
 128768266.080 6 100338906.759 6  24503787.395    24503787.622    24503791.904
  24503791.988          37.000          39.250
 115297587.784 8  89842278.873 8  21940400.759    21940400.756    21940402.724
  21940402.269          48.250          48.250
 20  1  2  0 12 30.0000000  0 10G15G10G05G20G21G13G27G16G26G29
 108886453.009 8  84846586.050 8  20720402.271    20720402.502    20720403.815
  20720403.543          51.500          52.000
 123455021.891 6  96198718.810 7  23492709.052    23492708.830    23492713.201
  23492713.561          41.750          46.000
 131033667.425 6 102104160.835 6  24934877.165    24934877.843    24934879.833
  24934878.567          40.250          37.250
 110901670.998 7  86416886.17747  21103885.211    21103884.549
  21103886.030          46.000          42.7504
 111166582.796 7  86623315.11647  21154296.106    21154295.356
  21154296.409          47.000          46.0004
 117072257.888 8  91225139.92345  22278108.964    22278108.800
  22278109.922          48.000          35.5004
 128533503.455 6 100155977.861 6  24459112.896    24459112.221    24459115.853
  24459115.319          41.000          40.500
 126305566.320 6  98419920.47443  24035151.117    24035149.442
  24035150.879          36.000          23.2504
 128831274.983 6 100388004.600 6  24515778.476    24515778.217    24515782.819
  24515783.282          38.000          41.250
 115390762.829 8  89914882.810 7  21958131.552    21958131.896    21958132.784
  21958132.985          48.500          47.750
 20  1  2  0 13  0.0000000  0  9G15G10G05G20G21G13G27G26G29
 108887133.462 8  84847116.281 8  20720531.834    20720532.183    20720533.283
  20720533.177          50.250          52.500
 123370330.926 7  96132725.858 7  23476592.923    23476593.035    23476596.695
  23476597.005          42.000          45.750
 131134449.596 6 102182692.388 6  24954055.977    24954057.036    24954058.939
  24954056.713          40.750          38.000
 110845104.574 7  86372808.42347  21093120.971    21093120.408
  21093121.857          46.750          43.0004
 111137754.967 7  86600851.86347  21148810.217    21148809.533
  21148810.680          46.750          45.7504
 117116334.016 8  91259484.98245  22286496.800    22286496.435
  22286497.123          48.000          35.5004
 128434779.182 6 100079049.866 6  24440326.388    24440326.109    24440329.271
  24440329.684          41.250          39.750
 128894566.325 6 100437322.543 6  24527821.642    24527820.754    24527825.779
  24527826.905          36.250          40.250
 115484291.415 7  89987762.226 8  21975929.244    21975929.060    21975931.105
  21975930.986          47.500          48.250
 20  1  2  0 13 30.0000000  0  8G15G10G05G20G21G13G27G29
 108888464.495 8  84848153.451 8  20720785.128    20720785.275    20720786.437
  20720786.430          50.500          52.250
 123285826.197 7  96066878.011 7  23460512.501    23460512.259    23460515.684
  23460516.336          42.750          45.750
 131235208.817 6 102261206.068 6  24973230.427    24973230.637    24973231.224
  24973229.773          41.000          37.000
 110788836.421 7  86328963.13347  21082413.420    21082412.740
  21082414.537          47.000          43.0004
 111109142.980 7  86578556.80147  21143365.477    21143364.884
  21143366.002          46.750          45.5004
 117160983.799 8  91294277.01745  22294992.879    22294992.887
  22294994.200          48.250          35.2504
 128336297.637 6 100002310.996 6  24421585.732    24421585.669    24421589.652
  24421588.423          41.250          39.750
 115578172.001 7  90060915.913 8  21993794.108    21993794.094    21993795.670
  21993795.898          47.750          48.000
 20  1  2  0 14  0.0000000  0  8G15G10G05G20G21G13G27G29
 108890443.593 8  84849695.610 8  20721161.870    20721161.816    20721163.108
  20721163.024          50.250          52.500
 123201506.006 7  96001173.973 7  23444466.270    23444466.299    23444470.058
  23444470.468          42.000          46.000
 131335941.897 6 102339699.330 6  24992399.151    24992399.522    24992400.765
  24992400.788          39.750          39.000
 110732864.460 7  86285348.60447  21071762.545    21071761.832
  21071763.178          46.250          43.0004
 111080745.724 7  86556429.06447  21137961.536    21137961.161
  21137962.179          46.750          45.7504
 117206203.232 7  91329512.95945  22303597.538    22303597.794
  22303598.857          47.250          35.5004
 128238059.191 6  99925761.567 6  24402890.909    24402891.500    24402894.001
  24402894.621          40.250          39.000
 115672399.903 8  90134340.246 8  22011725.408    22011725.368    22011727.309
  22011727.060          48.250          48.250
 20  1  2  0 14 30.0000000  0  8G15G05G10G20G21G13G27G29
 108893072.241 8  84851743.918 8  20721661.815    20721662.159    20721663.560
  20721663.461          50.250          52.500
 131436648.145 6                  25011563.363
                        40.250
 123117372.676 6  95935615.542 7  23428455.966    23428456.429    23428460.276
  23428460.814          41.750          45.750
 110677190.861 7  86241966.59847  21061168.098    21061167.459
  21061169.100          46.500          43.0004
 111052566.524 7  86534471.24947  21132599.151    21132598.795
  21132599.937          46.250          45.5004
 117251992.486 7  91365192.88145  22312310.976    22312311.106
  22312312.448          47.500          35.2504
 128140068.287 6  99849405.021 6  24384244.356    24384244.136    24384246.368
  24384247.186          40.250          38.750
 115766974.199 7  90208034.496 8  22029722.234    22029722.131    22029724.315
  22029724.002          47.750          48.000
 20  1  2  0 15  0.0000000  0  8G15G05G10G20G21G13G27G29
 108896349.431 8  84854297.591 8  20722285.692    20722285.705    20722287.225
  20722286.995          50.750          52.250
 131537328.807 6 102496624.969 6  25030721.006    25030721.611    25030723.222
  25030723.816          38.500          40.500
 123033426.019 7  95870202.569 7  23412482.271    23412481.665    23412485.469
  23412485.845          42.000          46.250
 110621815.140 7  86198816.67447  21050630.805    21050629.822
  21050631.682          46.500          43.2504
 111024605.000 7  86512683.04447  21127278.491    21127278.028
  21127278.984          47.000          45.7504
 117298349.032 7  91401314.86945  22321132.056    22321132.138
  22321133.747          47.500          35.5004
 128042326.729 6  99773242.777 6  24365644.164    24365644.339    24365648.485
  24365648.560          39.750          40.250
 115861891.777 7  90281996.238 7  22047784.243    22047784.312    22047785.748
  22047785.945          47.500          47.750
 20  1  2  0 15 30.0000000  0  8G15G05G10G20G21G13G27G29
 108900275.344 8  84857356.754 8  20723032.673    20723032.828    20723034.134
  20723034.032          50.500          52.500
 131637981.587 6 102575055.659 6  25049875.497    25049875.078    25049876.778
  25049876.859          39.250          39.500
 122949667.258 6  95804936.010 7  23396542.720    23396543.470    23396546.559
  23396547.344          41.750          45.750
 110566738.019 7  86155899.44647  21040149.669    21040149.000
  21040150.131          46.750          43.0004
 110996863.061 7  86491065.94747  21121999.502    21121998.782
  21121999.806          47.000          45.7504
 117345271.785 7  91437878.05245  22330061.561    22330061.597
  22330062.808          47.250          35.2504
 127944837.842 6  99697277.405 6  24347092.965    24347093.005    24347097.344
  24347097.166          39.500          41.250
 115957150.892 8  90356224.119 7  22065911.546    22065911.546    22065913.157
  22065913.046          48.000          47.500
 20  1  2  0 16  0.0000000  0  8G15G05G10G20G21G13G27G29
 108904849.003 8  84860920.647 8  20723903.255    20723903.115    20723904.644
  20723904.382          50.750          52.250
 131738604.787 6 102653463.359 6  25069024.374    25069024.245    25069024.856
  25069024.111          41.250          39.750
 122866096.487 7  95739815.940 7  23380640.233    23380640.332    23380643.230
  23380643.988          42.000          45.500
 110511959.522 7  86113214.88647  21029725.381    21029724.659
  21029726.579          46.000          43.2504
 110969340.779 7  86469620.01247  21116762.155    21116761.461
  21116762.462          47.750          46.0004
 117392758.481 7  91474880.69045  22339098.252    22339097.754
  22339099.325          47.500          35.0004
 127847603.788 6  99621510.608 7  24328590.400    24328590.299    24328593.905
  24328593.867          41.250          42.000
 116052748.486 7  90430715.747 7  22084102.876    22084103.255    22084105.222
  22084104.927          47.250          47.500
 20  1  2  0 16 30.0000000  0  8G15G05G10G20G21G13G27G29
 108910069.567 8  84864988.634 8  20724896.556    20724896.620    20724897.708
  20724897.673          50.750          52.250
 131839196.511 6 102731846.545 6  25088164.872    25088165.201    25088166.985
  25088165.503          39.750          38.500
 122782713.474 7  95674842.155 7  23364773.529    23364773.031    23364776.632
  23364777.306          42.250          45.750
 110457479.420 7  86070762.89047  21019358.251    21019357.816
  21019359.123          46.000          43.2504
 110942038.429 7  86448345.45447  21111566.858    21111565.937
  21111566.941          47.750          45.7504
 117440806.635 7  91512320.79745  22348241.579    22348241.370
  22348242.763          47.500          34.7504
 127750626.502 6  99545943.881 7  24310136.223    24310135.890    24310139.775
  24310140.434          41.750          42.500
 116148681.439 8  90505468.684 7  22102358.809    22102358.792    22102360.708
  22102360.476          48.500          47.750
 20  1  2  0 17  0.0000000  0  8G15G05G10G20G21G13G27G29
 108915937.903 8  84869561.369 8  20726013.090    20726013.381    20726014.304
  20726014.249          50.500          52.000
 131939757.775 6 102810205.922 6  25107301.583    25107302.282    25107303.122
  25107302.248          41.250          39.000
 122699520.364 6  95610016.368 7  23348942.018    23348941.578    23348945.268
  23348945.583          41.500          45.750
 110403299.119 7  86028544.44247  21009048.199    21009047.289
  21009049.050          46.000          43.0004
 110914958.373 7  86427244.10647  21106413.270    21106412.814
  21106413.917          47.500          45.7504
 117489415.974 7  91550198.20745  22357491.661    22357491.471
  22357492.804          47.750          34.5004
 127653910.114 7  99470580.455 7  24291731.507    24291731.572    24291735.199
  24291735.434          42.000          42.750
 116244948.908 8  90580482.301 7  22120678.070    22120677.739    22120679.762
  22120679.503          48.000          47.500
 20  1  2  0 17 30.0000000  0  8G15G05G10G20G21G13G27G29
 108922452.647 8  84874637.788 8  20727252.951    20727252.972    20727254.513
  20727254.177          50.500          52.500
 132040286.429 6 102888539.932 6  25126431.166    25126431.072    25126433.413
  25126433.572          40.250          40.000
 122616516.815 7  95545338.283 7  23333147.162    23333147.544    23333150.222
  23333150.709          42.250          46.250
 110349418.192 7  85986559.33747  20998795.255    20998794.355
  20998795.973          46.500          43.5004
 110888101.674 8  86406316.81047  21101302.666    21101302.230
  21101303.308          48.250          45.7504
 117538583.806 7  91588510.80045  22366848.143    22366846.990
  22366849.073          47.500          34.7504
 127557456.413 6  99395421.726 7  24273376.935    24273376.675    24273380.552
  24273379.876          41.500          42.500
 116341547.630 7  90655754.042 7  22139059.720    22139059.924    22139061.486
  22139061.512          47.500          47.500
 20  1  2  0 18  0.0000000  0  8G15G05G10G20G21G13G27G29
 108929614.121 8  84880218.171 8  20728615.519    20728615.752    20728617.210
  20728617.013          51.000          52.500
 132140781.950 6 102966848.104 6  25145555.544    25145555.485    25145557.672
  25145556.158          40.000          37.500
 122533704.153 7  95480808.942 7  23317388.266    23317388.638    23317392.085
  23317392.443          42.250          46.250
 110295837.259 7  85944807.94447  20988599.063    20988598.023
  20988599.765          46.500          43.2504
 110861469.550 8  86385564.49747  21096234.840    21096234.071
  21096235.344          48.250          45.7504
 117588309.229 7  91627257.90545  22376310.350    22376309.957
  22376311.723          47.000          34.7504
 127461268.818 6  99320470.348 7  24255073.174    24255072.652    24255076.274
  24255076.662          41.500          42.000
 116438475.576 7  90731282.306 7  22157504.440    22157504.494    22157506.382
  22157506.484          47.000          47.500
 20  1  2  0 18 30.0000000  0  9G15G05G10G20G21G13G27G16G29
 108937421.486 8  84886301.839 8  20730101.278    20730101.313    20730102.609
  20730102.659          51.250          52.250
 132241243.096 6 103045129.527 6  25164672.486    25164672.400    25164673.038
  25164673.923          40.250          39.250
 122451082.461 6  95416428.407 7  23301665.276    23301665.662    23301668.617
  23301669.445          41.750          45.500
 110242556.779 7  85903290.70747  20978460.124    20978459.524
  20978460.846          47.250          43.5004
 110835062.158 8  86364987.30747  21091209.668    21091209.103
  21091210.071          48.250          45.7504
 117638589.657 7  91666437.45645  22385878.392    22385878.211
  22385879.642          47.250          34.2504
 127365349.584 6  99245728.085 7  24236820.603    24236819.771    24236824.173
  24236823.780          41.750          42.250
 126719120.112 6  98742176.20844  24113847.213    24113847.324
  24113848.860          36.750          24.5004
 116535729.932 7  90807064.911 7  22176011.149    22176011.303    22176013.445
  22176013.179          46.750          47.750
 20  1  2  0 19  0.0000000  0 10G15G05G10G16G20G21G13G27G26G29
 108945874.797 8  84892888.841 8  20731709.857    20731710.027    20731711.358
  20731711.260          51.250          52.500
 132341668.971 6 103123383.449 6  25183782.832    25183782.384    25183784.099
  25183783.599          40.750          36.500
 122368652.647 7  95352197.381 7  23285979.514    23285979.778    23285982.725
  23285983.140          42.000          45.500
 126756814.440 6  98771545.80244  24121020.683    24121019.884
  24121021.279          37.000          24.0004
 110189577.153 7  85862007.87247  20968378.094    20968377.177
  20968379.079          47.000          43.2504
 110808881.172 8  86344586.53347  21086227.721    21086226.989
  21086228.140          48.500          45.7504
 117689423.506 7  91706048.26345  22395551.581    22395551.549
  22395552.620          47.250          34.5004
 127269701.708 6  99171197.272 7  24218619.782    24218619.237    24218622.219
  24218622.566          41.250          42.250
 129675053.995 6 101045493.095 6  24676341.676    24676341.277    24676345.969
  24676345.018          36.500          36.000
 116633308.624 7  90883100.253 7  22194579.709    22194580.079    22194581.449
  22194581.534          46.750          46.750
 20  1  2  0 19 30.0000000  0 10G15G05G10G26G20G21G16G13G27G29
 108954973.951 8  84899979.106 8  20733441.192    20733441.502    20733443.099
  20733442.784          51.250          52.500
 132442059.873 6 103201610.133 6  25202886.624    25202885.713    25202888.068
  25202888.098          40.000          37.250
 122286416.157 6  95288117.003 7  23270330.273    23270330.611    23270334.152
  23270334.492          41.500          46.250
 129741752.339 6 101097468.004 5  24689034.737    24689035.246    24689039.122
  24689039.409          36.750          35.500
 110136899.367 7  85820960.25947  20958354.031    20958353.524
  20958354.869          47.750          43.5004
 110782928.726 8  86324363.84247  21081289.009    21081288.406
  21081289.609          48.500          45.7504
 126794996.572 6  98801296.31643  24128285.628    24128285.583
  24128286.858          36.750          22.0004
 117740810.312 7  91746089.91845  22405329.720    22405329.954
  22405331.268          46.250          34.5004
 127174328.743 6  99096880.674 7  24200470.017    24200470.464    24200473.818
  24200473.811          40.500          42.000
 116731209.632 7  90959386.757 7  22213210.294    22213210.078    22213212.015
  22213211.400          47.500          47.000
 20  1  2  0 20  0.0000000  0 10G15G05G10G26G20G21G16G13G27G29
 108964717.238 8  84907571.278 8  20735295.466    20735295.694    20735296.955
  20735296.859          51.750          52.250
 132542413.197 6 103279807.562 5  25221983.193    25221983.741    25221983.409
  25221983.905          39.500          33.250
 122204372.301 7  95224186.742 7  23254718.104    23254718.631    23254722.419
  23254722.104          42.500          46.500
 129808696.792 6 101149632.474 6  24701774.090    24701773.508    24701779.323
  24701779.361          36.250          41.250
 110084522.472 7  85780147.09447  20948386.853    20948386.053
  20948388.033          47.250          43.2504
 110757204.554 8  86304319.02347  21076393.848    21076393.296
  21076394.331          48.750          45.7504
 126833662.919 6  98831425.96243  24135644.191    24135643.401
  24135644.878          36.250          23.7504
 117792746.630 7  91786559.78045  22415213.743    22415212.740
  22415214.134          46.750          34.5004
 127079232.108 6  99022779.404 7  24182373.111    24182373.507    24182377.265
  24182377.952          40.250          42.500
 116829429.530 7  91035921.733 7  22231900.332    22231900.470    22231903.013
  22231902.626          46.500          47.250
 20  1  2  0 20 30.0000000  0 10G26G15G05G10G20G21G16G13G27G29
 129875878.981 6 101201984.791 6  24714558.467    24714558.307    24714563.791
  24714563.067          36.250          38.000
 108975104.800 8  84915665.486 8  20737272.238    20737272.486    20737273.565
  20737273.357          52.750          52.000
 132642728.340 6 103357975.213 6  25241072.330    25241072.610    25241072.893
  25241074.575          38.750          36.500
 122122522.242 7  95160407.482 7  23239142.773    23239142.740    23239146.170
  23239147.119          42.750          46.750
 110032447.437 8  85739569.15847  20938477.763    20938476.990
  20938478.354          48.000          43.7504
 110731709.957 8  86284453.09947  21071542.393    21071541.868
  21071542.887          49.000          45.7504
 126872814.050 6  98861935.55544  24143093.710    24143093.240
  24143094.721          36.750          25.2504
 117845231.059 7  91827456.73745  22425200.407    22425200.714
  22425201.591          46.500          34.2504
 126984415.077 6  98948896.028 7  24164330.581    24164330.031    24164334.275
  24164334.197          40.750          42.000
 116927966.441 7  91112703.735 7  22250651.155    22250651.335    22250653.652
  22250653.066          47.500          47.250
 20  1  2  0 21  0.0000000  0 10G15G05G10G26G20G21G16G13G27G29
 108986135.514 8  84924260.853 8  20739371.307    20739371.445    20739372.485
  20739372.430          52.500          52.000
 132743004.440 6 103436112.466 5  25260154.260    25260154.856    25260156.552
  25260156.038          36.500          34.250
 122040866.106 7  95096779.334 7  23223604.099    23223603.813    23223607.865
  23223608.169          42.750          46.500
 129943301.585 6 101254521.310 6  24727388.428    24727388.195    24727393.387
  24727392.602          36.750          36.000
 109980674.160 7  85699226.34347  20928625.344    20928624.440
  20928626.217          47.250          43.5004
 110706445.581 8  86264766.56847  21066734.743    21066734.074
  21066735.360          49.000          45.7504
 126912445.578 6  98892817.25644  24150635.776    24150636.221
  24150636.490          37.250          24.2504
 117898261.444 7  91868779.11645  22435292.191    22435291.915
  22435293.817          46.250          34.7504
 126889879.971 6  98875232.320 7  24146341.756    24146341.601    24146344.127
  24146345.059          41.250          42.500
 117026817.599 7  91189730.617 7  22269462.205    22269462.473    22269464.378
  22269464.133          47.000          46.750
 20  1  2  0 21 30.0000000  0 10G15G05G10G26G20G21G16G13G27G29
 108997808.154 8  84933356.424 8  20741592.631    20741592.742    20741593.635
  20741593.727          52.750          51.750
 132843240.066 6 103514218.188 6  25279228.388    25279228.649    25279230.543
  25279230.848          37.500          36.500
 121959403.901 7  95033302.300 7  23208101.684    23208101.743    23208105.662
  23208106.355          42.500          45.750
 130010955.286 6 101307238.465 6  24740261.296    24740261.973    24740267.205
  24740268.173          36.500          41.500
 109929201.990 7  85659118.16447  20918830.391    20918829.680
  20918831.398          47.750          44.0004
 110681412.152 8  86245259.98547  21061971.177    21061970.555
  21061971.494          49.000          45.7504
 126952555.373 6  98924071.61843  24158267.437    24158267.447
  24158269.466          36.750          23.7504
 117951835.248 7  91910524.92345  22445486.690    22445486.592
  22445488.141          46.250          34.2504
 126795628.917 6  98801789.943 7  24128407.039    24128406.562    24128410.145
  24128409.568          41.750          43.250
 117125979.824 7  91266999.886 7  22288332.383    22288332.162    22288333.925
  22288333.761          47.250          46.750
 20  1  2  0 22  0.0000000  0  9G15G10G26G20G21G16G13G27G29
 109010123.146 8  84942952.528 8  20743935.770    20743936.089    20743937.504
  20743937.095          52.750          52.250
 121878137.056 7  94969977.491 7  23192637.525    23192638.211    23192640.977
  23192641.936          43.750          45.750
 130078839.902 6 101360135.588 6  24753181.005    24753180.562    24753184.344
  24753184.325          38.750          39.750
 109878032.503 8  85619245.83947  20909093.112    20909092.620
  20909094.215          48.000          43.7504
 110656611.395 8  86225934.71647  21057251.717    21057251.133
  21057252.162          49.250          45.7504
 126993142.308 6  98955697.83243  24165991.335    24165990.935
  24165992.849          36.000          23.0004
 118005951.580 7  91952693.50345  22455784.881    22455784.652
  22455786.447          46.250          34.2504
 126701665.470 7  98728571.681 7  24110526.020    24110525.735    24110529.477
  24110529.417          42.000          43.750
 117225451.455 7  91344510.259 7  22307261.127    22307261.078    22307263.035
  22307263.242          47.500          47.250
 20  1  2  0 22 30.0000000  0  9G16G15G10G26G20G21G13G27G29
 127034208.639 6                  24173806.177
                        38.250
 109023079.214 8  84953048.175 8  20746401.396    20746401.456    20746402.895
  20746402.766          53.250          52.250
 121797065.612 7  94906804.942 7  23177210.252    23177210.581    23177213.902
  23177213.989          43.750          46.000
 130146952.143 6 101413210.057 6  24766141.748    24766141.127    24766146.395
  24766145.947          37.250          40.500
 109827165.189 8  85579608.98647  20899413.631    20899412.840
  20899414.573          48.250          44.0004
 110632043.983 8  86206791.26947  21052576.812    21052576.008
  21052577.153          49.000          45.7504
 118060607.658 7  91995282.65145  22466185.772    22466185.318
  22466186.089          46.000          34.2504
 126607991.839 7  98655579.243 7  24092700.575    24092700.607    24092703.760
  24092703.503          42.750          43.750
 117325229.523 7  91422259.385 7  22326248.479    22326248.166    22326250.307
  22326250.184          47.750          47.000
 20  1  2  0 23  0.0000000  0 10G16G15G10G26G20G21G05G13G27G29
 127075743.150 6  99020059.19944  24181709.365    24181708.820
  24181710.144          37.500          24.7504
 109036676.093 8  84963643.159 8  20748988.790    20748988.953    20748990.161
  20748990.147          53.500          52.000
 121716190.736 7  94843785.582 7  23161820.230    23161820.419    23161823.723
  23161824.145          43.750          45.750
 130215289.719 6 101466460.106 6  24779145.827    24779145.836    24779150.716
  24779151.332          38.000          40.250
 109776600.898 8  85540208.24547  20889791.512    20889790.745
  20889792.426          48.000          44.0004
 110607711.577 8  86187830.95147  21047946.372    21047945.796
  21047946.818          48.750          46.0004
 133143704.340 6 103748338.792 5  25336403.371                    25336405.063
                        36.750          33.500
 118115802.395 7  92038291.53945  22476689.254    22476688.646
  22476689.982          46.500          34.5004
 126514611.331 7  98582815.215 7  24074930.947    24074930.349    24074934.031
  24074934.434          42.250          44.000
 117425312.076 7  91500245.786 7  22345293.220    22345293.254    22345295.100
  22345294.732          47.250          46.250
 20  1  2  0 23 30.0000000  0  9G16G15G10G26G20G21G13G27G29
 127117748.335 6  99052790.50744  24189703.174    24189702.269
  24189703.936          38.000          25.0004
 109050912.854 8  84974736.746 8  20751698.039    20751698.126    20751699.485
  20751699.251          53.500          52.250
 121635512.759 7  94780919.618 7  23146468.092    23146467.990    23146471.440
  23146472.115          44.500          46.250
 130283849.445 6 101519883.262 6  24792192.127    24792192.400    24792197.160
  24792197.326          37.250          40.500
 109726340.006 8  85501043.92247  20880227.295    20880226.570
  20880228.005          49.000          44.2504
 110583614.941 8  86169054.34947  21043361.081    21043360.279
  21043361.400          49.000          46.0004
 118171533.341 7  92081718.25345  22487293.811    22487293.709
  22487294.989          45.750          34.0004
 126421526.399 7  98510281.496 7  24057217.183    24057216.974    24057220.922
  24057220.763          42.000          43.500
 117525696.352 7  91578467.291 7  22364396.184    22364395.667    22364397.121
  22364397.394          47.750          46.250
 20  1  2  0 24  0.0000000  0  9G16G15G10G26G20G21G13G27G29
 127160221.722 6  99085886.64644  24197784.768    24197785.473
  24197786.261          37.500          24.5004
 109065788.782 9  84986328.389 8  20754528.880    20754528.919    20754530.280
  20754529.876          54.250          52.000
 121555031.961 7  94718207.319 7  23131152.955    23131152.754    23131155.925
  23131156.422          44.000          45.500
 130352628.184 6 101573477.089 6  24805279.826    24805280.130    24805285.184
  24805285.542          37.250          40.250
 109676382.352 8  85462115.88047  20870720.506    20870719.880
  20870721.274          48.750          44.2504
 110559754.936 8  86150462.13147  21038820.480    21038819.983
  21038821.013          49.000          46.2504
 118227798.494 7  92125561.24445  22498000.507    22498000.601
  22498002.013          45.250          34.0004
 126328739.547 6  98437980.054 7  24039560.050    24039559.947    24039563.286
  24039563.608          41.500          43.750
 117626379.741 7  91656921.885 7  22383555.012    22383555.434    22383557.212
  22383556.942          47.500          46.500
 20  1  2  0 24 30.0000000  0  9G16G15G10G26G20G21G13G27G29
 127203161.350 6  99119346.07644  24205956.449    24205955.814
  24205956.989          37.500          24.5004
 109081303.319 9  84998417.645 8  20757481.140    20757481.237    20757482.433
  20757482.319          54.000          52.250
 121474749.410 7  94655649.474 7  23115875.390    23115875.652    23115878.840
  23115879.327          43.750          46.250
 130421623.631 6 101627239.755 6  24818409.243    24818408.997    24818415.457
  24818414.883          37.000          40.500
 109626728.768 8  85423424.77847  20861271.885    20861271.109
  20861272.497          48.500          44.2504
 110536133.111 8  86132055.51047  21034325.587    21034324.931
  21034325.928          49.250          46.0004
 118284596.275 7  92169819.25745  22508809.172    22508808.985
  22508810.029          45.750          34.0004
 126236253.982 7  98365913.374 7  24021960.662    24021960.356    24021963.672
  24021963.664          42.000          44.000
 117727360.039 8  91735607.826 7  22402771.013    22402771.221    22402772.766
  22402772.757          48.000          46.500
 20  1  2  0 25  0.0000000  0  9G16G15G10G26G20G21G13G27G29
 127246565.012 6  99153167.11244  24214214.706    24214215.164
  24214217.642          36.750          24.5004
 109097455.280 9  85011003.593 8  20760554.721    20760554.875    20760555.885
  20760555.906          54.500          52.000
