     2.11           OBSERVATION DATA    G (GPS)             RINEX VERSION / TYPE
teqc  2018Jun8                          20200105 01:12:02UTCPGM / RUN BY / DATE
Linux 2.4.20-8|x86|gcc -static|Linux 32|=+                  COMMENT
BIT 2 OF LLI FLAGS DATA COLLECTED UNDER A/S CONDITION       COMMENT
POL2                                                        MARKER NAME
GGN                 JPL                                     OBSERVER / AGENCY
02563                 Javad Delta-3             1s jps      REC # / TYPE / VERS
383-1030            TPSCR.G3                                ANT # / TYPE
  1239971.4511  4530790.0876  4302578.7950                  APPROX POSITION XYZ
        0.0780        0.0000        0.0000                  ANTENNA: DELTA H/E/N
     1     1                                                WAVELENGTH FACT L1/2
     8    L1    L2    C1    P1    C2    P2    S1    S2      # / TYPES OF OBSERV
    30.0000                                                 INTERVAL
Forced Modulo Decimation to 30 seconds                      COMMENT
 SNR is mapped to RINEX snr flag value [0-9]                COMMENT
  L1 & L2: min(max(int(snr_dBHz/6), 0), 9)                  COMMENT
teqc edited: all GLONASS satellites excluded                COMMENT
teqc edited: all SBAS satellites excluded                   COMMENT
teqc edited: all Galileo satellites excluded                COMMENT
teqc edited: all Beidou satellites excluded                 COMMENT
teqc edited: all QZSS satellites excluded                   COMMENT
teqc edited: all IRNSS satellites excluded                  COMMENT
pseudorange smoothing corrections not applied               COMMENT
  2020     1     5     0     0    0.0000000     GPS         TIME OF FIRST OBS
                                                            END OF HEADER
 20  1  5  0  0  0.0000000  0 10G26G16G05G29G10G27G21G20G15G13
 128799109.937 6 100362946.183 6  24509656.727    24509656.140    24509661.665
  24509661.433          36.750          40.500
 126292874.671 6  98410030.88544  24032734.307    24032735.592
  24032735.523          37.000          24.5004
 131066180.151 7 102129491.160 6  24941063.833    24941064.028    24941065.885
  24941064.979          43.250          40.000
 115362229.492 8  89892644.134 8  21952699.536    21952699.423    21952700.298
  21952700.247          48.750          48.000
 123490290.833 7  96226203.600 7  23499420.705    23499420.823    23499424.870
  23499425.061          42.250          45.750
 128575025.127 6 100188334.214 6  24467014.599    24467014.206    24467017.051
  24467017.325          41.250          40.500
 111160284.130 7  86618404.23447  21153095.716    21153094.921
  21153095.827          47.250          46.0004
 110902540.602 7  86417564.48647  21104049.862    21104049.302
  21104050.811          46.500          42.7504
 108892630.429 8  84851403.383 8  20721577.386    20721577.517    20721578.282
  20721578.201          51.250          52.000
 117053431.385 7  91210471.20046  22274526.039    22274526.123
  22274527.052          47.750          36.0004
 20  1  5  0  0 30.0000000  0 10G26G16G05G29G10G27G21G20G15G13
 128862222.345 6 100412124.681 7  24521667.010    24521667.275    24521671.559
  24521672.309          37.250          42.500
 126324291.148 6                  24038713.433
                        36.000
 131166990.775 7 102208044.897 6  24960246.929    24960247.194    24960248.124
  24960246.871          42.250          38.000
 115455621.312 8  89965416.983 8  21970471.216    21970471.016    21970472.210
  21970472.233          48.000          48.000
 123405542.845 7  96160166.215 7  23483293.521    23483294.008    23483297.599
  23483298.115          42.750          45.750
 128476211.689 6 100111336.744 6  24448210.617    24448211.043    24448213.965
  24448213.309          41.500          40.000
 111131548.078 7  86596012.50747  21147627.413    21147626.586
  21147627.511          46.750          45.7504
 110845974.717 7  86373487.15747  21093286.370    21093285.613
  21093286.516          47.500          43.2504
 108893219.236 8  84851862.201 8  20721689.564    20721689.634    20721690.542
  20721690.279          51.500          52.250
 117097263.525 7  91244626.10746  22282867.317    22282867.199
  22282868.132          47.750          36.0004
 20  1  5  0  1  0.0000000  0  9G26G05G29G10G27G21G20G15G13
 128925616.507 6 100461522.715 6  24533731.027    24533730.196    24533734.604
  24533735.453          36.250          41.250
 131267778.025 6 102286580.384 6  24979425.418    24979425.579    24979425.984
  24979425.826          40.500          37.750
 115549365.141 7  90038464.110 7  21988309.557    21988309.780    21988311.562
  21988311.386          47.750          47.750
 123320980.506 7  96094273.501 7  23467202.176    23467202.739    23467205.891
  23467206.440          42.750          46.250
 128377639.525 6 100034527.287 6  24429453.378    24429453.373    24429456.067
  24429455.498          41.500          39.750
 111103027.381 7  86573788.58647  21142199.922    21142199.315
  21142200.282          47.750          46.2504
 110789706.372 7  86329641.72647  21082578.453    21082577.624
  21082579.432          46.750          43.0004
 108894458.354 8  84852827.752 8  20721925.321    20721925.427    20721925.972
  20721926.034          51.250          52.250
 117141669.403 8  91279228.10746  22291317.425    22291317.189
  22291317.996          48.250          36.0004
 20  1  5  0  1 30.0000000  0  8G05G29G10G27G21G20G15G13
 131368542.510 6 102365098.140 5  24998599.746    24998599.909    24998601.426
  24998600.798          39.500          35.250
 115643461.071 8  90111785.606 8  22006215.983    22006216.092    22006217.376
  22006217.097          48.750          48.250
 123236606.353 7  96028527.402 7  23451146.356    23451146.436    23451150.508
  23451150.150          42.000          46.000
 128279313.310 6  99957909.464 6  24410742.527    24410741.609    24410745.075
  24410744.822          41.000          39.250
 111074725.186 7  86551734.92547  21136814.176    21136813.612
  21136814.552          47.000          46.0004
 110733738.692 7  86286030.53547  21071928.585    21071927.768
  21071928.805          46.750          43.5004
 108896349.293 8  84854301.211 8  20722285.033    20722285.223    20722286.136
  20722285.835          50.500          52.250
 117186649.627 8  91314277.62246  22299876.923    22299876.910
  22299877.448          48.250          36.0004
 20  1  5  0  2  0.0000000  0  8G05G29G10G27G21G20G15G13
 131469278.488 6 102443593.686 6  25017769.469    25017769.752    25017770.589
  25017770.055          38.750          39.750
 115737901.558 8  90185375.587 8  22024187.213    22024187.281    22024188.527
  22024188.568          48.250          48.250
 123152415.991 7  95962924.536 7  23435125.354    23435125.861    23435129.198
  23435130.305          42.250          46.500
 128181230.625 6  99881481.410 6  24392077.311    24392077.057    24392080.192
  24392080.473          40.750          39.500
 111046637.667 7  86529848.55547  21131469.451    21131468.687
  21131469.699          46.750          46.2504
 110678066.617 7  86242649.72647  21061333.855    21061333.391
  21061335.092          46.750          43.5004
 108898887.110 8  84856278.733 8  20722768.126    20722768.161    20722769.275
  20722769.046          50.000          52.500
 117232197.543 8  91349769.52846  22308544.439    22308544.229
  22308545.034          48.500          36.0004
 20  1  5  0  2 30.0000000  0  9G26G05G29G10G27G21G20G15G13
 129117464.359 6                  24570237.023
                        36.250
 131569986.235 6 102522067.238 6  25036934.946    25036934.364    25036934.510
  25036934.547          41.250          39.750
 115832685.743 7  90259233.391 7  22042224.248    22042223.888    22042225.455
  22042225.078          47.500          47.500
 123068411.695 6  95897466.638 7  23419140.183    23419139.800    23419143.417
  23419143.835          41.750          46.000
 128083395.846 6  99805246.517 6  24373460.082    24373459.611    24373463.840
  24373462.912          40.250          40.250
 111018767.369 7  86508131.43747  21126165.635    21126165.198
  21126166.156          46.500          46.0004
 110622692.351 7  86199500.93647  21050797.101    21050796.213
  21050797.557          47.000          43.5004
 108902072.972 8  84858761.228 8  20723374.287    20723374.279    20723375.326
  20723375.325          50.500          52.250
 117278313.129 7  91385703.75245  22317319.182    22317319.704
  22317320.774          47.500          35.2504
 20  1  5  0  3  0.0000000  0  9G26G05G29G10G27G21G20G15G13
 129181951.586 6 100661269.511 6  24582508.762    24582509.362    24582513.994
  24582514.722          36.250          38.500
 131670666.418 6 102600519.287 6  25056093.044    25056093.586    25056092.912
  25056092.219          40.750          38.250
 115927812.777 8  90333358.340 8  22060325.904    22060326.196    22060328.103
  22060327.434          48.000          48.000
 122984595.689 7  95832155.472 7  23403189.927    23403190.489    23403193.772
  23403194.345          42.000          46.000
 127985813.259 6  99729208.143 6  24354890.916    24354890.241    24354893.792
  24354894.842          40.500          41.000
 110991116.947 7  86486585.65347  21120904.089    21120903.511
  21120904.488          47.250          46.0004
 110567617.496 7  86156585.49347  21040316.384    21040315.546
  21040316.933          46.750          43.2504
 108905908.314 8  84861749.804 8  20724104.014    20724104.204    20724105.125
  20724105.194          50.750          52.250
 117324996.284 7  91422080.23745  22326202.790    22326203.244
  22326203.851          47.500          35.2504
 20  1  5  0  3 30.0000000  0  8G05G29G10G27G21G20G15G13
 131771316.286 6 102678947.737 6  25075245.352    25075245.397    25075247.389
  25075246.906          38.750          40.250
 116023278.550 7  90407747.252 7  22078492.722    22078492.643    22078494.100
  22078493.924          47.750          47.750
 122900966.862 6  95766990.168 7  23387276.085    23387276.339    23387279.826
  23387279.742          41.250          46.000
 127888483.918 6  99653367.115 7  24336369.568    24336369.554    24336372.952
  24336374.200          41.500          42.250
 110963685.921 8  86465210.82947  21115684.311    21115683.583
  21115684.576          48.000          46.0004
 110512840.721 7  86113902.27447  21029892.683    21029892.078
  21029893.279          47.000          43.5004
 108910390.994 8  84865242.811 8  20724957.247    20724957.266    20724958.207
  20724958.137          50.750          52.500
 117372243.462 8  91458896.21445  22335194.144    22335193.766
  22335194.789          48.000          35.2504
 20  1  5  0  4  0.0000000  0  8G05G29G10G27G21G20G15G13
 131871935.161 6 102757352.068 6  25094393.072    25094394.529    25094394.093
  25094394.251          41.000          40.750
 116119081.131 7  90482398.603 8  22096723.341    22096723.366    22096725.052
  22096724.810          47.500          48.000
 122817526.323 7  95701971.558 7  23371398.410    23371398.442    23371401.424
  23371401.989          42.500          46.000
 127791410.881 7  99577725.781 7  24317896.961    24317897.594    24317901.063
  24317900.147          42.250          42.250
 110936475.543 7  86444007.93447  21110506.241    21110505.583
  21110506.422          47.750          46.0004
 110458362.110 7  86071451.44647  21019525.849    21019524.880
  21019526.323          45.750          43.5004
 108915521.021 8  84869240.245 8  20725933.237    20725933.413    20725934.318
  20725934.211          50.750          52.000
 117420053.588 7  91496150.86845  22344292.140    22344292.006
  22344292.640          47.750          35.0004
 20  1  5  0  4 30.0000000  0  9G16G05G29G10G27G21G20G15G13
 126593902.789 6  98644596.07944  24090018.044    24090018.208
  24090018.607          37.500          24.2504
 131972522.981 6 102835732.116 6  25113533.682    25113534.193    25113534.886
  25113534.869          40.750          38.250
 116215218.801 8  90557311.068 7  22115018.096    22115017.925    22115019.159
  22115019.024          48.250          47.750
 122734275.450 7  95637100.757 7  23355555.826    23355556.558    23355559.508
  23355559.645          42.000          46.000
 127694597.682 7  99502286.920 7  24299474.795    24299474.021    24299477.962
  24299477.469          42.500          43.000
 110909487.114 7  86422977.99247  21105370.308    21105369.796
  21105370.747          47.750          46.0004
 110404183.813 7  86029234.56447  21009216.217    21009215.459
  21009216.616          46.750          43.5004
 108921299.107 8  84873742.654 8  20727032.750    20727033.086    20727033.802
  20727033.824          50.750          51.750
 117468425.657 7  91533843.38845  22353497.134    22353497.219
  22353497.895          47.750          34.7504
 20  1  5  0  5  0.0000000  0  9G16G05G29G10G27G21G20G15G13
 126629858.051 6  98672613.14344  24096860.794    24096859.415
  24096860.985          37.000          24.7504
 132073077.218 7 102914086.056 6  25132668.970    25132669.304    25132669.193
  25132669.778          42.500          39.000
 116311687.793 8  90632481.712 7  22133375.248    22133375.071    22133376.638
  22133376.314          48.000          47.500
 122651213.274 7  95572376.998 7  23339750.207    23339749.807    23339752.990
  23339753.551          42.250          46.000
 127598045.450 7  99427051.414 7  24281100.790    24281100.914    24281104.695
  24281104.138          42.000          43.000
 110882721.160 7  86402121.41047  21100277.248    21100276.497
  21100277.314          47.750          46.0004
 110350304.469 7  85987250.69347  20998963.099    20998962.350
  20998963.759          46.000          43.7504
 108927723.339 8  84878748.549 8  20728255.259    20728255.569    20728256.419
  20728256.218          51.000          52.500
 117517356.468 8  91571971.29945  22362808.391    22362808.017
  22362808.627          48.000          35.0004
 20  1  5  0  5 30.0000000  0  8G05G29G10G27G21G20G15G13
 132173598.795 6 102992414.525 6  25151796.887    25151797.364    25151797.979
  25151797.408          39.500          36.000
 116408487.579 7  90707910.122 7  22151795.369    22151795.575    22151796.860
  22151796.771          47.500          47.500
 122568342.396 7  95507802.284 7  23323979.921    23323980.286    23323983.371
  23323983.738          42.750          46.500
 127501758.844 6  99352022.889 7  24262778.021    24262777.959    24262781.572
  24262782.109          41.500          42.750
 110856179.888 8  86381439.90147  21095226.435    21095225.861
  21095226.753          48.500          46.2504
 110296726.327 7  85945501.48147  20988767.481    20988766.722
  20988768.120          47.000          43.5004
 108934794.871 8  84884258.839 8  20729601.004    20729600.997    20729602.546
  20729601.972          51.500          52.500
 117566845.508 8  91610534.19245  22372225.903    22372225.070
  22372226.335          48.000          34.7504
 20  1  5  0  6  0.0000000  0  8G05G29G10G27G21G20G15G13
 132274086.243 6 103070716.433 6  25170920.361    25170920.238    25170922.191
  25170920.676          40.750          37.750
 116505615.233 7  90783593.989 7  22170278.182    22170278.314    22170279.838
  22170279.956          47.250          47.500
 122485662.844 6  95443376.674 7  23308246.524    23308246.420    23308249.935
  23308250.407          41.500          46.000
 127405740.027 6  99277203.029 7  24244506.461    24244506.278    24244509.717
  24244509.945          41.500          42.500
 110829863.975 8  86360934.00047  21090218.646    21090217.995
  21090218.801          48.250          46.0004
 110243448.927 7  85903986.64947  20978629.380    20978628.592
  20978629.884          47.000          44.2504
 108942512.930 8  84890272.921 8  20731069.485    20731069.689    20731070.938
  20731070.823          51.250          52.250
 117616891.413 7  91649531.01545  22381749.200    22381748.790
  22381749.883          47.250          34.7504
 20  1  5  0  6 30.0000000  0  9G16G05G29G10G27G21G20G15G13
 126740684.715 6  98758978.88043  24117950.896    24117950.274
  24117950.557          36.750          22.5004
 132374538.031 6 103148990.580 6  25190035.328    25190034.843    25190035.289
  25190036.390          40.000          36.000
 116603067.945 7  90859531.158 7  22188822.893    22188822.802    22188824.017
  22188824.278          47.000          47.000
 122403174.923 6  95379100.374 7  23292549.161    23292549.490    23292552.814
  23292553.255          41.750          45.500
 127309991.455 6  99202593.764 7  24226285.936    24226286.610    24226289.175
  24226289.293          41.500          42.250
 110803774.536 8  86340604.57147  21085254.047    21085253.523
  21085254.395          48.500          46.0004
 110190472.287 7  85862706.15147  20968547.771    20968547.069
  20968548.620          46.250          43.7504
 108950876.685 8  84896790.142 8  20732661.177    20732661.332    20732662.530
  20732662.220          51.750          52.500
 117667491.876 7  91688959.93545  22391377.890    22391378.301
  22391379.050          47.000          34.5004
 20  1  5  0  7  0.0000000  0  9G26G05G29G10G27G21G20G15G13
 129707244.965 6                  24682468.337
                        36.250
 132474953.394 6 103227236.266 6  25209143.366    25209143.841    25209144.360
  25209144.450          39.250          36.500
 116700843.154 7  90935719.626 7  22207429.111    22207428.701    22207430.444
  22207430.164          47.500          47.250
 122320879.274 7  95314973.901 7  23276888.863    23276888.850    23276892.076
  23276892.574          42.000          45.750
 127214515.864 6  99128197.188 7  24208117.553    24208117.932    24208121.067
  24208120.902          41.000          42.250
 110777912.291 8  86320452.17147  21080332.620    21080332.038
  21080332.865          49.250          46.0004
 110137796.499 8  85821660.09447  20958524.220    20958523.518
  20958524.785          48.000          44.0004
 108959885.820 8  84903810.256 8  20734375.400    20734375.581    20734377.108
  20734376.657          51.750          52.750
 117718644.996 7  91728819.51045  22401112.173    22401111.848
  22401112.997          47.750          34.7504
 20  1  5  0  7 30.0000000  0  9G16G05G29G10G27G21G20G15G13
 126817024.119 6  98818453.20343  24132476.373    24132476.016
  24132476.258          37.000          23.0004
 132575331.863 6 103305453.291 5  25228244.577    25228245.009    25228242.724
  25228244.908          38.750          33.250
 116798939.118 7  91012158.024 7  22226095.905    22226095.967    22226097.370
  22226097.356          47.500          47.250
 122238777.097 7  95250998.187 7  23261265.737    23261265.855    23261268.995
  23261270.303          42.500          46.750
 127119316.560 6  99054015.913 7  24190001.984    24190001.273    24190004.683
  24190004.879          40.750          42.000
 110752279.189 8  86300478.32447  21075454.646    21075454.075
  21075454.884          48.750          46.2504
 110085422.957 7  85780849.54047  20948557.579    20948556.804
  20948558.554          47.750          44.0004
 108969540.074 8  84911333.055 8  20736212.881    20736213.045    20736213.561
  20736213.698          52.250          52.000
 117770349.422 7  91769108.68045  22410950.930    22410950.871
  22410952.025          47.250          35.0004
 20  1  5  0  8  0.0000000  0  9G16G05G29G10G27G21G20G15G13
 126855919.311 6  98848761.17144  24139878.579    24139877.888
  24139878.668          36.750          24.2504
 132675671.420 6 103383639.900 5  25247339.020    25247340.098    25247338.508
  25247339.739          38.750          35.500
 116897352.275 7  91088843.601 7  22244823.431    22244823.237    22244824.655
  22244824.336          47.500          47.000
 122156867.716 7  95187172.714 7  23245678.783    23245678.841    23245681.945
  23245682.809          43.000          46.750
 127024395.031 6  98980051.106 7  24171938.868    24171937.970    24171941.339
  24171942.021          40.750          42.000
 110726874.858 8  86280682.74947  21070620.497    21070619.873
  21070620.812          49.500          46.0004
 110033350.551 7  85740273.65747  20938648.967    20938648.104
  20938649.278          47.750          44.5004
 108979838.016 8  84919357.422 8  20738172.581    20738172.629    20738173.404
  20738173.308          52.750          52.000
 117822602.135 7  91809825.06845  22420894.386    22420894.632
  22420895.262          47.000          34.5004
 20  1  5  0  8 30.0000000  0  9G16G05G29G10G27G21G20G15G13
 126895295.664 6  98879443.98544  24147371.381    24147370.878
  24147371.777          36.750          24.0004
 132775970.316 6 103461794.893 5  25266425.707    25266424.767    25266424.540
  25266425.597          37.750          33.250
 116996079.244 7  91165773.700 7  22263610.412    22263610.496    22263611.756
  22263611.895          47.750          46.750
 122075151.043 7  95123497.389 7  23230128.449    23230128.913    23230132.576
  23230133.056          43.500          46.750
 126929753.211 6  98906304.255 7  24153929.317    24153928.765    24153932.857
  24153932.190          41.500          42.250
 110701699.780 8  86261065.81047  21065829.818    21065829.098
  21065830.066          49.000          46.0004
 109981578.819 7  85699932.04247  20928797.084    20928796.072
  20928797.403          47.750          44.0004
 108990778.285 8  84927882.307 8  20740254.115    20740254.461    20740255.204
  20740255.114          52.500          52.250
 117875400.562 7  91850966.69345  22430942.096    22430941.883
  22430942.777          47.500          35.0004
 20  1  5  0  9  0.0000000  0  9G16G05G29G10G27G21G20G15G13
 126935152.941 6  98910501.62843  24154955.531    24154955.413
  24154956.380          37.000          23.5004
 132876229.651 6 103539919.039 6  25285504.074    25285503.906    25285505.837
  25285505.473          38.500          36.750
 117095119.767 8  91242948.138 7  22282457.345    22282457.567    22282458.653
  22282458.729          48.000          46.750
 121993629.649 7  95059974.247 7  23214615.215    23214615.342    23214619.387
  23214619.503          42.250          46.500
 126835395.962 7  98832779.129 7  24135974.230    24135973.421    24135976.964
  24135976.807          42.250          42.750
 110676756.351 8  86241629.37347  21061083.244    21061082.601
  21061083.567          49.750          46.0004
 109930110.000 7  85659826.46647  20919002.672    20919001.965
  20919003.444          47.750          44.2504
 109002362.319 8  84936908.825 8  20742458.952    20742458.771    20742459.558
  20742459.437          53.000          52.000
 117928744.844 7  91892533.69045  22441092.835    22441092.924
  22441093.140          46.750          34.7504
 20  1  5  0  9 30.0000000  0  8G16G29G10G27G21G20G15G13
 126975488.473 6  98941931.87743  24162631.097    24162630.555
  24162631.875          37.750          23.2504
 117194469.733 7  91320363.696 7  22301363.084    22301363.219    22301364.179
  22301364.364          47.500          47.250
 121912303.004 7  94996602.851 7  23199139.751    23199139.657    23199142.463
  23199143.015          43.000          45.500
 126741324.820 7  98759476.948 7  24118072.476    24118072.931    24118075.963
  24118076.190          42.500          43.750
 110652044.677 8  86222373.52347  21056380.918    21056380.234
  21056381.010          49.250          46.0004
 109878943.418 8  85619956.40247  20909265.822    20909265.338
  20909266.533          48.250          44.2504
 109014588.387 8  84946435.634 8  20744785.076    20744785.457    20744786.121
  20744786.133          53.250          52.250
 117982632.044 7  91934523.70245  22451347.173    22451347.084
  22451348.035          46.750          34.5004
 20  1  5  0 10  0.0000000  0 10G26G16G05G29G10G27G21G20G15G13
 130111543.456 6 101385621.613 5  24759404.593    24759404.161    24759407.535
  24759408.959          38.750          35.750
 127016299.665 6  98973732.83443  24170397.692    24170396.681
  24170398.458          37.500          23.7504
 133076613.428 6 103696062.013 5  25323636.981                    25323637.967
                        36.500          30.500
 117294127.156 7  91398018.817 7  22320327.147    22320327.307    22320328.869
  22320328.834          47.500          47.500
 121831171.735 7  94933383.679 7  23183700.686    23183701.485    23183704.336
  23183704.591          43.500          46.250
 126647542.581 7  98686399.894 7  24100226.721    24100226.741    24100230.016
  24100229.780          42.500          44.000
 110627566.742 8  86203299.82047  21051722.879    21051722.113
  21051723.033          49.250          46.0004
 109828079.320 8  85580322.03747  20899586.800    20899586.282
  20899587.669          48.500          44.2504
 109027455.602 8  84956462.041 8  20747233.695    20747233.797    20747235.083
  20747234.695          53.500          52.500
 118037060.035 7  91976935.13045  22461704.567    22461704.260
  22461705.191          46.750          34.5004
 20  1  5  0 10 30.0000000  0  9G26G16G29G10G27G21G20G15G13
 130179737.188 6 101438759.571 6  24772379.931    24772380.054    24772385.335
  24772386.583          37.250          41.750
 127057585.083 6  99005903.26143  24178253.139    24178253.758
  24178254.154          38.000          23.7504
 117394090.312 7  91475912.172 7  22339349.804    22339349.391    22339350.967
  22339350.407          47.500          46.750
 121750236.970 7  94870317.654 7  23168299.333    23168299.437    23168302.836
  23168303.581          44.000          46.250
 126554052.474 7  98613550.468 7  24082435.492    24082435.144    24082439.451
  24082439.815          42.500          44.000
 110603324.259 8  86184409.56947  21047109.579    21047108.927
  21047109.949          49.250          46.2504
 109777518.654 8  85540924.11747  20889965.555    20889964.658
  20889966.220          48.500          44.2504
 109040963.929 9  84966988.013 8  20749804.371    20749804.407    20749805.228
  20749805.342          54.250          52.250
 118092027.543 7  92019766.95545  22472164.739    22472164.758
  22472165.305          46.750          34.7504
 20  1  5  0 11  0.0000000  0  9G26G16G29G10G27G21G20G15G13
 130248155.486 6 101492072.506 6  24785400.875    24785400.292    24785404.627
  24785405.574          39.000          41.250
 127099343.161 6  99038441.99444  24186199.232    24186199.057
  24186201.000          37.250          24.0004
 117494356.964 8  91554042.028 7  22358429.734    22358429.452    22358430.748
  22358430.905          48.250          46.250
 121669499.614 7  94807405.431 7  23152936.108    23152936.013    23152938.817
  23152939.167          44.750          46.000
 126460857.625 7  98540931.105 7  24064701.278    24064701.413    24064704.963
  24064705.346          42.250          44.000
 110579318.062 8  86165703.44047  21042541.323    21042540.667
  21042541.514          49.500          46.2504
 109727262.094 8  85501763.17147  20880401.910    20880401.400
  20880402.805          49.000          44.5004
 109055113.320 9  84978013.510 8  20752496.825    20752496.989    20752497.938
  20752497.859          54.000          52.250
 118147533.048 7  92063017.99245  22482726.989    22482726.756
  22482727.830          46.500          34.5004
 20  1  5  0 11 30.0000000  0 10G26G05G16G29G10G27G21G20G15G13
 130316794.156 6 101545557.167 6  24798461.145    24798460.790    24798467.329
  24798467.492          36.750          41.250
 133376876.348 6 103930034.379 5  25380776.389    25380776.491    25380776.856
  25380777.453          36.000          31.750
 127141569.970 6  99071346.03844  24194236.198    24194235.582
  24194236.907          37.500          25.0004
 117594922.850 7  91632405.048 7  22377566.287    22377566.440    22377567.864
  22377567.935          47.750          46.500
 121588958.859 7  94744646.415 7  23137609.395    23137609.572    23137612.836
  23137613.087          44.500          46.250
 126367959.333 6  98468542.824 7  24047022.794    24047022.811    24047026.579
  24047026.580          41.750          43.500
 110555547.845 8  86147181.19147  21038018.033    21038017.407
  21038018.267          49.500          46.2504
 109677308.238 8  85462838.09047  20870896.369    20870895.584
  20870896.534          49.000          44.5004
 109069901.324 9  84989536.629 8  20755311.121    20755311.040    20755312.303
  20755311.900          54.500          52.250
 118203573.084 7  92106685.57745  22493390.925    22493390.803
  22493391.196          46.250          34.5004
 20  1  5  0 12  0.0000000  0  9G26G16G29G10G27G21G20G15G13
 130385650.165 6 101599211.198 6  24811564.514    24811564.546    24811569.055
  24811570.020          38.250          40.500
 127184263.123 6  99104613.38744  24202359.301    24202358.677
  24202360.811          37.000          24.2504
 117695785.511 8  91710999.324 7  22396760.140    22396760.343    22396761.082
  22396761.662          48.500          46.250
 121508615.135 7  94682040.921 7  23122320.068    23122320.157    23122323.577
  23122323.848          43.750          46.250
 126275360.227 6  98396387.683 7  24029402.274    24029402.068    24029405.843
  24029406.152          41.750          44.250
 110532014.271 8  86128843.33247  21033539.881    21033539.216
  21033539.954          49.250          46.2504
 109627657.335 8  85424149.07847  20861447.755    20861447.020
  20861448.272          49.000          44.5004
 109085327.164 9  85001556.761 8  20758246.467    20758246.562    20758247.448
  20758247.250          55.000          52.250
 118260145.570 7  92150768.02245  22504155.642    22504155.936
  22504157.340          45.000          34.2504
 20  1  5  0 12 30.0000000  0  9G26G16G29G10G27G21G20G15G13
 130454723.068 6 101653034.211 6  24824707.943    24824707.847    24824713.909
  24824714.161          37.500          41.500
 127227423.598 6  99138244.90844  24210572.898    24210572.195
  24210574.505          37.000          24.0004
 117796944.824 8  91789824.757 7  22416010.359    22416010.122    22416011.943
  22416011.334          48.500          46.250
 121428471.397 7  94619591.261 7  23107069.754    23107069.383    23107073.241
  23107073.335          44.000          46.500
 126183065.409 7  98324469.653 7  24011839.346    24011838.856    24011843.004
  24011842.510          42.000          44.500
 110508721.067 8  86110692.78947  21029107.209    21029106.579
  21029107.424          49.750          46.2504
 109578312.362 8  85385698.45947  20852058.008    20852057.247
  20852058.496          49.250          44.5004
 109101392.478 9  85014075.186 8  20761303.601    20761303.646    20761304.486
  20761304.399          55.000          52.000
 118317250.817 7  92195265.61045  22515023.133    22515023.175
  22515023.395          46.250          34.2504
 20  1  5  0 13  0.0000000  0 10G26G05G16G29G10G27G21G20G15G13
 130524007.523 6 101707022.074 6  24837893.860    24837893.746    24837898.163
  24837898.324          39.250          41.750
 133676735.730 6 104163687.204 5  25437837.254    25437837.233    25437838.517
  25437837.635          36.000          32.500
 127271046.276 6  99172236.57043  24218873.273    24218873.440
  24218876.000          37.250          23.7504
 117898395.665 8  91868877.353 7  22435315.365    22435315.719    22435316.101
  22435316.385          48.250          45.750
 121348525.724 7  94557295.957 7  23091856.105    23091856.590    23091859.813
  23091860.909          44.250          47.250
 126091075.143 6  98252788.926 7  23994334.056    23994334.345    23994337.571
  23994337.635          41.500          44.500
 110485667.136 8  86092728.68147  21024720.413    21024719.718
  21024720.364          50.000          46.5004
 109529270.838 8  85347484.29947  20842725.482    20842724.820
  20842725.945          49.250          44.2504
 109118093.940 9  85027089.314 8  20764481.632    20764481.796    20764482.755
  20764482.405          54.750          52.250
 118374884.631 7  92240175.07845  22525989.662    22525989.903
  22525990.900          44.500          34.2504
 20  1  5  0 13 30.0000000  0  9G26G16G29G10G27G21G20G15G13
 130593501.356 6 101761173.089 6  24851117.121    24851117.571    24851122.754
  24851122.383          38.750          41.250
 127315129.507 6  99206587.12843  24227262.511    24227261.921
  24227263.931          38.500          23.7504
 118000136.591 8  91948156.005 7  22454676.617    22454676.443    22454677.464
  22454677.549          48.750          45.750
 121268779.440 7  94495156.011 7  23076681.342    23076681.084    23076684.255
  23076684.959          44.750          46.750
 125999392.920 6  98181348.242 7  23976887.792    23976887.262    23976890.645
  23976890.992          41.500          44.250
 110462853.864 8  86074952.10847  21020379.262    21020378.361
  21020379.174          50.000          46.2504
 109480533.675 8  85309507.29147  20833451.100    20833450.383
  20833451.816          49.250          44.5004
 109135431.643 9  85040599.218 8  20767780.961    20767781.070    20767782.079
  20767781.814          55.000          51.750
 118433045.314 7  92285495.10245  22537058.121    22537057.801
  22537059.152          45.500          34.5004
 20  1  5  0 14  0.0000000  0  9G26G16G29G10G27G21G20G15G13
 130663200.986 6 101815484.471 6  24864380.652    24864381.261    24864386.120
  24864385.960          38.500          40.000
 127359670.184 6  99241294.14244  24235738.852    24235737.959
  24235740.811          38.750          25.5004
 118102164.360 7  92027658.141 7  22474091.203    22474091.287    22474093.237
  22474092.971          47.750          46.250
 121189232.412 7  94433171.324 7  23061543.876    23061543.852    23061546.806
  23061547.496          45.250          46.500
 125908020.722 6  98110149.145 7  23959499.867    23959500.075    23959502.671
  23959503.259          41.500          43.500
 110440282.074 8  86057363.69847  21016083.792    21016083.097
  21016083.882          49.750          46.2504
 109432100.777 8  85271767.38047  20824234.659    20824233.974
  20824235.346          49.500          44.5004
 109153403.616 9  85054603.361 8  20771200.762    20771200.852    20771201.961
  20771201.800          54.250          52.000
 118491730.321 7  92331223.68445  22548225.114    22548225.559
  22548226.662          45.500          34.5004
 20  1  5  0 14 30.0000000  0 10G26G16G05G29G10G27G21G20G15G13
 130733104.858 6 101869955.043 6  24877684.073    24877683.202    24877687.527
  24877688.797          37.500          40.500
 127404667.593 6  99276357.06444  24244301.161    24244300.746
  24244303.246          38.250          24.0004
 133976156.165 6                  25494814.622
                        37.500
 118204477.594 8  92107382.724 7  22493561.611    22493561.516    22493562.379
  22493562.680          49.000          46.250
 121109886.415 7  94371343.275 7  23046444.835    23046444.972    23046448.210
  23046448.497          44.750          46.500
 125816962.650 6  98039194.803 7  23942172.528    23942172.884    23942175.404
  23942175.162          41.250          43.500
 110417954.346 8  86039965.46447  21011834.849    21011834.220
  21011835.080          50.250          46.0004
 109383973.436 8  85234265.55947  20815076.164    20815075.603
  20815076.862          49.000          44.2504
 109172010.616 9  85069102.335 8  20774741.522    20774741.744    20774742.930
  20774742.635          54.750          52.250
 118550939.036 7  92377360.34145  22559492.587    22559492.353
  22559493.439          45.000          34.2504
 20  1  5  0 15  0.0000000  0 10G26G16G05G29G10G27G21G20G15G13
 130803208.751 6 101924581.450 6  24891023.598    24891023.397    24891027.597
  24891027.719          37.250          39.500
 127450118.009 6  99311772.94744  24252950.491    24252950.220
  24252950.453          39.750          24.5004
 134075861.200 6 104474697.288 6  25513786.832    25513787.386    25513788.943
  25513788.825          38.500          41.250
 118307072.568 8  92187326.864 7  22513084.843    22513084.638    22513085.905
  22513085.457          49.250          46.000
 121030740.715 7  94309671.328 7  23031383.906    23031384.011    23031387.541
  23031387.269          45.500          47.500
 125726220.043 6  97968486.269 7  23924904.361    23924904.642    23924907.226
  23924907.204          41.750          43.250
 110395870.159 8  86022757.00347  21007632.386    21007631.669
  21007632.601          50.000          46.2504
 109336150.763 8  85197001.14947  20805976.068    20805975.303
  20805976.643          49.500          44.5004
 109191250.408 9  85084094.400 8  20778402.668    20778402.867    20778404.061
  20778403.706          54.500          52.500
 118610667.708 7  92423902.16845  22570858.515    22570857.970
  22570858.875          44.750          34.0004
 20  1  5  0 15 30.0000000  0  9G16G05G29G10G27G21G20G15G13
 127496019.746 6  99347540.53244  24261685.620    24261685.202
  24261687.262          40.000          25.2504
 134175514.296 6 104552349.079 6  25532750.778    25532751.394    25532752.019
  25532751.130          39.250          39.500
 118409946.929 7  92267488.698 7  22532660.423    22532660.457    22532662.084
  22532661.859          47.750          45.750
 120951796.309 7  94248156.207 7  23016361.366    23016361.379    23016364.741
  23016364.605          45.500          46.500
 125635796.107 6  97898026.069 7  23907697.082    23907696.777    23907700.141
  23907700.234          41.000          43.500
 110374030.756 8  86005739.28947  21003476.511    21003475.911
  21003476.702          50.000          46.2504
 109288633.460 8  85159974.68347  20796933.739    20796932.921
  20796934.285          49.500          44.5004
 109211122.415 9  85099579.078 8  20782184.174    20782184.417    20782185.397
  20782185.275          54.250          52.500
 118670915.194 7  92470848.25445  22582323.178    22582322.905
  22582323.712          44.500          33.2504
 20  1  5  0 16  0.0000000  0  9G16G05G29G10G27G21G20G15G13
 127542371.444 6  99383658.73144  24270505.503    24270505.500
  24270507.028          39.750          24.7504
 134275115.772 6 104629960.594 6  25551704.651    25551704.962    25551705.518
  25551705.286          39.500          38.250
 118513099.458 8  92347867.281 7  22552289.911    22552289.934    22552291.016
  22552291.461          48.250          46.000
 120873054.833 7  94186799.226 7  23001377.090    23001377.306    23001380.430
  23001380.950          45.000          47.250
 125545694.682 6  97827817.162 7  23890551.737    23890551.170    23890554.412
  23890555.343          41.500          44.000
 110352438.395 8  85988914.07147  20999367.768    20999367.025
  20999367.744          50.250          46.2504
 109241422.821 8  85123187.17647  20787949.822    20787949.055
  20787950.535          49.250          44.7504
 109231626.698 9  85115556.450 8  20786086.178    20786086.489    20786087.320
  20786087.011          54.750          52.250
 118731680.002 7  92518197.44845  22593885.747    22593885.721
  22593886.910          44.500          33.2504
 20  1  5  0 16 30.0000000  0  9G16G05G29G10G27G21G20G15G13
 127589169.390 6  99420124.64243  24279410.497    24279410.534
  24279412.203          38.500          23.5004
 134374663.376 6 104707530.105 6  25570647.881    25570647.848    25570649.829
  25570649.171          38.500          36.500
 118616525.984 8  92428459.371 7  22571971.615    22571971.595    22571972.712
  22571972.587          48.500          46.000
 120794515.250 7  94125599.572 7  22986431.376    22986431.539    22986434.674
  22986435.925          45.000          47.250
 125455916.884 6  97757860.466 7  23873467.564    23873467.156    23873470.383
  23873470.913          41.250          44.000
 110331093.207 8  85972281.45747  20995305.688    20995305.077
  20995305.873          49.750          46.0004
 109194517.539 8  85086637.62147  20779024.175    20779023.365
  20779024.785          49.250          44.7504
 109252760.927 9  85132024.682 8  20790107.858    20790108.040    20790108.978
  20790108.763          54.250          52.000
 118792958.488 7  92565946.94645  22605547.393    22605547.093
  22605547.959          44.750          33.2504
 20  1  5  0 17  0.0000000  0  8G16G29G10G27G21G20G15G13
 127636411.325 6  99456936.50444  24288400.758    24288400.305
  24288402.552          40.250          25.0004
 118720224.260 7  92509263.215 7  22591704.601    22591704.383    22591705.625
  22591705.820          47.750          45.500
 120716178.350 7  94064557.839 7  22971524.556    22971525.092    22971527.751
  22971528.213          45.500          46.750
 125366465.718 6  97688158.268 7  23856445.247    23856445.089    23856448.918
  23856448.824          41.000          44.750
 110309996.386 8  85955842.38147  20991291.198    20991290.574
  20991291.511          49.750          46.2504
 109147918.060 8  85050326.34147  20770156.452    20770155.866
  20770157.052          49.500          44.7504
 109274524.161 9  85148983.039 8  20794249.219    20794249.467    20794250.304
  20794250.161          54.250          52.250
 118854749.092 7  92614095.45245  22617305.908    22617305.106
  22617306.314          45.000          33.0004
 20  1  5  0 17 30.0000000  0  8G16G29G10G27G21G20G15G13
 127684095.750 6  99494093.19144  24297474.518    24297473.862
  24297475.275          38.750          24.0004
 118824192.320 8  92590277.287 7  22611489.009    22611488.838    22611490.153
  22611490.103          48.250          45.000
 120638045.388 7  94003675.027 7  22956656.280    22956656.033    22956659.064
  22956660.336          45.750          46.750
 125277344.605 7  97618713.249 7  23839486.098    23839486.055    23839489.946
  23839489.395          42.000          44.750
 110289149.569 8  85939598.10747  20987324.246    20987323.581
  20987324.355          50.000          46.2504
 109101625.159 8  85014253.94547  20761347.075    20761346.398
  20761347.884          50.000          44.7504
 109296916.202 9  85166431.384 8  20798510.248    20798510.652    20798511.098
  20798511.213          54.250          51.750
 118917050.239 7  92662641.82645  22629160.937    22629161.054
  22629161.518          45.000          33.2504
 20  1  5  0 18  0.0000000  0  8G16G29G10G27G21G20G15G13
 127732218.579 6  99531591.47144  24306631.915    24306632.536
  24306632.914          40.250          24.5004
 118928426.178 8  92671498.455 7  22631324.500    22631324.555    22631325.178
  22631325.169          49.250          45.750
 120560115.364 7  93942950.349 7  22941826.865    22941826.642    22941830.306
  22941830.724          45.250          47.250
 125188554.768 6  97549526.373 7  23822590.291    23822589.787    23822593.721
  23822593.298          41.500          44.750
 110268552.277 8  85923548.26247  20983404.803    20983404.095
  20983404.884          49.750          46.0004
 109055637.704 8  84978419.58547  20752596.037    20752595.430
  20752596.498          49.500          44.7504
 109319934.353 9  85184367.605 8  20802890.530    20802890.703    20802891.325
  20802891.380          54.250          51.750
 118979858.316 7  92711583.17245  22641113.165    22641112.872
  22641113.852          45.250          32.7504
 20  1  5  0 18 30.0000000  0  8G16G29G10G27G21G20G15G13
 127780779.461 6  99569431.10043  24315873.276    24315873.097
  24315873.247          40.000          23.5004
 119032924.941 8  92752926.082 7  22651209.702    22651209.674    22651210.766
  22651210.817          48.500          45.750
 120482390.527 7  93882385.555 7  22927036.179    22927035.917    22927039.395
  22927039.548          45.250          47.250
 125100100.638 7  97480601.085 7  23805757.780    23805757.736    23805761.483
  23805761.275          42.000          45.000
 110248207.327 8  85907695.03647  20979533.346    20979532.511
  20979533.424          50.000          46.0004
 109009957.994 8  84942825.01247  20743903.676    20743902.803
  20743904.103          49.500          44.7504
 109343579.430 9  85202792.345 8  20807390.205    20807390.265    20807390.961
  20807390.895          54.000          51.250
 119043172.717 7  92760919.06945  22653161.085    22653161.070
  22653162.506          44.500          33.0004
 20  1  5  0 19  0.0000000  0  8G16G29G10G27G21G20G15G13
 127829774.693 6  99607609.18344  24325196.172    24325195.838
  24325198.058          39.500          24.0004
 119137685.047 8  92834557.307 7  22671144.598    22671144.318    22671146.296
  22671146.264          48.000          46.000
 120404870.275 7  93821980.170 7  22912284.467    22912284.857    22912287.892
  22912288.583          46.000          47.500
 125011983.810 7  97411938.619 7  23788989.172    23788989.586    23788992.834
  23788993.028          42.000          45.000
 110228114.930 8  85892038.62847  20975709.542    20975709.083
  20975709.913          49.750          46.2504
 108964585.059 8  84907469.48847  20735269.268    20735268.696
  20735269.779          49.750          45.0004
 109367848.690 9  85221703.469 8  20812008.344    20812008.397    20812009.623
  20812009.115          54.000          52.000
 119106990.329 7  92810647.08445  22665305.738    22665305.291
  22665306.765          45.500          33.2504
 20  1  5  0 19 30.0000000  0  8G16G29G10G27G21G20G15G13
 127879201.481 6  99646123.57744  24334602.657    24334601.731
  24334602.953          40.750          24.7504
 119242703.539 7  92916389.887 7  22691128.781    22691129.177    22691130.689
  22691130.089          47.750          45.500
 120327554.768 7  93761734.343 7  22897571.769    22897571.931    22897575.081
  22897575.636          46.000          47.750
 124924206.678 7  97343540.862 7  23772285.543    23772286.030    23772289.485
  23772290.154          42.000          45.000
 110208275.793 8  85876579.56147  20971934.235    20971933.788
  20971934.655          49.500          46.0004
 108919518.732 8  84872352.87247  20726692.947    20726692.645
  20726694.032          49.500          44.7504
 109392741.547 9  85241100.510 8  20816745.369    20816745.445    20816746.425
  20816746.315          54.000          52.000
 119171308.343 7  92860764.99645  22677544.332    22677544.928
  22677546.197          44.750          33.0004
 20  1  5  0 20  0.0000000  0  8G16G29G10G27G21G20G15G13
 127929058.295 6  99684973.03844  24344088.763    24344089.281
  24344090.651          40.250          24.0004
 119347978.914 7  92998422.640 7  22711162.384    22711162.356    22711163.955
  22711163.546          47.750          46.000
 120250445.378 7  93701649.112 7  22882898.180    22882898.504    22882901.884
  22882902.482          45.750          47.750
 124836772.788 7  97275410.566 7  23755648.206    23755647.990    23755651.460
  23755651.357          42.500          45.000
 110188692.062 8  85861319.51747  20968207.693    20968207.070
  20968207.883          49.750          46.0004
 108874760.064 8  84837475.99647  20718176.281    20718175.609
  20718176.856          50.000          45.0004
 109418257.213 9  85260982.853 8  20821600.915    20821601.050    20821601.895
  20821601.696          54.000          51.750
 119236125.638 7  92911271.99845  22689879.028    22689878.184
  22689880.208          45.500          32.7504
 20  1  5  0 20 30.0000000  0  9G16G29G10G27G26G21G20G15G13
 127979342.890 6  99724155.81944  24353658.549    24353657.886
  24353658.918          40.750          24.5004
 119453508.425 7  93080653.418 7  22731243.693    22731243.675    22731245.075
  22731245.257          47.000          45.500
 120173542.686 7  93641724.958 8  22868264.593    22868264.352    22868268.004
  22868268.411          46.000          48.000
 124749684.942 7  97207549.909 7  23739075.663    23739075.624    23739079.365
  23739079.455          42.500          45.250
 131586762.950 6 102535138.682 6  25040128.181    25040127.644    25040133.706
  25040133.983          36.250          38.000
 110169364.845 8  85846259.34047  20964530.089    20964529.296
  20964530.152          49.750          46.5004
 108830309.437 8  84802839.14647  20709717.513    20709716.735
  20709718.192          49.750          44.7504
 109444394.850 9  85281349.843 8  20826574.853    20826574.853    20826575.607
  20826575.595          54.000          51.750
 119301439.839 7  92962166.18745  22702307.935    22702307.938
  22702308.872          45.500          33.2504
 20  1  5  0 21  0.0000000  0  9G16G29G10G27G26G21G20G15G13
 128030051.166 6  99763668.75143  24363307.580    24363307.290
  24363309.286          39.250          23.7504
 119559287.860 7  93163078.950 7  22751373.026    22751373.113    22751374.011
  22751374.464          47.250          45.000
 120096845.645 7  93581961.035 7  22853669.369    22853669.287    22853672.607
  22853673.031          46.000          47.750
 124662944.237 7  97139959.752 7  23722569.104    23722569.177    23722573.155
  23722573.241          42.500          45.000
 131659045.718 6 102591462.927 6  25053883.425    25053883.265    25053888.506
  25053888.091          36.250          38.500
 110150293.746 8  85831398.74447  20960900.564    20960900.198
  20960901.024          49.500          46.2504
 108786165.395 8  84768441.20047  20701316.862    20701316.457
  20701317.770          49.750          44.7504
 109471151.404 8  85302199.109 8  20831666.123    20831666.270    20831667.296
  20831667.124          53.750          51.750
 119367247.132 7  93013444.59745  22714830.543    22714830.904
  22714831.735          45.750          33.0004
 20  1  5  0 21 30.0000000  0  8G16G29G10G27G21G20G15G13
 128081182.679 6  99803511.44843  24373038.885    24373037.536
  24373037.628          40.000          22.7504
 119665316.788 7  93245698.891 7  22771549.788    22771550.193    22771551.487
  22771551.220          47.750          46.000
 120020356.783 7  93522359.335 7  22839113.978    22839114.071    22839117.361
  22839117.818          46.500          47.500
 124576555.513 7  97072643.859 7  23706130.127    23706130.174    23706133.675
  23706133.778          42.750          45.000
 110131481.902 8  85816740.15847  20957321.031    20957320.370
  20957321.208          49.750          46.0004
 108742329.970 8  84734283.72947  20692975.625    20692974.768
  20692976.211          50.000          45.0004
 109498527.627 8  85323531.240 8  20836875.799    20836875.784    20836877.019
  20836876.549          53.500          52.000
 119433547.316 7  93065107.08245  22727447.824    22727447.082
  22727448.255          46.500          33.0004
 20  1  5  0 22  0.0000000  0  8G16G29G10G27G21G20G15G13
 128132732.710 6  99843680.30644  24382848.013    24382847.599
  24382849.007          40.750          24.2504
 119771591.046 7  93328509.987 7  22791773.144    22791773.334    22791774.284
  22791774.189          47.500          45.250
 119944074.869 7  93462918.901 7  22824598.042    22824598.021    22824601.427
  22824601.666          46.250          47.750
 124490519.668 7  97005602.949 7  23689758.113    23689758.315    23689761.834
  23689761.671          43.000          45.250
 110112928.414 8  85802282.89647  20953790.501    20953789.723
  20953790.625          50.000          46.2504
 108698802.024 8  84700365.85047  20684692.627    20684691.685
  20684693.141          50.250          45.0004
 109526520.501 8  85345343.870 8  20842202.579    20842202.598    20842203.427
  20842203.472          53.250          51.500
 119500336.592 7  93117150.68145  22740156.840    22740156.987
  22740157.115          45.750          32.7504
 20  1  5  0 22 30.0000000  0  8G16G29G10G27G21G20G15G13
 128184699.995 6  99884174.26043  24392736.748    24392735.850
  24392738.591          40.000          23.2504
 119878108.134 7  93411510.313 7  22812042.192    22812042.529    22812044.122
  22812043.868          47.250          44.500
 119868000.658 7  93403640.310 7  22810121.692    22810121.907    22810124.727
  22810125.072          46.500          47.750
 124404839.659 7  96938839.295 7  23673453.751    23673453.806    23673457.252
  23673456.843          42.500          45.750
 110094634.737 8  85788028.08547  20950309.483    20950308.672
  20950309.405          49.750          46.0004
 108655581.712 8  84666687.69447  20676467.942    20676467.203
  20676468.416          50.250          45.0004
 109555129.529 8  85367636.614 8  20847646.707    20847646.726    20847647.758
  20847647.555          53.000          51.750
 119567612.823 7  93169573.71945  22752958.601    22752958.694
  22752959.328          45.250          32.2504
 20  1  5  0 23  0.0000000  0  8G16G29G10G27G21G20G15G13
 128237082.623 6  99924991.89043  24402704.869    24402704.510
  24402705.682          39.500          23.0004
 119984866.407 7  93494698.580 7  22832357.751    22832357.805    22832359.138
  22832359.125          47.500          44.750
 119792135.566 7  93344524.654 7  22795685.019    22795685.063    22795688.019
  22795688.713          46.250          47.750
 124319519.119 7  96872355.770 7  23657217.697    23657217.910    23657221.265
  23657221.799          42.750          45.750
 110076603.226 8  85773977.55347  20946877.898    20946877.284
  20946878.220          50.250          46.2504
 108612670.386 8  84633250.30347  20668302.247    20668301.595
  20668302.707          50.500          45.2504
 109584354.093 8  85390409.005 8  20853207.948    20853208.098    20853209.118
  20853208.770          52.750          51.750
 119635374.663 7  93222375.16045  22765853.648    22765853.625
  22765853.804          45.250          32.2504
 20  1  5  0 23 30.0000000  0  8G16G29G10G27G21G20G15G13
 128289876.883 6  99966130.22243  24412750.618    24412750.674
  24412752.664          39.000          21.5004
 120091862.257 7  93578071.957 7  22852718.280    22852718.525    22852720.395
  22852720.141          47.000          45.250
 119716478.892 7  93285571.419 8  22781287.793    22781287.714    22781291.074
  22781291.816          46.500          48.000
 124234559.580 7  96806153.532 7  23641050.604    23641050.419    23641054.090
  23641054.173          43.750          46.000
 110058833.676 8  85760131.14847  20943496.280    20943495.866
  20943496.810          49.750          46.5004
 108570067.083 8  84600052.92747  20660194.914    20660194.435
  20660195.672          50.250          45.5004
 109614191.650 8  85413659.042 8  20858885.958    20858885.973    20858886.719
  20858886.737          52.750          51.250
 119703618.451 7  93275552.14145  22778839.611    22778839.390
  22778841.115          45.000          32.0004
 20  1  5  0 24  0.0000000  0  8G16G29G10G27G21G20G15G13
 128343080.212 6 100007587.37443  24422875.002    24422874.846
  24422876.808          39.750          21.0004
 120199093.018 7  93661628.379 7  22873123.533    22873123.730    22873125.526
  22873125.703          47.250          45.250
 119641031.444 7  93226781.212 8  22766930.878    22766931.155    22766934.211
  22766934.497          46.750          48.250
 124149964.006 7  96740234.913 7  23624952.884    23624952.598    23624956.276
  23624955.678          43.500          46.000
 110041327.280 8  85746489.79747  20940165.129    20940164.455
  20940165.456          49.750          46.2504
 108527772.488 8  84567096.11247  20652146.546    20652145.872
  20652147.250          50.750          45.2504
 109644640.971 8  85437385.796 8  20864680.304    20864680.430    20864680.914
  20864680.890          52.500          51.500
 119772342.408 7  93329103.29145  22791917.472    22791916.962
  22791918.407          45.250          32.2504
 20  1  5  0 24 30.0000000  0  8G16G29G10G27G21G20G15G13
 128396690.534 6 100049361.61143  24433077.276    24433077.389
  24433078.708          39.250          22.0004
 120306556.826 7  93745366.394 7  22893573.600    22893573.367    22893575.320
  22893575.076          47.000          45.000
 119565793.998 7  93168154.660 8  22752613.561    22752613.534    22752616.696
  22752617.207          46.250          48.250
 124065735.369 7  96674602.231 7  23608924.886    23608924.364    23608928.074
  23608927.841          43.500          45.750
 110024085.956 8  85733055.00847  20936884.176    20936883.567
  20936884.429          49.500          46.5004
 108485787.015 8  84534380.16547  20644157.105    20644156.261
  20644157.576          50.250          45.2504
 109675701.247 8  85461588.609 8  20870590.707    20870590.872    20870591.924
  20870591.589          52.250          51.500
 119841544.527 7  93383027.00745  22805086.707    22805085.884
  22805087.586          45.000          32.0004
 20  1  5  0 25  0.0000000  0  8G16G29G10G27G21G20G15G13
 128450705.561 6 100091451.30143  24443356.340    24443354.773
  24443357.148          40.250          22.5004
 120414250.673 7  93829283.687 7  22914067.416    22914067.552    22914068.677
  22914068.218          47.750          44.000
 119490766.751 7  93109691.861 8  22738336.499    22738336.397    22738339.616
  22738339.818          47.000          48.250
 123981876.118 7  96609257.366 7  23592966.500    23592966.551    23592970.241
  23592970.127          43.750          46.000
 110007110.645 8  85719827.49747  20933653.931    20933653.192
  20933654.077          49.500          46.0004
 108444110.401 8  84501904.88847  20636226.247    20636225.456
  20636226.846          50.500          45.5004
 109707370.687 8  85486266.098 8  20876617.117    20876617.406    20876618.033
  20876618.098          52.750          51.500
 119911221.963 7  93437321.10145  22818345.637    22818345.416
  22818346.159          45.000          32.5004
 20  1  5  0 25 30.0000000  0  8G16G29G10G27G21G20G15G13
 128505122.292 6 100133853.90243  24453710.485    24453710.713
  24453711.835          38.250          21.5004
 120522171.937 7  93913378.179 7  22934604.206    22934604.065    22934604.833
  22934605.581          47.750          44.250
 119415950.117 7  93051393.199 8  22724099.341    22724099.466    22724102.892
  22724103.204          47.000          48.750
 123898388.846 7  96544202.356 7  23577079.927    23577079.257    23577082.778
  23577083.133          44.000          45.750
 109990401.793 8  85706807.60847  20930474.361    20930473.747
  20930474.623          49.500          46.2504
 108402743.153 8  84469670.68547  20628354.164    20628353.675
  20628354.887          50.250          45.2504
 109739648.027 8  85511417.279 8  20882759.353    20882759.503    20882760.416
  20882760.259          53.000          51.500
 119981372.375 7  93491983.77845  22831694.840    22831695.296
  22831695.614          45.750          32.5004
 20  1  5  0 26  0.0000000  0  8G16G29G10G27G21G20G15G13
 128559936.868 6 100176566.56243  24464141.771    24464141.812
  24464143.890          38.750          21.5004
 120630316.915 7  93997647.005 7  22955183.198    22955183.119    22955184.622
  22955184.603          47.250          44.750
 119341343.800 7  92993258.426 8  22709902.298    22709902.368    22709905.822
  22709905.978          47.250          48.500
 123815275.465 7  96479438.670 7  23561263.638    23561263.587    23561266.887
  23561266.720          43.750          45.750
 109973960.309 8  85693996.05347  20927345.608    20927345.024
  20927345.909          49.750          46.2504
 108361684.343 8  84437676.81547  20620540.913    20620540.145
  20620541.678          50.000          45.5004
 109772531.029 8  85537040.404 8  20889016.870    20889016.811    20889017.754
  20889017.672          53.000          51.500
 120051992.844 7  93547012.70445  22845133.617    22845133.636
  22845134.675          45.250          32.2504
 20  1  5  0 26 30.0000000  0  9G16G29G10G27G26G21G20G15G13
 128615148.988 6 100219588.96243  24474648.650    24474649.311
  24474649.569          38.750          23.5004
 120738684.775 7  94082089.467 7  22975804.891    22975804.601    22975806.911
