     2.11           OBSERVATION DATA    G (GPS)             RINEX VERSION / TYPE
teqc  2018Jun8                          20200104 01:12:02UTCPGM / RUN BY / DATE
Linux 2.4.20-8|x86|gcc -static|Linux 32|=+                  COMMENT
BIT 2 OF LLI FLAGS DATA COLLECTED UNDER A/S CONDITION       COMMENT
POL2                                                        MARKER NAME
GGN                 JPL                                     OBSERVER / AGENCY
02563                 Javad Delta-3             1s jps      REC # / TYPE / VERS
383-1030            TPSCR.G3                                ANT # / TYPE
  1239971.4511  4530790.0876  4302578.7950                  APPROX POSITION XYZ
        0.0780        0.0000        0.0000                  ANTENNA: DELTA H/E/N
     1     1                                                WAVELENGTH FACT L1/2
     8    L1    L2    C1    P1    C2    P2    S1    S2      # / TYPES OF OBSERV
    30.0000                                                 INTERVAL
Forced Modulo Decimation to 30 seconds                      COMMENT
 SNR is mapped to RINEX snr flag value [0-9]                COMMENT
  L1 & L2: min(max(int(snr_dBHz/6), 0), 9)                  COMMENT
teqc edited: all GLONASS satellites excluded                COMMENT
teqc edited: all SBAS satellites excluded                   COMMENT
teqc edited: all Galileo satellites excluded                COMMENT
teqc edited: all Beidou satellites excluded                 COMMENT
teqc edited: all QZSS satellites excluded                   COMMENT
teqc edited: all IRNSS satellites excluded                  COMMENT
pseudorange smoothing corrections not applied               COMMENT
  2020     1     4     0     0    0.0000000     GPS         TIME OF FIRST OBS
                                                            END OF HEADER
 20  1  4  0  0  0.0000000  0 10G29G05G10G21G13G20G26G27G15G16
 114606756.053 8  89303966.908 8  21808940.364    21808940.186    21808941.914
  21808942.150          49.000          48.500
 130213966.260 7 101465443.796 6  24778896.218    24778895.580    24778896.600
  24778895.387          43.500          38.500
 124192300.884 7  96773222.239 7  23633008.842    23633009.320    23633012.304
  23633013.208          42.250          45.000
 111410126.085 7  86813091.03247  21200641.638    21200640.944
  21200642.148          47.750          45.7504
 116715877.162 7  90947435.51745  22210291.031    22210291.216
  22210292.230          47.500          35.5004
 111385507.101 7  86793908.93147  21195957.077    21195956.709
  21195958.637          46.500          42.7504
 128294647.916 6  99969857.457 6  24413662.580    24413662.117    24413666.559
  24413666.422          37.250          40.250
 129393589.790 6 100826170.216 6  24622780.335    24622780.553    24622783.888
  24622783.805          39.500          38.750
 108910405.451 8  84865249.061 8  20724959.047    20724959.020    20724960.251
  20724960.187          53.250          52.500
 126054668.896 6  98224413.22144  23987405.778    23987405.514
  23987407.004          38.500          25.7504
 20  1  4  0  0 30.0000000  0 10G29G05G10G21G13G20G26G27G15G16
 114697174.103 8  89374422.527 8  21826145.990    21826146.342    21826148.335
  21826148.135          49.000          48.750
 130314925.711 6 101544113.474 6  24798107.909    24798106.749    24798107.976
  24798107.920          41.750          38.250
 124106056.011 6  96706018.442 7  23616596.811    23616596.779    23616600.630
  23616601.637          41.750          45.250
 111379607.964 7  86789310.67447  21194834.162    21194833.404
  21194834.780          47.500          46.0004
 116754955.797 7  90977886.40045  22217727.367    22217726.879
  22217728.331          47.000          35.7504
 111326476.985 7  86747911.45547  21184724.040    21184723.588
  21184725.167          47.000          42.7504
 128355374.409 6 100017176.810 6  24425218.619    24425218.541    24425223.154
  24425222.970          39.000          40.750
 129292903.307 6 100747713.199 6  24603621.276    24603619.848    24603623.902
  24603623.862          39.250          39.250
 108905605.219 8  84861508.629 8  20724045.362    20724045.564    20724046.904
  20724046.679          53.750          52.500
 126081844.062 6  98245588.66244  23992576.880    23992577.093
  23992578.104          38.500          25.2504
 20  1  4  0  1  0.0000000  0 10G29G05G10G21G13G20G26G27G15G16
 114787963.083 8  89445167.191 8  21843422.848    21843422.930    21843424.647
  21843424.205          48.750          48.250
 130415870.455 7 101622771.706 6  24817316.133    24817317.010    24817318.777
  24817317.758          42.500          38.500
 124019990.773 7  96638954.635 7  23600219.416    23600219.522    23600222.869
  23600222.855          42.250          45.250
 111349296.990 7  86765691.73547  21189066.230    21189065.578
  21189066.779          47.750          45.7504
 116794619.876 7  91008793.47345  22225275.226    22225275.120
  22225276.564          47.000          35.7504
 111267741.271 7  86702143.36647  21173546.957    21173546.280
  21173548.339          47.000          42.7504
 128416404.748 6 100064732.901 6  24436831.405    24436831.668    24436836.144
  24436836.521          37.250          39.750
 129192435.614 6 100669426.667 6  24584501.927    24584502.768    24584506.149
  24584505.573          38.500          40.000
 108901455.366 8  84858274.978 8  20723255.622    20723255.800    20723257.095
  20723256.993          53.000          52.500
 126109545.647 6  98267174.32744  23997848.686    23997847.962
  23997849.561          36.750          24.7504
 20  1  4  0  1 30.0000000  0 10G29G05G10G21G13G20G26G27G15G16
 114879120.803 8  89516199.179 8  21860769.686    21860769.458    21860771.320
  21860771.543          48.750          48.250
 130516799.275 7 101701417.589 6  24836522.079    24836521.951    24836523.498
  24836524.408          42.250          38.250
 123934105.811 7  96572031.285 7  23583876.346    23583876.270    23583879.936
  23583880.787          42.500          45.750
 111319194.006 7  86742234.86447  21183337.717    21183337.270
  21183338.348          47.250          45.7504
 116834868.113 7  91040155.73046  22232934.443    22232934.309
  22232935.193          47.250          36.0004
 111209300.265 7  86656604.92647  21162426.171    21162425.545
  21162427.402          47.000          43.0004
 128477736.077 6 100112523.545 6  24448502.502    24448502.783    24448506.557
  24448507.585          37.750          40.000
 129092189.306 6 100591312.648 6  24565425.880    24565424.933    24565429.502
  24565429.887          38.000          41.000
 108897955.817 8  84855548.071 8  20722589.667    20722589.862    20722591.357
  20722591.186          52.750          52.500
 126137771.618 6  98289168.55744  24003220.014    24003219.414
  24003220.883          37.250          25.2504
 20  1  4  0  2  0.0000000  0 10G29G05G10G26G21G13G20G27G15G16
 114970643.999 8  89587515.946 8  21878186.011    21878185.794    21878187.755
  21878187.626          49.000          48.250
 130617710.486 6 101780049.681 5  24855724.710    24855724.504    24855725.139
  24855725.044          41.500          35.500
 123848401.082 7  96505248.387 7  23567567.072    23567566.891    23567570.842
  23567571.380          42.500          45.250
 128539371.459 6                  24460229.276
                        37.500
 111289299.113 7  86718940.13647  21177648.989    21177648.369
  21177649.519          47.500          46.0004
 116875698.827 7  91071971.86045  22240704.448    22240703.671
  22240705.172          47.500          35.7504
 111151153.316 7  86611295.62147  21151360.828    21151360.354
  21151362.372          46.750          42.5004
 128992166.367 6 100513372.674 6  24546390.821    24546391.870    24546395.950
  24546396.228          37.750          41.750
 108895105.882 8  84853327.345 8  20722047.350    20722047.471    20722048.814
  20722048.918          52.250          52.250
 126166519.738 6  98311569.68343  24008690.320    24008689.677
  24008690.682          36.500          23.7504
 20  1  4  0  2 30.0000000  0  9G29G05G10G26G21G13G20G27G15
 115062531.604 8  89659116.673 8  21895671.059    21895671.418    21895672.695
  21895673.186          48.250          48.000
 130718604.245 6 101858668.233 6  24874923.995    24874924.735    24874925.383
  24874926.542          41.250          37.000
 123762878.510 7  96438607.426 7  23551292.724    23551292.731    23551295.991
  23551296.445          42.500          45.000
 128601296.897 6 100208805.234 6  24472014.274    24472013.906    24472019.025
  24472018.531          37.250          41.500
 111259614.400 7  86695809.18947  21172000.162    21171999.742
  21172000.658          47.500          46.0004
 116917111.403 7  91104241.41045  22248584.799    22248584.688
  22248585.685          47.750          35.7504
 111093302.644 7  86566217.18247  21140352.907    21140351.995
  21140353.774          47.250          43.5004
 128892370.719 6 100435609.825 7  24527401.642    24527400.877    24527406.511
  24527405.784          38.500          42.500
 108892906.653 8  84851613.672 8  20721628.797    20721628.966    20721630.634
  20721630.353          52.500          52.500
 20  1  4  0  3  0.0000000  0  9G29G05G10G26G21G13G20G27G15
 115154782.285 8  89731000.325 8  21913226.068    21913226.288    21913228.082
  21913227.992          48.250          48.000
 130819480.156 6 101937272.904 6  24894120.034    24894119.771    24894121.751
  24894121.612          40.750          37.500
 123677539.421 7  96372109.429 7  23535053.315    23535053.466    23535056.754
  23535057.088          42.250          45.250
 128663515.727 6 100257287.446 6  24483854.582    24483854.364    24483858.429
  24483859.252          37.000          40.000
 111230141.462 7  86672843.25647  21166391.521    21166390.998
  21166392.091          47.000          45.7504
 116959105.067 7  91136963.73645  22256575.868    22256576.175
  22256577.102          47.500          35.7504
 111035748.958 7  86521370.16347  21129400.107    21129399.468
  21129401.684          46.500          42.5004
 128792805.691 6 100358026.697 7  24508455.055    24508455.412    24508459.251
  24508459.220          39.250          42.500
 108891358.829 8  84850407.585 8  20721334.312    20721334.586    20721335.725
  20721335.833          52.000          52.250
 20  1  4  0  3 30.0000000  0  9G29G05G10G26G21G13G20G27G15
 115247389.681 8  89803161.926 8  21930848.661    21930848.853    21930850.728
  21930850.481          48.500          48.000
 130920332.844 7 102015859.523 6  24913311.879    24913311.310    24913314.110
  24913313.521          42.000          38.000
 123592380.664 7  96305751.960 7  23518847.855    23518847.977    23518851.565
  23518852.028          42.500          45.250
 128726021.937 6 100305993.555 6  24495748.722    24495747.861    24495753.715
  24495753.618          37.000          41.000
 111200877.258 8  86650039.97547  21160822.842    21160822.218
  21160823.409          48.000          45.7504
 117001674.497 8  91170134.71245  22264676.995    22264676.411
  22264677.951          48.000          35.7504
 110978488.801 7  86476751.85547  21118504.485    21118503.572
  21118505.152          47.250          43.2504
 128693470.132 6 100280622.389 6  24489552.487    24489552.660    24489556.219
  24489555.868          40.500          41.500
 108890458.790 8  84849706.262 8  20721163.320    20721163.194    20721164.738
  20721164.490          51.500          52.250
 20  1  4  0  4  0.0000000  0 10G29G05G10G26G16G21G13G20G27G15
 115340354.445 8  89875601.997 8  21948539.101    21948539.546    21948541.499
  21948541.025          48.500          48.250
 131021164.635 7 102094429.744 6  24932499.391    24932500.006    24932500.797
  24932500.820          42.000          37.250
 123507406.076 6  96239537.992 7  23502677.550    23502677.432    23502681.732
  23502681.718          41.750          45.750
 128788815.857 6 100354923.884 6  24507697.488    24507697.935    24507701.639
  24507701.187          37.250          39.750
 126286704.437 6                  24031561.205
                        37.500
 111171826.545 7  86627403.05147  21155294.699    21155294.132
  21155295.251          46.750          46.0004
 117044821.478 8  91203755.73546  22272887.145    22272887.230
  22272888.353          48.000          36.0004
 110921525.791 7  86432365.09047  21107664.199    21107663.664
  21107665.700          46.250          42.7504
 128594369.935 6 100203401.447 6  24470694.204    24470694.003    24470697.758
  24470697.650          40.750          40.750
 108890209.510 8  84849512.028 8  20721115.670    20721115.832    20721117.102
  20721116.907          50.250          52.250
 20  1  4  0  4 30.0000000  0  9G29G05G10G26G21G13G20G27G15
 115433672.759 8  89948317.572 8  21966297.336    21966297.478    21966298.809
  21966298.961          48.500          48.000
 131121972.794 7 102172981.584 6  24951683.515    24951683.437    24951683.750
  24951682.999          42.000          36.750
 123422614.564 7  96173466.698 7  23486542.456    23486542.988    23486546.468
  23486546.648          42.500          45.750
 128851892.954 6 100404074.868 6  24519701.565    24519701.178    24519706.802
  24519706.772          37.750          41.750
 111142988.686 7  86604931.98547  21149807.221    21149806.374
  21149807.618          46.750          46.0004
 117088542.606 7  91237824.15046  22281207.034    22281206.619
  22281207.839          47.500          36.0004
 110864858.556 7  86388208.80847  21096881.775    21096880.778
  21096882.205          47.750          43.2504
 128495506.056 6 100126364.667 6  24451880.818    24451880.855    24451884.425
  24451883.805          41.000          40.250
 108890608.809 8  84849823.178 8  20721191.572    20721191.844    20721193.038
  20721192.864          50.500          52.250
 20  1  4  0  5  0.0000000  0  8G29G05G10G21G13G20G27G15
 115527344.912 7  90021308.850 8  21984122.441    21984122.202    21984124.571
  21984124.167          47.750          48.000
 131222759.270 6 102251516.458 6  24970862.353    24970861.958    24970862.589
  24970861.656          40.500          36.500
 123338009.689 7  96107540.820 7  23470442.845    23470442.685    23470447.356
  23470447.046          42.250          46.250
 111114367.971 7  86582630.12047  21144360.509    21144360.188
  21144361.378          47.000          46.2504
 117132839.132 7  91272340.91145  22289635.937    22289635.991
  22289637.656          47.750          35.5004
 110808490.439 7  86344285.61747  21086154.273    21086153.460
  21086155.666          46.000          43.0004
 128396884.084 6 100049516.370 6  24433113.960    24433113.278    24433117.352
  24433116.729          41.250          40.000
 108891659.560 8  84850641.960 8  20721391.680    20721391.692    20721392.963
  20721392.780          51.000          52.250
 20  1  4  0  5 30.0000000  0  9G29G05G10G21G13G20G16G27G15
 115621365.324 8  90094571.506 8  22002013.934    22002014.032    22002015.836
  22002016.022          48.000          48.250
 131323519.435 6 102330030.946 6  24990035.329    24990035.990    24990036.520
  24990037.431          39.000          39.250
 123253588.674 7  96041758.216 7  23454378.196    23454378.444    23454382.042
  23454382.330          42.000          46.000
 111085960.771 7  86560494.63047  21138954.909    21138954.378
  21138955.635          46.750          46.0004
 117177705.785 7  91307301.94545  22298174.086    22298174.032
  22298175.277          47.750          35.7504
 110752418.308 7  86300593.06047  21075484.958    21075484.262
  21075485.482          47.500          43.5004
 126382246.554 6  98479672.77144  24049742.135    24049741.530
  24049743.707          36.250          25.2504
 128298503.292 6  99972856.019 6  24414392.726    24414392.640    24414395.567
  24414395.267          40.750          39.500
 108893358.162 8  84851965.560 8  20721714.882    20721714.961    20721716.543
  20721716.059          51.250          52.250
 20  1  4  0  6  0.0000000  0  9G29G05G10G21G13G20G27G15G26
 115715733.749 8  90168105.329 8  22019972.086    22019971.961    22019973.538
  22019973.413          48.250          48.000
 131424254.300 6 102408525.625 6  25009203.967    25009204.076    25009205.174
  25009205.495          36.250          39.250
 123169354.213 7  95976120.978 7  23438348.669    23438348.580    23438352.473
  23438353.068          42.000          46.000
 111057770.313 7  86538528.03447  21133590.477    21133590.033
  21133591.139          47.000          46.2504
 117223143.468 8  91342707.94245  22306820.922    22306820.573
  22306822.145          48.250          35.5004
 110696644.332 7  86257132.82347  21064870.822    21064869.806
  21064871.768          46.250          42.7504
 128200368.424 6  99896387.289 6  24395718.443    24395718.439    24395720.036
  24395720.477          40.250          39.250
 108895706.498 8  84853795.434 8  20722161.781    20722161.821    20722163.541
  20722163.056          50.500          52.500
 129042798.875 6 100552841.376 6  24556030.864    24556030.587    24556034.681
  24556034.464          37.000          36.750
 20  1  4  0  6 30.0000000  0 10G29G05G10G16G21G13G20G26G27G15
 115810446.851 7  90241907.744 7  22037994.936    22037994.893    22037997.077
  22037996.548          47.750          47.750
 131524961.784 6 102486999.061 6  25028368.625    25028369.474    25028369.315
  25028369.213          38.750          37.250
 123085306.136 7  95910628.965 7  23422354.980    23422355.186    23422358.657
  23422359.404          42.000          46.000
 126448490.551 6                  24062347.287
                        37.000
 111029797.681 7  86516731.17047  21128267.637    21128266.933
  21128268.085          47.000          46.0004
 117269149.503 8  91378556.79645  22315575.419    22315574.924
  22315576.485          48.500          35.5004
 110641168.383 7  86213904.82447  21054314.815    21054314.007
  21054315.734          47.000          44.0004
 129106996.442 6                  24568244.727
                        37.750
 128102481.338 6  99820111.616 6  24377091.418    24377090.563    24377093.602
  24377093.175          40.000          40.250
 108898703.370 8  84856130.672 8  20722731.987    20722732.148    20722733.327
  20722733.469          50.500          52.500
 20  1  4  0  7  0.0000000  0  9G29G05G10G21G13G20G26G27G15
 115905502.772 7  90315977.288 8  22056083.563    22056083.634    22056085.880
  22056085.471          47.750          48.000
 131625641.452 6 102565450.683 6  25047527.808    25047528.011    25047528.399
  25047528.882          41.000          40.000
 123001445.415 6  95845282.966 7  23406396.855    23406396.808    23406400.311
  23406400.804          41.500          45.500
 111002044.092 7  86495104.99347  21122986.254    21122985.578
  21122986.751          46.250          46.0004
 117315722.708 8  91414847.60945  22324437.777    22324437.818
  22324439.306          48.000          35.2504
 110585990.892 7  86170909.37647  21043814.158    21043813.209
  21043815.370          45.750          43.0004
 129171453.295 6 100653081.001 7  24580510.381    24580510.501    24580515.632
  24580515.385          36.500          43.000
 128004845.172 6  99744031.490 6  24358511.350    24358510.454    24358515.063
  24358514.040          40.000          41.000
 108902349.216 8  84858971.603 8  20723425.579    20723425.827    20723427.305
  20723427.090          50.250          52.500
 20  1  4  0  7 30.0000000  0  8G29G05G10G21G13G20G27G15
 116000899.806 8  90390312.639 7  22074236.856    22074237.144    22074238.976
  22074238.845          48.250          47.750
 131726293.299 6 102643880.681 6  25066680.567    25066681.469    25066682.728
  25066683.109          40.750          40.250
 122917773.532 6  95780084.102 7  23390474.200    23390474.643    23390478.295
  23390478.789          40.750          46.000
 110974511.210 7  86473650.79847  21117746.740    21117746.363
  21117747.452          47.750          46.0004
 117362862.190 8  91451579.67345  22333408.466    22333408.411
  22333409.192          48.000          35.0004
 110531113.007 7  86128147.39747  21033371.977    21033371.152
  21033372.411          47.750          44.0004
 127907463.407 6  99668149.598 7  24339979.653    24339979.838    24339983.763
  24339983.416          41.000          42.000
 108906644.293 8  84862318.417 8  20724243.134    20724243.189    20724244.479
  20724244.464          51.250          52.250
 20  1  4  0  8  0.0000000  0  8G29G05G10G21G13G20G27G15
 116096633.364 7  90464910.203 7  22092454.847    22092454.599    22092456.776
  22092456.656          47.750          47.750
 131826913.632 6 102722286.162 6  25085827.983    25085828.411    25085829.208
  25085828.699          40.500          38.000
 122834288.798 7  95715031.064 7  23374587.969    23374588.441    23374591.292
  23374591.667          42.250          45.750
 110947197.517 7  86452367.39747  21112549.258    21112548.681
  21112549.840          47.750          46.0004
 117410563.863 8  91488749.80245  22342486.020    22342485.739
  22342486.193          48.000          35.0004
 110476532.985 7  86085617.52647  21022984.360    21022983.952
  21022986.218          45.000          43.2504
 127810336.500 7  99592466.281 7  24321497.326    24321497.554    24321500.999
  24321501.359          42.000          42.250
 108911586.095 8  84866169.187 8  20725183.424    20725183.599    20725184.997
  20725184.697          51.000          52.250
 20  1  4  0  8 30.0000000  0  9G29G05G10G21G13G20G27G15G26
 116192701.643 8  90539768.597 7  22110735.932    22110736.052    22110737.905
  22110737.759          48.000          47.750
 131927502.341 6 102800666.957 6  25104969.998    25104970.012    25104970.494
  25104970.564          41.750          39.000
 122750992.636 7  95650124.954 7  23358737.404    23358737.616    23358741.337
  23358741.775          42.000          46.250
 110920104.754 7  86431256.14847  21107393.509    21107392.995
  21107394.204          47.750          46.0004
 117458826.759 7  91526357.25845  22351670.056    22351669.817
  22351670.874          47.750          35.0004
 110422251.934 7  86043320.59547  21012656.323    21012655.580
  21012656.834          46.750          44.0004
 127713467.902 7  99516984.239 7  24303064.004    24303064.689    24303067.521
  24303067.458          42.000          42.750
 108917174.826 8  84870524.044 8  20726246.921    20726246.991    20726248.388
  20726248.109          50.000          52.000
 129366414.167 6 100805000.076 6  24617610.825    24617610.969    24617615.418
  24617615.531          36.500          37.500
 20  1  4  0  9  0.0000000  0  9G29G05G10G21G13G20G26G27G15
 116289103.197 8  90614886.696 7  22129080.800    22129080.451    22129081.995
  22129082.033          48.250          47.500
 132028059.191 6 102879022.973 6  25124104.111    25124105.003    25124106.876
  25124106.674          39.750          39.250
 122667886.670 7  95585367.082 7  23342922.787    23342922.954    23342926.486
  23342926.616          42.000          45.750
 110893235.864 8  86410319.34547  21102280.518    21102279.888
  21102281.235          48.000          46.0004
 117507650.278 7  91564401.56145  22360960.464    22360960.436
  22360961.977          47.500          34.7504
 110368270.962 7  86001257.52247  21002383.106    21002382.312
  21002384.717          45.500          43.2504
 129431921.339 6                  24630075.724
                        36.500
 127616861.376 7  99441706.417 7  24284680.129    24284680.054    24284683.958
  24284684.017          42.250          43.000
 108923411.384 8  84875383.699 8  20727433.703    20727433.899    20727435.279
  20727434.836          51.500          52.250
 20  1  4  0  9 30.0000000  0  9G29G05G10G21G13G20G16G27G15
 116385834.958 7  90690262.100 7  22147487.697    22147487.783    22147489.552
  22147489.749          47.250          47.500
 132128582.672 6 102957352.928 6  25143233.647    25143234.601    25143235.130
  25143235.789          40.250          38.250
 122584970.668 7  95520757.199 7  23327144.682    23327144.410    23327148.241
  23327148.684          42.250          46.500
 110866590.346 8  86389556.59647  21097210.203    21097209.741
  21097210.803          48.500          46.0004
 117557031.703 7  91602880.58745  22370357.352    22370357.307
  22370358.530          47.250          35.0004
 110314589.704 7  85959427.96247  20992168.644    20992167.954
  20992169.353          47.250          43.7504
 126659267.711 6  98695531.44644  24102457.334    24102456.841
  24102458.338          36.500          24.2504
 127520518.713 6  99366634.194 7  24266347.283    24266347.035    24266350.868
  24266350.939          41.500          42.500
 108930294.313 8  84880747.027 8  20728743.321    20728743.543    20728745.101
  20728744.801          51.250          52.250
 20  1  4  0 10  0.0000000  0  9G29G05G10G16G21G13G20G27G15
 116482895.386 7  90765893.593 7  22165957.695    22165957.775    22165959.558
  22165959.965          47.250          47.500
 132229072.639 6 103035656.844 6  25162357.239    25162356.819    25162357.991
  25162358.122          41.000          39.250
 122502246.149 6  95456296.552 7  23311401.946    23311402.284    23311406.377
  23311406.710          41.500          46.250
 126696130.744 6                  24109472.849
                        36.750
 110840170.100 8  86368969.38747  21092182.719    21092181.916
  21092183.192          48.500          46.0004
 117606970.323 7  91641793.77545  22379860.793    22379860.015
  22379861.776          47.750          34.7504
 110261209.288 7  85917832.84747  20982010.310    20982009.575
  20982011.659          46.250          43.5004
 127424443.658 6  99291770.515 7  24248064.398    24248064.403    24248068.131
  24248068.254          41.250          42.500
 108937824.117 8  84886614.416 8  20730176.132    20730176.323    20730177.702
  20730177.767          51.000          52.500
 20  1  4  0 10 30.0000000  0  9G29G05G10G16G21G13G20G27G15
 116580282.431 7  90841779.600 7  22184490.020    22184489.796    22184492.045
  22184491.857          47.250          47.250
 132329528.896 6 103113934.401 6  25181472.219    25181472.518    25181473.693
  25181473.649          38.000          37.750
 122419714.156 7  95391985.905 7  23295696.729    23295696.733    23295700.602
  23295700.502          42.000          46.000
 126733490.977 6  98753369.29444  24116581.069    24116580.461
  24116582.188          37.250          24.0004
 110813976.986 8  86348559.16647  21087198.145    21087197.631
  21087198.857          48.500          46.0004
 117657464.732 7  91681140.09845  22389469.199    22389469.303
  22389470.030          47.500          34.7504
 110208130.763 7  85876472.95147  20971910.096    20971909.329
  20971910.924          47.000          44.0004
 127328639.263 6  99217117.725 7  24229833.936    24229833.186    24229836.314
  24229837.349          41.000          42.250
 108946000.924 8  84892985.957 8  20731732.213    20731732.377    20731733.805
  20731733.822          51.500          52.500
 20  1  4  0 11  0.0000000  0 10G29G05G10G16G21G13G20G26G27G15
 116677991.247 7  90917916.337 7  22203082.952    22203082.880    22203085.352
  22203085.118          46.750          47.250
 132429947.409 6 103192182.628 6  25200581.359    25200582.834    25200584.032
  25200582.763          38.750          39.000
 122337372.759 6  95327823.782 7  23280027.947    23280028.102    23280031.190
  23280031.575          41.750          45.750
 126771337.006 6  98782859.70544  24123783.743    24123783.553
  24123784.128          36.250          24.2504
 110788009.016 8  86328324.38247  21082256.414    21082256.117
  21082257.304          49.000          46.0004
 117708510.742 7  91720916.18945  22399182.718    22399182.833
  22399184.533          47.500          34.7504
 110155351.607 7  85835346.35547  20961866.064    20961865.646
  20961867.470          47.250          43.5004
 129696492.539 6 101062203.668 5  24680422.301    24680421.986    24680426.563
  24680426.208          37.000          35.500
 127233105.796 6  99142676.049 7  24211654.534    24211654.078    24211657.668
  24211658.044          41.250          42.500
 108954821.711 8  84899859.307 8  20733410.928    20733410.945    20733412.457
  20733412.141          52.000          52.750
 20  1  4  0 11 30.0000000  0  9G29G05G10G16G21G13G20G27G15
 116776021.580 7  90994303.606 7  22221737.878    22221737.766    22221739.366
  22221739.557          47.250          47.000
 132530330.107 6 103270402.923 5  25219684.194    25219684.286    25219686.284
  25219684.899          40.000          35.000
 122255225.085 7  95263812.611 7  23264395.390    23264395.358    23264399.591
  23264400.040          42.250          46.500
 126809670.449 6  98812729.69243  24131078.724    24131077.925
  24131079.361          36.750          23.0004
 110762270.488 8  86308268.37747  21077358.625    21077358.216
  21077359.347          48.750          45.7504
 117760108.873 7  91761122.52445  22409001.599    22409001.523
  22409002.400          47.000          34.7504
 110102874.722 7  85794455.25847  20951880.536    20951879.752
  20951881.626          47.750          44.0004
 127137848.486 6  99068449.571 7  24193527.409    24193526.809    24193530.310
  24193530.843          41.000          42.250
 108964288.352 8  84907235.923 8  20735212.255    20735212.393    20735213.674
  20735213.509          52.250          52.250
 20  1  4  0 12  0.0000000  0 10G29G05G10G16G21G13G20G26G27G15
 116874369.218 7  91070938.131 7  22240452.614    22240452.740    22240454.432
  22240454.880          47.500          46.750
 132630673.876 6 103348592.904 6  25238779.097    25238778.505    25238780.402
  25238779.246          39.000          37.000
 122173269.646 7  95199951.245 7  23248800.039    23248799.749    23248803.834
  23248804.421          42.500          46.500
 126848488.931 6  98842977.86643  24138465.172    24138464.052
  24138466.562          36.250          23.7504
 110736759.742 8  86288389.87447  21072504.432    21072503.516
  21072504.877          49.250          46.0004
 117812255.487 7  91801756.25345  22418924.906    22418924.749
  22418926.095          47.000          34.5004
 110050698.614 7  85753798.57147  20941951.320    20941950.769
  20941952.628          47.500          43.7504
 129830259.667 6 101166434.872 7  24705876.500    24705875.954    24705881.077
  24705881.720          36.500          44.000
 127042867.896 6  98994438.731 7  24175453.301    24175452.363    24175456.516
  24175457.131          41.000          42.500
 108974398.270 8  84915113.775 8  20737136.287    20737136.279    20737137.580
  20737137.512          52.500          52.250
 20  1  4  0 12 30.0000000  0 10G29G05G10G16G21G13G20G26G27G15
 116973032.363 7  91147818.502 7  22259227.793    22259227.742    22259229.874
  22259229.567          47.250          47.000
 132730978.404 6 103426752.271 5  25257866.039    25257866.263    25257866.486
  25257867.323          38.250          34.000
 122091507.888 7  95136240.787 7  23233240.901    23233241.440    23233245.402
  23233245.778          42.750          47.000
 126887788.658 6                  24145943.515
                        38.000
 110711478.788 8  86268690.41947  21067693.567    21067692.900
  21067694.015          49.750          46.0004
 117864948.897 7  91842816.04745  22428952.242    22428951.715
  22428953.182          46.750          34.7504
 109998823.995 7  85713376.77447  20932080.322    20932079.438
  20932081.246          47.750          44.0004
 129897493.607 6 101218828.638 5  24718671.369    24718672.352    24718676.379
  24718677.146          37.000          35.250
 126948167.594 6  98920646.301 7  24157432.141    24157431.595    24157435.164
  24157435.820          41.000          42.500
 108985151.641 8  84923493.024 8  20739182.462    20739182.715    20739184.008
  20739183.643          52.000          52.000
 20  1  4  0 13  0.0000000  0 10G29G05G10G16G26G21G13G20G27G15
 117072008.485 7  91224942.765 7  22278062.222    22278062.286    22278064.060
  22278064.153          47.500          47.000
 132831242.720 6 103504880.349 5  25276946.003    25276946.016    25276946.877
  25276946.541          36.750          35.000
 122009940.094 7  95072681.488 7  23217719.488    23217719.313    23217723.349
  23217723.927          42.500          47.000
 126927570.616 6  98904601.70943  24153514.304    24153513.354
  24153515.267          37.000          23.0004
 129964969.076 6 101271405.900 6  24731511.428    24731510.916    24731517.191
  24731515.939          36.750          37.000
 110686428.901 8  86249171.03047  21062926.773    21062926.080
  21062927.240          49.250          46.0004
 117918187.319 7  91884300.52945  22439083.214    22439083.261
  22439084.645          47.000          34.5004
 109947251.112 7  85673190.11647  20922265.897    20922265.462
  20922267.188          47.500          44.0004
 126853750.149 6  98847074.261 7  24139465.603    24139465.477    24139468.589
  24139468.006          41.750          42.750
 108996547.658 8  84932373.039 8  20741351.093    20741351.221    20741352.693
  20741352.232          53.000          52.000
 20  1  4  0 13 30.0000000  0 10G29G05G10G16G26G21G13G20G27G15
 117171295.761 7  91302309.477 7  22296955.842    22296956.176    22296957.803
  22296957.921          47.750          47.000
                 103582977.159 5                                  25296019.678
                                        34.750
 121928567.770 7  95009274.497 7  23202234.308    23202234.554    23202238.233
  23202238.783          42.750          46.000
 126967831.103 6  98935973.49043  24161175.584    24161174.702
  24161176.284          37.500          23.2504
 130032678.136 6 101324166.223 6  24744395.853    24744395.998    24744401.081
  24744401.668          37.750          41.250
 110661611.930 8  86229833.12647  21058204.062    21058203.559
  21058204.723          49.500          46.0004
 117971969.821 7  91926208.97545  22449317.564    22449317.351
  22449318.956          46.750          34.5004
 109895981.134 8  85633239.49247  20912510.013    20912509.007
  20912511.030          48.250          44.0004
 126759619.143 7  98773725.416 7  24121553.144    24121553.568    24121556.592
  24121557.120          42.000          43.750
 109008586.795 8  84941754.184 8  20743641.918    20743642.214    20743643.318
  20743643.401          52.750          52.000
 20  1  4  0 14  0.0000000  0  8G29G10G26G21G13G20G27G15
 117270891.335 7  91379916.417 7  22315908.308    22315908.214    22315910.606
  22315910.683          47.750          47.250
 121847391.313 7  94946020.111 7  23186787.595    23186787.570    23186790.770
  23186791.545          44.000          46.000
 130100617.550 6 101377106.034 6  24757325.359    24757324.950    24757328.842
  24757329.270          38.500          40.000
 110637028.539 8  86210677.23447  21053526.050    21053525.403
  21053526.724          49.000          46.2504
 118026294.281 7  91968539.70945  22459655.225    22459655.059
  22459656.760          46.250          34.5004
 109845014.369 8  85593525.13247  20902811.418    20902810.390
  20902812.157          48.000          44.2504
 126665777.064 7  98700601.717 7  24103695.957    24103695.455    24103699.030
  24103698.935          42.500          44.000
 109021268.098 8  84951635.733 8  20746054.934    20746055.275    20746056.767
  20746056.568          53.250          52.500
 20  1  4  0 14 30.0000000  0  9G29G10G16G26G21G13G20G27G15
 117370792.258 7  91457761.280 7  22334918.741    22334918.725    22334920.313
  22334920.919          47.750          46.750
 121766410.281 7  94882918.023 7  23171377.147    23171377.219    23171380.931
  23171380.985          44.000          46.250
 127049781.662 6  98999831.52343  24176770.022    24176769.578
  24176770.355          37.500          23.7504
 130168783.700 6 101430222.516 6  24770295.123    24770296.397    24770300.960
  24770301.951          37.000          40.750
 110612678.543 8  86191703.21247  21048892.587    21048891.869
  21048893.068          49.500          46.0004
 118081157.594 7  92011290.34445  22470095.674    22470095.606
  22470096.703          46.500          34.7504
 109794349.748 8  85554046.20347  20893169.968    20893169.436
  20893171.156          48.750          44.2504
 126572225.689 7  98627704.523 7  24085893.091    24085893.250    24085896.683
  24085896.886          42.250          43.750
 109034590.009 9  84962016.453 8  20748590.201    20748590.325    20748591.874
  20748591.598          54.000          52.250
 20  1  4  0 15  0.0000000  0  9G29G10G16G26G21G13G20G27G15
 117470996.329 7  91535842.374 7  22353986.921    22353987.122    22353989.238
  22353988.856          47.250          46.500
 121685625.762 7  94819969.056 7  23156004.462    23156004.624    23156008.067
  23156008.495          44.250          46.250
 127091464.844 6  99032311.92444  24184701.739    24184701.276
  24184702.896          37.500          24.5004
 130237173.938 6 101483513.610 6  24783310.678    24783311.178    24783314.836
  24783316.156          39.000          41.000
 110588563.576 8  86172912.31947  21044303.672    21044302.880
  21044304.126          49.500          46.0004
 118136558.589 7  92054459.93845  22480638.046    22480637.743
  22480639.235          46.500          34.2504
 109743988.091 8  85514803.36347  20883586.319    20883585.789
  20883587.518          48.500          44.2504
 126478968.183 7  98555036.323 7  24068146.597    24068146.259    24068149.903
  24068150.102          42.000          44.000
 109048552.066 9  84972895.980 8  20751246.960    20751247.248    20751248.503
  20751248.417          54.000          52.250
 20  1  4  0 15 30.0000000  0  9G29G10G16G26G21G13G20G27G15
 117571500.783 7  91614157.535 7  22373112.592    22373112.388    22373114.133
  22373114.315          47.750          46.250
 121605038.085 7  94757173.466 7  23140669.778    23140669.608    23140672.340
  23140672.891          44.750          46.250
 127133617.599 6  99065158.22944  24192723.149    24192723.094
  24192724.835          37.500          25.5004
 130305785.340 6 101536977.019 6  24796366.171    24796366.692    24796371.717
  24796371.839          37.250          41.500
 110564684.997 8  86154305.63147  21039759.621    21039758.963
  21039760.252          49.500          46.0004
 118192495.045 7  92098046.79145  22491282.501    22491282.105
  22491283.298          46.500          34.2504
 109693929.744 8  85475796.86247  20874060.901    20874060.062
  20874061.666          49.000          44.5004
 126386007.043 6  98482599.049 7  24050456.450    24050456.468    24050460.124
  24050460.669          41.500          43.750
 109063153.459 8  84984273.698 8  20754025.843    20754025.755    20754027.563
  20754026.917          53.750          52.500
 20  1  4  0 16  0.0000000  0  9G29G10G16G26G21G13G20G27G15
 117672303.999 8  91692705.497 7  22392294.976    22392294.451    22392296.839
  22392296.515          48.250          46.750
 121524648.669 7  94694532.369 7  23125371.492    23125371.608    23125374.878
  23125374.965          44.000          46.000
 127176238.394 6  99098369.19344  24200833.560    24200832.056
  24200834.712          36.750          24.0004
 130374615.875 6 101590611.213 6  24809464.718    24809465.069    24809469.316
  24809469.991          38.000          40.750
 110541044.578 8  86135884.51947  21035261.202    21035260.372
  21035261.550          49.500          46.2504
 118248965.331 7  92142049.61145  22502027.925    22502027.590
  22502029.727          46.000          34.2504
 109644175.733 8  85437027.51047  20864592.795    20864591.987
  20864593.854          48.750          44.5004
 126293345.901 6  98410395.547 7  24032824.107    24032823.393    24032827.358
  24032827.948          41.750          44.250
 109078394.171 9  84996149.578 8  20756926.091    20756926.187    20756927.328
  20756927.132          54.500          52.000
 20  1  4  0 16 30.0000000  0  9G29G10G16G26G21G13G20G27G15
 117773402.745 8  91771483.724 7  22411532.967    22411533.134    22411535.124
  22411534.893          48.500          46.250
 121444457.397 7  94632045.661 7  23110111.622    23110111.936    23110115.303
  23110115.966          44.250          46.500
 127219324.726 6  99131942.99444  24209033.038    24209031.840
  24209033.786          36.500          24.0004
 130443661.964 6 101644413.334 6  24822603.124    24822603.408    24822608.631
  24822610.028          37.000          41.250
 110517642.525 8  86117649.15247  21030807.790    21030807.123
  21030808.315          49.500          46.2504
 118305967.455 7  92186466.85045  22512874.459    22512875.038
  22512876.672          45.250          34.2504
 109594725.625 8  85398494.96347  20855182.882    20855182.290
  20855183.862          49.750          44.5004
 126200986.810 6  98338427.408 7  24015248.352    24015248.774    24015252.311
  24015252.469          41.750          44.500
 109094272.905 9  85008522.620 8  20759947.578    20759947.634    20759948.784
  20759948.762          54.500          52.250
 20  1  4  0 17  0.0000000  0  9G29G10G16G26G21G13G20G27G15
 117874794.364 8  91850490.197 7  22430827.072    22430827.208    22430828.656
  22430828.878          48.250          45.750
 121364464.619 7  94569713.649 7  23094889.182    23094889.449    23094893.079
  23094893.939          44.500          47.250
 127262874.220 6  99165877.61743  24217319.221    24217318.252
  24217321.413          37.250          23.5004
 130512920.517 6 101698381.026 6  24835783.731    24835783.007    24835788.798
  24835788.370          39.000          41.250
 110494479.939 8  86099600.38047  21026400.148    21026399.439
  21026400.560          50.000          46.2504
 118363499.162 7  92231296.75645  22523822.601    22523822.766
  22523824.391          45.250          34.2504
 109545579.436 8  85360199.24947  20845830.433    20845829.717
  20845831.419          49.250          44.5004
 126108932.263 6  98266696.566 7  23997731.332    23997731.396    23997735.447
  23997734.908          41.500          45.000
 109110788.385 9  85021391.836 8  20763090.258    20763090.414    20763091.613
  20763091.454          54.500          52.000
 20  1  4  0 17 30.0000000  0  9G29G10G16G26G21G13G20G27G15
 117976476.096 8  91929722.716 7  22450176.949    22450176.713    22450178.662
  22450178.367          48.750          46.000
 121284670.801 7  94507536.670 7  23079705.553    23079705.604    23079709.248
  23079709.639          44.250          47.250
 127306884.475 6  99200171.30644  24225694.538    24225693.711
  24225696.159          38.500          24.2504
 130582388.559 6 101752511.937 6  24849002.408    24849002.476    24849008.120
  24849007.956          38.500          41.000
 110471557.813 8  86081738.97847  21022038.076    21022037.645
  21022038.639          49.750          46.2504
 118421557.806 7  92276537.24245  22534870.446    22534871.376
  22534872.524          44.250          34.2504
 109496736.913 8  85322140.14147  20836536.037    20836535.296
  20836537.085          49.000          44.2504
 126017184.917 6  98195205.124 7  23980271.738    23980272.147    23980276.051
  23980275.857          41.250          44.500
 109127939.971 9  85034756.720 8  20766354.223    20766354.394    20766355.621
  20766355.448          54.750          52.000
 20  1  4  0 18  0.0000000  0  9G29G10G16G26G21G13G20G27G15
 118078445.874 8  92009179.683 7  22469580.763    22469580.751    22469582.945
  22469583.004          48.000          46.500
 121205077.183 7  94445515.671 7  23064559.183    23064559.164    23064562.458
  23064562.825          45.000          46.500
 127351353.623 6  99234822.61044  24234157.783    24234156.452
  24234158.472          39.000          24.5004
 130652063.898 6 101806804.407 6  24862261.772    24862261.372    24862266.246
  24862265.902          38.000          39.750
 110448877.904 8  86064066.31147  21017722.201    21017721.684
  21017722.799          49.750          46.2504
 118480142.173 7  92322187.41745  22546019.726    22546019.818
  22546020.618          46.000          34.5004
 109448199.738 8  85284318.98447  20827299.749    20827299.098
  20827300.815          49.500          44.5004
 125925748.175 6  98123955.707 7  23962872.542    23962872.610    23962875.600
  23962875.862          41.500          43.750
 109145727.647 9  85048617.253 8  20769738.860    20769739.166    20769740.347
  20769740.182          54.500          52.000
 20  1  4  0 18 30.0000000  0  9G29G10G16G26G21G13G20G27G15
 118180701.234 8  92088859.164 7  22489039.794    22489039.605    22489041.339
  22489041.272          48.500          46.500
 121125683.620 7  94383650.559 7  23049451.177    23049451.393    23049454.223
  23049454.937          45.250          46.250
 127396278.621 6  99269829.11644  24242705.193    24242704.812
  24242707.136          37.750          24.7504
 130721942.922 6 101861255.591 6  24875558.119    24875558.937    24875564.649
  24875564.731          37.250          40.500
 110426440.469 8  86046582.59547  21013452.614    21013452.044
  21013453.168          50.000          46.0004
 118539249.642 7  92368245.17345  22557267.180    22557267.053
  22557268.367          45.000          34.0004
 109399967.306 8  85246735.28247  20818121.547    20818120.644
  20818122.296          49.000          44.5004
 125834624.055 6  98052949.882 7  23945532.428    23945532.058    23945534.804
  23945535.205          41.250          43.750
 109164149.666 9  85062972.078 8  20773244.340    20773244.627    20773246.266
  20773245.948          54.500          52.500
 20  1  4  0 19  0.0000000  0  9G29G10G16G26G21G13G20G27G15
 118283239.205 8  92168758.892 7  22508552.372    22508552.112    22508553.981
  22508553.314          48.750          46.000
 121046490.561 7  94321941.691 7  23034381.146    23034381.587    23034385.039
  23034385.546          45.000          47.500
 127441657.549 6  99305189.28744  24251341.740    24251341.158
  24251342.397          39.750          24.7504
 130792022.694 6 101915863.222 6  24888894.181    24888894.587    24888899.217
  24888899.851          37.000          39.250
 110404246.819 8  86029288.83347  21009229.336    21009228.714
  21009229.699          49.750          46.0004
 118598877.912 7  92414708.76945  22568614.189    22568614.187
  22568615.557          45.000          34.0004
 109352039.613 8  85209389.04547  20809000.910    20809000.231
  20809002.198          49.000          44.7504
 125743815.218 6  97982189.723 7  23928252.073    23928251.266    23928255.133
  23928255.337          41.500          43.500
 109183204.810 9  85077820.253 8  20776870.614    20776870.643    20776872.365
  20776871.954          54.500          52.000
 20  1  4  0 19 30.0000000  0  9G29G10G16G21G13G20G05G27G15
 118386057.794 7  92248877.273 7  22528117.240    22528117.310    22528119.401
  22528119.293          47.750          46.000
 120967499.190 7  94260389.992 7  23019349.219    23019349.815    23019353.045
  23019353.469          45.000          46.750
 127487488.755 6  99340901.92444  24260062.151    24260062.342
  24260064.205          39.250          24.5004
 110382298.495 8  86012186.24147  21005052.805    21005052.125
  21005053.184          49.750          46.2504
 118659025.650 7  92461577.12445  22580059.793    22580060.086
  22580061.243          44.500          33.5004
 109304417.839 8  85172281.17147  20799939.205    20799938.400
  20799940.015          49.250          44.5004
 134130565.996 6 104517386.187 6  25524212.843    25524213.945    25524214.817
  25524213.989          39.250          41.250
 125653325.045 6  97911677.882 7  23911031.664    23911031.740    23911035.130
  23911035.616          41.000          43.750
 109202892.944 9  85093161.664 8  20780617.335    20780617.275    20780618.437
  20780618.510          54.250          52.000
 20  1  4  0 20  0.0000000  0  9G29G10G16G21G13G20G05G27G15
 118489153.868 7  92329211.873 7  22547736.022    22547736.292    22547737.933
  22547738.002          47.750          46.000
 120888709.395 7  94198995.341 7  23004356.286    23004356.244    23004360.286
  23004360.882          44.750          47.000
 127533769.218 6  99376964.62544  24268869.842    24268869.312
  24268870.824          39.750          25.7504
 110360595.776 8  85995275.02447  21000922.655    21000922.162
  21000923.300          49.750          46.0004
 118719690.138 7  92508848.16445  22591603.591    22591604.280
  22591605.136          44.000          33.0004
 109257101.217 8  85135411.08947  20790934.751    20790934.099
  20790935.875          49.250          44.2504
 134230178.073 6 104595005.962 6  25543168.701    25543169.153    25543169.183
  25543169.198          38.500          38.500
 125563155.602 6  97841415.953 7  23893873.579    23893872.825    23893876.470
  23893876.609          41.500          43.750
 109223212.638 9  85108995.194 8  20784484.094    20784484.009    20784485.381
  20784485.240          54.750          52.250
 20  1  4  0 20 30.0000000  0  9G29G10G16G21G13G20G05G27G15
 118592525.015 8  92409760.825 7  22567407.131    22567407.025    22567408.738
  22567408.843          48.750          45.750
 120810122.161 7  94137758.540 7  22989401.610    22989401.374    22989405.261
  22989405.990          44.750          47.250
 127580496.899 6  99413375.79844  24277760.611    24277760.490
  24277762.964          38.250          24.2504
 110339140.339 8  85978556.50147  20996840.028    20996839.283
  20996840.393          50.250          46.0004
 118780869.722 7  92556520.55445  22603246.711    22603245.791
  22603246.932          44.750          33.2504
 109210090.577 8  85098779.43347  20781988.827    20781988.338
  20781990.150          49.250          44.5004
 134329737.578 6 104672584.778 6  25562114.844    25562114.290    25562116.544
  25562115.636          38.500          37.250
 125473310.051 6  97771406.437 7  23876776.423    23876775.607    23876780.179
  23876780.525          41.500          44.000
 109244163.173 9  85125320.294 8  20788470.731    20788470.784    20788472.176
  20788471.946          54.250          52.250
 20  1  4  0 21  0.0000000  0  9G29G10G16G21G13G20G05G27G15
 118696168.436 8  92490521.916 7  22587129.688    22587129.614    22587131.138
  22587131.323          48.000          45.500
 120731737.335 7  94076679.459 7  22974485.579    22974485.409    22974488.911
  22974489.581          45.250          46.750
 127627668.869 6  99450133.14944  24286738.582    24286737.879
  24286739.659          40.500          24.7504
 110317932.338 8  85962030.78747  20992804.048    20992803.509
  20992804.712          49.750          46.2504
 118842561.560 7  92604592.11945  22614985.568    22614986.186
  22614987.262          44.750          33.0004
 109163385.504 8  85062385.87747  20773101.550    20773100.727
  20773102.547          49.250          44.7504
 134429243.163 6 104750121.569 5  25581049.398    25581048.364    25581050.338
  25581049.161          36.250          35.250
 125383790.413 6  97701650.878 7  23859741.061    23859740.883    23859744.862
  23859744.672          40.750          44.000
 109265742.898 9  85142135.664 8  20792577.216    20792577.168    20792578.616
  20792578.274          54.000          52.250
 20  1  4  0 21 30.0000000  0  8G29G10G16G21G13G20G27G15
 118800081.216 7  92571492.903 7  22606903.526    22606903.395    22606904.984
  22606905.364          47.750          45.750
 120653555.212 7  94015758.325 7  22959607.892    22959607.675    22959611.296
  22959612.183          45.500          47.250
 127675282.435 6  99487234.62643  24295797.888    24295798.020
  24295799.562          39.000          23.7504
 110296973.097 8  85945698.90847  20988815.770    20988815.145
  20988816.324          49.500          46.0004
 118904763.367 7  92653061.06345  22626822.523    22626822.324
  22626823.432          44.750          33.5004
 109116986.255 8  85026230.62947  20764271.894    20764271.083
  20764272.779          49.500          44.7504
 125294599.189 6  97632151.219 7  23842769.026    23842768.483    23842772.429
  23842773.038          41.500          44.500
 109287950.716 9  85159440.457 8  20796803.119    20796803.339    20796804.464
  20796804.348          54.250          52.000
 20  1  4  0 22  0.0000000  0  8G29G10G16G21G13G20G27G15
 118904262.052 8  92652672.790 7  22626728.717    22626729.104    22626730.448
  22626730.592          48.750          45.500
 120575577.480 7  93954996.462 7  22944769.040    22944769.163    22944773.171
  22944773.031          45.250          47.250
 127723336.443 6  99524679.29243  24304943.268    24304942.813
  24304943.735          40.000          23.5004
 110276265.087 8  85929562.79647  20984875.101    20984874.455
  20984875.791          50.000          46.0004
 118967474.013 7  92701926.49645  22638755.659    22638755.534
  22638756.746          44.250          33.0004
 109070893.823 8  84990314.47047  20755500.764    20755499.927
  20755501.755          49.500          44.7504
 125205740.282 6  97562910.517 7  23825859.621    23825859.213    23825863.016
  23825862.896          41.250          44.750
 109310786.754 9  85177234.779 8  20801148.703    20801148.820    20801149.854
  20801149.872          54.000          51.750
 20  1  4  0 22 30.0000000  0  8G29G10G16G21G13G20G27G15
 119008706.991 8  92734058.464 7  22646604.023    22646603.852    22646605.558
  22646605.610          48.250          45.750
 120497803.399 7  93894393.290 7  22929969.377    22929968.977    22929973.064
  22929973.371          45.250          47.750
 127771827.075 6  99562464.16943  24314170.269    24314169.992
  24314171.216          40.000          23.7504
 110255807.907 8  85913622.12947  20980982.399    20980981.611
  20980982.860          50.000          46.2504
 119030689.874 7  92751185.61145  22650785.570    22650785.604
  22650786.583          44.750          33.2504
 109025107.402 8  84954636.75247  20746787.941    20746787.193
  20746788.941          49.500          44.7504
 125117215.119 6  97493929.877 7  23809013.790    23809013.658    23809017.432
  23809017.553          41.750          45.000
 109334248.373 9  85195516.564 8  20805613.383    20805613.448    20805614.703
  20805614.532          54.250          51.750
 20  1  4  0 23  0.0000000  0  8G29G10G16G21G13G20G27G15
 119113414.778 7  92815648.944 7  22666528.443    22666528.589    22666531.141
  22666530.799          47.500          46.000
 120420234.818 7  93833950.239 7  22915208.619    22915208.382    22915211.843
  22915212.690          45.750          47.000
 127820753.752 6  99600588.85843  24323480.303    24323479.777
  24323481.446          39.000          23.5004
 110235603.949 8  85897878.78247  20977137.588    20977137.039
  20977138.188          49.750          46.0004
 119094410.286 7  92800837.87945  22662911.022    22662910.503
  22662912.803          45.250          33.0004
 108979628.798 8  84919198.89647  20738133.598    20738132.971
  20738134.558          49.750          44.7504
 125029027.796 6  97425212.483 7  23792232.379    23792232.092    23792235.549
  23792235.788          41.500          45.250
 109358336.141 9  85214286.259 8  20810197.029    20810197.149    20810198.549
  20810198.274          54.000          52.000
 20  1  4  0 23 30.0000000  0  9G29G10G16G26G21G13G20G27G15
 119218382.456 7  92897441.918 7  22686503.762    22686503.584    22686505.654
  22686505.605          47.250          45.750
 120342871.443 7  93773667.092 8  22900486.859    22900487.255    22900490.681
  22900491.162          46.250          48.000
 127870112.814 6  99639050.48344  24332873.525    24332873.135
  24332875.027          41.000          24.5004
 131431308.173 6 102414006.274 5  25010545.772    25010546.509    25010552.065
  25010550.350          38.000          35.000
 110215653.572 8  85882333.02547  20973341.121    20973340.542
  20973341.761          49.500          46.0004
 119158632.231 7  92850880.95445  22675131.664    22675131.559
  22675133.104          44.250          33.0004
 108934457.109 8  84884000.18847  20729537.558    20729536.950
  20729538.535          49.250          44.7504
 124941180.145 6  97356759.763 7  23775515.048    23775515.026    23775518.700
  23775519.068          41.750          45.250
 109383047.747 8  85233542.061 8  20814899.486    20814899.634    20814900.798
  20814900.748          53.750          51.750
 20  1  4  0 24  0.0000000  0  9G29G10G16G26G21G13G20G27G15
 119323605.966 7  92979434.274 7  22706527.112    22706526.901    22706529.180
  22706529.085          47.750          45.750
 120265712.817 7  93713543.484 7  22885804.162    22885804.063    22885807.773
  22885808.050          46.000          47.750
 127919900.939 6  99677846.43143  24342347.785    24342347.222
  24342348.034          39.750          22.2504
 131503236.668 6 102470054.459 6  25024233.499    25024234.269    25024238.559
  25024238.290          38.750          39.000
 110195956.750 8  85866984.85347  20969593.175    20969592.369
  20969593.613          49.500          45.7504
 119223352.450 7  92901312.27945  22687447.560    22687448.232
  22687449.642          44.750          33.0004
 108889591.691 8  84849040.14747  20721000.144    20720999.387
  20721001.195          49.750          44.7504
 124853673.952 7  97288573.136 7  23758863.590    23758862.709    23758867.083
  23758867.252          42.250          45.000
 109408381.371 9  85253282.551 8  20819720.122    20819720.472    20819721.942
  20819721.632          54.000          52.000
 20  1  4  0 24 30.0000000  0  9G29G10G16G26G21G13G20G27G15
 119429084.533 7  93061625.361 7  22726599.464    22726599.049    22726600.932
  22726600.541          47.500          45.250
 120188761.254 7  93653581.251 8  22871160.056    22871160.707    22871164.362
  22871164.877          45.750          48.000
 127970117.974 6  99716976.57643  24351904.021    24351903.385
  24351905.671          40.000          22.7504
 131575334.924 6 102526234.909 6  25037953.005    25037952.758    25037959.824
  25037958.702          36.500          38.500
 110176516.695 8  85851836.75247  20965893.852    20965893.161
  20965894.197          50.000          46.2504
 119288570.568 7  92952131.60145  22699858.479    22699858.252
  22699859.683          45.500          33.0004
 108845034.488 8  84814320.25547  20712520.964    20712520.354
  20712522.097          49.500          44.7504
 124766513.725 7  97220656.076 7  23742277.704    23742276.852    23742281.076
  23742280.734          42.750          45.000
 109434337.214 8  85273507.887 8  20824659.458    20824659.661    20824661.083
  20824660.778          53.500          51.750
 20  1  4  0 25  0.0000000  0  9G29G10G16G26G21G13G20G27G15
 119534814.223 7  93144012.138 7  22746718.706    22746718.510    22746720.655
  22746720.459          47.750          45.250
 120112015.751 7  93593779.553 7  22856556.078    22856556.309    22856559.874
  22856560.371          45.750          47.500
 128020759.545 6  99756437.54843  24361540.342    24361539.280
  24361542.331          39.000          23.7504
 131647598.529 6 102582544.200 6  25051703.691    25051704.726    25051709.743
  25051710.202          36.250          39.250
 110157332.916 8  85836888.34947  20962243.232    20962242.484
  20962243.688          49.500          46.0004
 119354282.824 7  93003335.95445  22712363.096    22712362.600
  22712364.515          45.750          33.2504
 108800784.458 8  84779839.72747  20704100.614    20704100.032
  20704101.655          50.000          44.7504
 124679700.653 7  97153009.525 7  23725757.473    23725757.007    23725760.868
  23725760.644          42.000          45.250
