     2.11           OBSERVATION DATA    G (GPS)             RINEX VERSION / TYPE
teqc  2018Jun8                          20200103 01:12:02UTCPGM / RUN BY / DATE
Linux 2.4.20-8|x86|gcc -static|Linux 32|=+                  COMMENT
BIT 2 OF LLI FLAGS DATA COLLECTED UNDER A/S CONDITION       COMMENT
POL2                                                        MARKER NAME
GGN                 JPL                                     OBSERVER / AGENCY
02563                 Javad Delta-3             1s jps      REC # / TYPE / VERS
383-1030            TPSCR.G3                                ANT # / TYPE
  1239971.4511  4530790.0876  4302578.7950                  APPROX POSITION XYZ
        0.0780        0.0000        0.0000                  ANTENNA: DELTA H/E/N
     1     1                                                WAVELENGTH FACT L1/2
     8    L1    L2    C1    P1    C2    P2    S1    S2      # / TYPES OF OBSERV
    30.0000                                                 INTERVAL
Forced Modulo Decimation to 30 seconds                      COMMENT
 SNR is mapped to RINEX snr flag value [0-9]                COMMENT
  L1 & L2: min(max(int(snr_dBHz/6), 0), 9)                  COMMENT
teqc edited: all GLONASS satellites excluded                COMMENT
teqc edited: all SBAS satellites excluded                   COMMENT
teqc edited: all Galileo satellites excluded                COMMENT
teqc edited: all Beidou satellites excluded                 COMMENT
teqc edited: all QZSS satellites excluded                   COMMENT
teqc edited: all IRNSS satellites excluded                  COMMENT
pseudorange smoothing corrections not applied               COMMENT
  2020     1     3     0     0    0.0000000     GPS         TIME OF FIRST OBS
                                                            END OF HEADER
 20  1  3  0  0  0.0000000  0  9G29G16G05G21G10G13G26G15G20
 113876912.112 8  88735125.201 8  21670020.759    21670020.588    21670021.891
  21670021.906          50.000          49.000
 125851565.385 6  98066148.48044  23948757.604    23948757.502
  23948758.126          39.000          25.2504
 129361489.806 7 100801162.826 6  24616671.591    24616671.134    24616672.257
  24616672.856          42.000          39.500
 111675020.008 7  87019497.53047  21251046.180    21251045.478
  21251046.643          47.750          45.5004
 124905908.949 7  97329278.886 7  23768803.823    23768804.185    23768807.428
  23768807.888          42.750          44.250
 116418363.909 7  90715456.35746  22153638.778    22153638.542
  22153639.804          46.250          36.0004
 127810406.297 6  99592522.790 6  24321514.715    24321514.307    24321519.325
  24321519.809          38.750          41.000
 108973299.046 9  84914117.100 8  20736893.488    20736893.540    20736894.844
  20736894.746          54.000          52.250
 111888568.915 7  87185900.07246  21291685.839    21291685.310
  21291687.006          46.250          41.7504
 20  1  3  0  0 30.0000000  0 10G29G16G05G27G21G10G13G26G15G20
 113964202.083 8  88803143.346 8  21686631.106    21686630.932    21686632.818
  21686632.510          49.500          48.750
 125874389.085 6  98083933.14544  23953101.310    23953100.495
  23953102.012          39.500          25.0004
 129462515.169 6 100879883.865 6  24635894.988    24635894.703    24635897.059
  24635896.611          41.000          39.750
 130124086.990 6 101395396.322 6  24761791.260    24761791.243    24761794.823
  24761794.706          36.500          41.500
 111642785.947 7  86994380.08447  21244912.142    21244911.557
  21244912.670          47.500          45.5004
 124818212.294 7  97260943.868 7  23752116.274    23752115.627    23752119.774
  23752119.677          42.250          44.250
 116452594.424 7  90742129.48945  22160152.743    22160152.724
  22160153.456          46.500          35.7504
 127868564.187 6  99637840.635 6  24332581.619    24332581.495    24332586.710
  24332587.080          38.500          41.000
 108963116.676 8  84906182.790 8  20734955.819    20734955.979    20734957.308
  20734957.100          53.750          52.250
 111827102.146 7  87138003.91646  21279989.158    21279988.341
  21279990.165          46.250          41.5004
 20  1  3  0  1  0.0000000  0 10G29G16G05G27G21G10G13G26G15G20
 114051882.327 8  88871465.604 8  21703315.878    21703316.037    21703318.199
  21703317.764          49.500          49.250
 125897752.920 6  98102138.69344  23957546.489    23957546.719
  23957547.675          38.750          24.2504
 129563536.753 7 100958602.009 6  24655120.327    24655120.291    24655120.583
  24655120.729          43.000          40.000
 130021903.147 6 101315772.550 6  24742345.675    24742346.904    24742349.453
  24742349.563          37.000          39.750
 111610751.182 7  86969417.94047  21238816.142    21238815.471
  21238816.783          47.250          45.2504
 124730690.395 7  97192744.990 7  23735460.578    23735460.951    23735464.632
  23735465.358          42.000          44.750
 116487422.267 7  90769268.07946  22166780.297    22166780.068
  22166781.429          46.750          36.0004
 127927048.797 6  99683413.048 6  24343711.114    24343710.665    24343715.653
  24343715.880          38.500          41.250
 108953583.975 8  84898754.721 8  20733141.864    20733141.883    20733143.094
  20733143.036          53.500          52.500
 111765927.012 7  87090335.00247  21268347.999    21268347.283
  21268349.115          46.500          42.0004
 20  1  3  0  1 30.0000000  0 10G29G16G05G27G21G10G13G26G15G20
 114139948.981 8  88940088.965 8  21720074.654    21720074.762    21720076.337
  21720076.341          49.250          49.000
 125921653.648 6  98120762.62344  23962095.171    23962095.291
  23962096.163          38.750          24.5004
 129664551.848 7 101037315.047 6  24674342.395    24674341.929    24674342.584
  24674342.397          42.000          39.250
 129919918.198 6 101236303.771 6  24722938.682    24722939.046    24722943.229
  24722942.181          38.000          39.500
 111578915.419 7  86944610.85547  21232757.806    21232757.361
  21232758.469          47.250          45.5004
 124643342.340 7  97124681.582 7  23718838.738    23718838.873    23718842.179
  23718842.528          42.500          44.000
 116522844.811 7  90796870.07046  22173521.060    22173520.766
  22173521.593          46.750          36.0004
 127985855.980 6  99729236.804 6  24354901.300    24354900.924    24354906.834
  24354907.650          38.250          41.250
 108944699.520 8  84891831.777 8  20731450.913    20731451.348    20731452.649
  20731452.460          53.500          52.500
 111705042.559 7  87042892.60146  21256762.160    21256761.291
  21256763.067          46.750          41.7504
 20  1  3  0  2  0.0000000  0 10G29G16G05G27G21G10G13G26G15G20
 114228400.374 8  89009012.112 8  21736906.628    21736906.572    21736907.929
  21736908.108          49.500          48.500
 125946090.226 6  98139804.08744  23966744.503    23966743.925
  23966745.497          38.000          24.0004
 129765559.797 6 101116022.592 6  24693563.025    24693562.656    24693564.735
  24693563.270          41.750          39.750
 129818135.406 6 101156992.508 6  24703571.243    24703570.339    24703574.266
  24703573.258          39.250          39.500
 111547280.146 7  86919959.99447  21226738.003    21226737.397
  21226738.478          47.500          45.5004
 124556169.445 7  97056754.675 7  23702250.178    23702250.165    23702254.632
  23702254.943          42.250          45.000
 116558861.321 7  90824934.89545  22180374.647    22180374.420
  22180375.739          47.000          35.7504
 128044983.497 6  99775310.200 6  24366153.031    24366153.400    24366157.767
  24366158.557          38.000          41.000
 108936464.687 9  84885415.033 8  20729884.060    20729884.268    20729885.525
  20729885.364          54.000          52.250
 111644449.867 7  86995677.54747  21245231.587    21245230.928
  21245232.635          46.500          42.0004
 20  1  3  0  2 30.0000000  0 10G29G16G05G27G21G10G13G26G15G20
 114317235.168 8  89078234.027 8  21753811.413    21753811.401    21753812.859
  21753812.817          49.500          48.750
 125971061.891 6  98159262.51744  23971497.577    23971496.308
  23971498.484          38.500          24.0004
 129866560.175 6 101194724.167 6  24712781.476    24712781.120    24712783.493
  24712784.485          37.750          39.750
 129716558.200 6 101077841.428 6  24684240.866    24684241.095    24684244.230
  24684244.380          40.000          39.500
 111515847.610 7  86895467.10547  21220756.499    21220756.106
  21220757.113          47.750          45.5004
 124469173.226 7  96988965.442 7  23685696.122    23685695.943    23685699.743
  23685700.407          42.000          45.000
 116595471.183 7  90853462.08246  22187341.827    22187340.952
  22187342.318          47.500          36.2504
 128104429.439 6  99821631.700 6  24377465.228    24377464.642    24377470.682
  24377469.706          37.500          40.250
 108928880.198 8  84879505.050 8  20728440.803    20728441.043    20728442.386
  20728442.216          53.750          52.500
 111584149.888 7  86948690.58447  21233756.705    21233755.996
  21233757.946          46.250          42.0004
 20  1  3  0  3  0.0000000  0 10G29G16G05G27G21G10G13G26G15G20
 114406449.589 8  89147751.747 8  21770788.121    21770788.156    21770789.553
  21770789.466          49.250          48.500
 125996565.471 6  98179135.40044  23976350.041    23976348.801
  23976351.511          38.500          24.5004
 129967549.717 6 101273417.263 6  24732000.590    24732001.094    24732002.417
  24732001.688          41.000          41.250
 129615187.632 6 100998851.385 6  24664950.161    24664950.521    24664954.667
  24664953.933          39.750          39.500
 111484616.522 7  86871131.19447  21214813.469    21214812.843
  21214814.066          47.250          45.2504
 124382352.739 7  96921313.123 7  23669174.434    23669174.316    23669177.806
  23669178.218          42.500          44.000
 116632671.593 7  90882449.41446  22194420.652    22194420.258
  22194421.521          47.250          36.0004
 128164189.595 6  99868198.058 6  24388837.235    24388837.239    24388842.727
  24388842.371          37.750          41.250
 108921944.644 8  84874100.736 8  20727121.029    20727121.193    20727122.647
  20727122.427          53.500          52.750
 111524141.714 7  86901930.99347  21222337.493    21222336.895
  21222338.792          46.750          42.0004
 20  1  3  0  3 30.0000000  0 10G29G16G05G27G21G10G13G26G15G20
 114496042.419 8  89217564.339 8  21787837.249    21787837.135    21787838.190
  21787838.548          49.500          48.000
 126022600.531 6  98199422.42644  23981304.551    23981304.588
  23981306.263          38.000          25.0004
 130068528.739 6 101352102.222 6  24751216.991    24751216.249    24751218.890
  24751218.840          40.500          41.250
 129514027.360 6 100920025.200 6  24645701.044    24645701.299    24645704.632
  24645704.166          39.250          39.500
 111453589.438 7  86846954.24347  21208909.297    21208908.535
  21208909.681          47.750          45.5004
 124295709.780 7  96853799.130 7  23652686.512    23652686.713    23652690.386
  23652690.950          42.250          45.000
 116670462.348 7  90911896.74945  22201611.732    22201611.564
  22201612.672          47.250          35.7504
 128224262.285 6  99915007.917 6  24400269.227    24400268.216    24400273.177
  24400274.102          37.500          40.500
 108915659.118 8  84869202.926 8  20725924.778    20725925.080    20725926.110
  20725926.103          53.500          52.250
 111464426.566 7  86855399.73747  21210974.243    21210973.587
  21210975.329          47.000          42.2504
 20  1  3  0  4  0.0000000  0 10G29G16G05G26G27G21G10G13G15G20
 114586010.765 8  89287669.525 8  21804957.339    21804957.545    21804958.981
  21804959.194          48.250          48.500
 126049164.656 6  98220121.73144  23986359.540    23986359.586
  23986361.262          38.250          25.2504
 130169495.462 7 101430777.583 6  24770430.871    24770430.323    24770430.926
  24770430.288          42.000          40.000
 128284657.654 6                  24411758.530
                        36.500
 129413079.509 6 100841364.545 6  24626491.608    24626491.856    24626494.643
  24626493.515          39.000          39.000
 111422766.187 7  86822936.12147  21203043.742    21203043.223
  21203044.233          47.500          45.5004
 124209244.465 7  96786423.574 7  23636232.965    23636232.171    23636236.318
  23636237.405          42.500          44.750
 116708841.559 7  90941802.64245  22208915.165    22208914.534
  22208916.130          47.000          35.2504
 108910023.117 8  84864811.242 8  20724852.535    20724852.612    20724854.018
  20724853.686          53.250          52.250
 111405004.227 7  86809096.63747  21199666.429    21199665.835
  21199667.729          47.000          42.5004
 20  1  3  0  4 30.0000000  0 10G29G16G05G26G27G21G10G13G15G20
 114676352.295 8  89358065.512 8  21822149.085    21822148.893    21822150.322
  21822150.468          49.000          48.500
 126076256.760 6  98241232.45744  23991515.552    23991514.927
  23991516.557          38.250          25.0004
 130270449.338 7 101509442.919 6  24789642.045    24789641.895    24789642.614
  24789642.518          42.750          39.750
 128345346.641 6 100009358.443 7  24423307.861    24423307.440    24423313.088
  24423313.479          38.250          42.000
 129312346.925 6 100762871.621 6  24607322.962    24607321.985    24607325.128
  24607325.360          39.000          39.000
 111392148.263 7  86799077.99147  21197217.370    21197216.797
  21197217.841          47.250          45.5004
 124122957.608 6  96719187.074 7  23619812.464    23619812.806    23619816.414
  23619817.149          41.250          44.750
 116747807.854 7  90972166.00545  22216329.942    22216329.851
  22216330.545          47.000          35.2504
 108905037.307 8  84860926.197 8  20723903.590    20723903.945    20723905.061
  20723904.651          53.250          52.250
 111345875.100 7  86763022.03147  21188414.652    21188413.889
  21188415.431          46.500          42.5004
 20  1  3  0  5  0.0000000  0 10G29G16G05G26G27G21G10G13G15G20
 114767065.110 8  89428750.816 8  21839411.066    21839411.077    21839412.250
  21839412.279          48.750          48.250
 126103882.308 6  98262764.38044  23996770.579    23996771.030
  23996771.030          36.750          24.2504
 130371388.508 7 101588096.829 6  24808849.815    24808849.891    24808850.054
  24808849.674          43.250          38.750
 128406339.258 6 100056885.157 6  24434913.595    24434913.657    24434918.121
  24434918.940          36.750          39.250
 129211832.507 6 100684548.693 6  24588194.355    24588194.459    24588198.499
  24588197.580          38.000          40.000
 111361736.960 7  86775380.86847  21191430.405    21191429.701
  21191430.825          47.250          45.5004
 124036850.194 7  96652090.408 7  23603427.022    23603427.511    23603430.876
  23603431.839          42.000          45.250
 116787360.074 7  91002985.91945  22223856.582    22223856.204
  22223857.096          47.000          35.7504
 108900701.678 8  84857547.793 8  20723078.617    20723078.776    20723079.955
  20723079.844          53.250          52.250
 111287040.351 7  86717176.79947  21177218.665    21177217.830
  21177219.575          47.000          42.5004
 20  1  3  0  5 30.0000000  0 10G29G16G05G26G27G21G10G13G15G20
 114858147.524 8  89499724.120 8  21856743.521    21856743.429    21856744.943
  21856745.030          48.750          48.250
 126132026.011 6  98284694.49144  24002125.556    24002125.262
  24002128.119          36.750          24.0004
 130472312.607 6 101666738.963 6  24828054.132    24828054.415    24828056.352
  24828055.741          41.500          39.000
 128467633.649 6 100104647.008 6  24446578.023    24446577.859    24446583.227
  24446582.120          37.000          39.500
 129111539.335 6 100606398.139 6  24569109.431    24569109.677    24569113.448
  24569113.064          37.750          40.750
 111331533.181 7  86751845.46547  21185682.753    21185682.157
  21185683.243          47.250          45.5004
 123950923.262 6  96585134.379 7  23587075.773    23587076.263    23587079.859
  23587079.667          41.750          45.750
 116827497.288 7  91034261.67945  22231494.308    22231494.093
  22231495.327          47.000          35.5004
 108897016.837 8  84854676.489 8  20722377.429    20722377.381    20722378.899
  20722378.602          52.500          52.500
 111228500.543 7  86671561.39747  21166078.849    21166078.200
  21166080.246          46.500          42.7504
 20  1  3  0  6  0.0000000  0 10G29G16G05G26G27G21G10G13G15G20
 114949596.628 8  89570983.148 8  21874145.728    21874145.623    21874147.310
  21874147.345          48.750          48.250
 126160692.641 6  98307032.10344  24007580.858    24007581.052
  24007582.950          36.250          24.0004
 130573219.920 6 101745368.041 6  24847255.620    24847255.480    24847258.292
  24847257.278          41.000          37.500
 128529226.494 6 100152641.434 6  24458298.263    24458298.462    24458303.768
  24458303.767          36.250          40.750
 129011469.543 6 100528421.660 6  24550066.048    24550066.329    24550070.047
  24550070.365          38.000          41.750
 111301538.043 7  86728472.62647  21179974.841    21179974.224
  21179975.283          47.500          45.7504
 123865176.999 7  96518319.130 7  23570758.778    23570759.507    23570762.729
  23570762.884          42.500          45.500
 116868217.583 7  91065991.78645  22239243.490    22239243.182
  22239244.351          47.500          35.5004
 108893982.199 8  84852311.844 8  20721799.902    20721800.042    20721801.343
  20721801.268          52.500          52.250
 111170255.706 7  86626175.83347  21154995.200    21154994.343
  21154996.122          46.500          42.2504
 20  1  3  0  6 30.0000000  0  9G29G05G26G27G21G10G13G15G20
 115041410.007 8  89642526.033 8  21891617.174    21891617.284    21891618.902
  21891618.715          48.500          48.250
 130674109.603 7 101823983.375 5  24866455.779    24866454.307    24866455.249
  24866454.500          42.250          35.500
 128591114.946 6 100200866.161 6  24470075.395    24470075.881    24470080.415
  24470081.871          37.000          40.500
 128911625.680 6 100450621.234 7  24531066.768    24531067.335    24531071.744
  24531070.942          38.750          42.500
 111271751.972 8  86705262.69747  21174306.746    21174306.145
  21174307.161          48.000          45.7504
 123779611.893 6  96451645.043 7  23554476.510    23554476.397    23554480.254
  23554480.742          41.750          45.250
 116909519.185 7  91098174.85445  22247102.470    22247102.258
  22247103.573          47.500          35.5004
 108891597.275 8  84850453.473 8  20721345.975    20721346.174    20721347.508
  20721347.331          52.750          52.250
 111112305.868 7  86581020.15047  21143967.795    21143967.086
  21143968.981          46.750          42.5004
 20  1  3  0  7  0.0000000  0  9G29G05G26G27G21G10G13G15G20
 115133585.556 8  89714351.126 7  21909157.410    21909157.569    21909158.755
  21909159.082          48.250          47.750
 130774980.266 7 101902583.927 5  24885650.010    24885649.614    24885649.524
  24885649.137          42.500          34.500
 128653296.377 6 100249319.224 6  24481908.717    24481908.247    24481913.021
  24481913.057          37.500          40.500
 128812010.555 6 100372999.086 6  24512110.240    24512110.320    24512115.540
  24512115.275          38.750          41.750
 111242175.757 7  86682216.29547  21168678.584    21168677.878
  21168678.980          47.750          45.5004
 123694228.808 7  96385112.789 7  23538228.566    23538228.562    23538232.454
  23538232.582          42.000          45.000
 116951400.905 7  91130809.97345  22255072.318    22255072.124
  22255073.100          47.250          35.2504
 108889862.585 8  84849101.770 8  20721016.157    20721016.088    20721017.535
  20721017.398          51.250          52.500
 111054651.236 7  86536094.48547  21132996.186    21132995.495
  21132997.666          47.000          42.5004
 20  1  3  0  7 30.0000000  0  8G29G05G27G21G10G13G15G20
 115226119.943 8  89786455.832 8  21926765.970    21926766.057    21926768.070
  21926767.671          48.250          48.000
 130875830.542 7 101981168.525 6  24904840.711    24904841.627    24904841.873
  24904842.302          42.000          36.000
 128712626.360 6 100295556.875 6  24493198.162    24493198.660    24493202.126
  24493202.152          39.750          41.500
 111212811.033 7  86659334.69047  21163090.552    21163089.924
  21163091.076          46.750          45.5004
 123609027.930 7  96318722.503 7  23522015.063    23522015.110    23522019.263
  23522019.678          42.500          45.000
 116993860.728 7  91163895.54845  22263152.529    22263152.336
  22263153.167          47.250          35.5004
 108888777.224 8  84848256.038 8  20720809.649    20720809.563    20720810.843
  20720810.586          50.250          52.500
 110997292.149 7  86491399.12747  21122081.246    21122080.687
  21122082.255          46.750          42.7504
 20  1  3  0  8  0.0000000  0  9G26G29G05G27G21G10G13G15G20
 128778527.393 6 100346905.050 6  24505739.248    24505738.781    24505743.047
  24505743.217          37.250          37.500
 115319012.259 8  89858839.444 8  21944442.850    21944443.271    21944445.186
  21944444.690          48.000          48.250
 130976659.915 7 102059736.925 5  24924027.427    24924028.250    24924029.652
  24924027.528          42.250          34.750
 128613476.641 6 100218297.343 6  24474331.084    24474331.033    24474335.254
  24474334.284          40.000          40.750
 111183658.761 7  86636618.62747  21157543.267    21157542.635
  21157543.688          46.500          45.5004
 123524010.659 6  96252475.291 7  23505836.532    23505836.964    23505840.895
  23505841.370          41.750          45.500
 117036897.930 8  91197431.03645  22271342.234    22271341.752
  22271343.053          48.000          35.5004
 108888342.269 8  84847917.121 8  20720726.723    20720726.867    20720728.134
  20720727.905          50.000          52.500
 110940229.730 7  86446934.92947  21111222.228    21111221.779
  21111223.741          46.250          43.0004
 20  1  3  0  8 30.0000000  0  9G26G29G05G27G21G10G13G15G20
 128841570.456 6 100396029.513 6  24517735.507    24517736.037    24517741.939
  24517741.270          37.000          41.750
 115412259.398 8  89931499.552 8  21962187.604    21962187.690    21962188.863
  21962188.697          48.500          48.000
 131077467.087 7 102138287.953 6  24943211.400    24943211.582    24943213.067
  24943212.983          42.250          38.750
 128514563.320 6 100141222.035 6  24455508.909    24455508.386    24455512.203
  24455511.774          40.250          40.500
 111154719.552 7  86614068.59147  21152036.331    21152035.621
  21152036.751          46.500          45.5004
 123439177.019 7  96186371.189 7  23489693.674    23489693.709    23489697.662
  23489697.813          42.000          46.000
 117080510.010 7  91231414.49245  22279640.999    22279641.122
  22279642.173          47.500          35.5004
 108888556.956 8  84848084.410 8  20720767.582    20720767.734    20720768.707
  20720768.628          50.250          52.000
 110883463.668 7  86402701.69247  21100420.680    21100419.908
  21100421.240          47.000          43.0004
 20  1  3  0  9  0.0000000  0  8G29G05G27G21G10G13G15G20
 115505860.282 7  90004435.285 8  21979999.008    21979999.062    21980001.066
  21980000.601          47.750          48.000
 131178251.983 7 102216821.661 6  24962390.397    24962390.020    24962390.499
  24962390.938          42.250          38.750
 128415890.452 6 100064334.098 6  24436731.747    24436731.835    24436733.859
  24436733.634          40.500          39.750
 111125995.806 7  86591686.45047  21146570.283    21146569.621
  21146570.767          46.750          45.7504
 123354528.900 7  96120411.627 7  23473585.908    23473586.159    23473589.834
  23473590.214          42.000          45.750
 117124696.773 7  91265845.73945  22288049.709    22288049.512
  22288050.094          47.500          35.7504
 108889422.162 8  84848758.608 8  20720932.272    20720932.391    20720933.420
  20720933.365          49.250          52.250
 110826995.591 7  86358700.59747  21089674.435    21089673.841
  21089675.617          46.250          42.7504
 20  1  3  0  9 30.0000000  0  9G16G29G05G27G21G10G13G15G20
 126375858.687 6  98474691.38644  24048525.503    24048525.304
  24048527.188          36.750          24.5004
 115599810.876 7  90077643.532 8  21997877.304    21997877.442    21997879.218
  21997879.150          47.500          48.250
 131279012.226 6 102295336.131 6  24981563.677    24981564.606    24981563.697
  24981563.120          40.750          37.750
 128317459.519 6  99987634.674 6  24418000.755    24418001.300    24418003.861
  24418004.103          40.500          39.000
 111097486.974 7  86569471.77447  21141145.099    21141144.702
  21141145.694          47.250          45.7504
 123270065.774 7  96054596.223 7  23457512.877    23457512.762    23457517.099
  23457517.136          42.000          46.250
 117169455.492 7  91300722.67745  22296566.496    22296566.660
  22296567.894          47.000          35.5004
 108890936.454 8  84849938.581 8  20721220.355    20721220.506    20721221.664
  20721221.497          50.500          52.250
 110770824.522 7  86314930.98047  21078986.004    21078985.524
  21078986.874          47.000          43.2504
 20  1  3  0 10  0.0000000  0  9G29G26G05G27G21G10G13G15G20
 115694108.787 8  90151122.412 8  22015821.886    22015821.631    22015823.557
  22015823.441          48.000          48.000
 129032379.185 6 100544715.169 6  24554046.115    24554046.126    24554050.122
  24554051.238          37.500          36.500
 131379746.125 6 102373830.089 6  25000732.903    25000733.002    25000733.009
  25000731.812          40.000          36.500
 128219272.790 6  99911125.543 6  24399316.593    24399316.150    24399319.664
  24399319.763          40.000          39.000
 111069193.820 7  86547425.16347  21135761.112    21135760.621
  21135761.664          46.250          45.5004
 123185787.880 7  95988925.134 7  23441475.156    23441475.099    23441479.105
  23441479.808          42.000          46.000
 117214784.461 7  91336043.94945  22305192.327    22305192.489
  22305193.526          47.000          35.0004
 108893099.502 8  84851624.075 8  20721631.983    20721632.164    20721633.525
  20721633.091          51.000          52.250
 110714950.425 7  86271392.72747  21068353.203    21068352.352
  21068354.260          45.750          42.7504
 20  1  3  0 10 30.0000000  0  8G29G05G27G21G10G13G15G20
 115788752.092 7  90224870.436 8  22033831.984    22033831.621    22033833.508
  22033833.233          47.500          48.000
 131480441.438 6 102452296.250 6  25019897.206    25019896.393    25019897.962
  25019897.287          38.250          36.250
 128121333.300 6  99834809.071 6  24380679.591    24380679.565    24380682.842
  24380682.501          39.750          39.750
 111041117.639 7  86525547.61347  21130418.538    21130417.884
  21130419.076          46.250          45.7504
 123101696.228 6  95923399.195 7  23425472.969    23425473.220    23425477.867
  23425477.387          41.250          46.000
 117260682.023 7  91371808.28545  22313926.683    22313926.440
  22313927.585          47.250          35.2504
 108895911.346 8  84853815.142 8  20722166.873    20722167.226    20722168.591
  20722168.464          50.250          52.500
 110659374.127 7  86228086.56047  21057777.707    21057777.155
  21057778.683          46.750          43.2504
 20  1  3  0 11  0.0000000  0  8G29G05G27G21G10G13G15G20
 115883737.492 7  90298885.020 8  22051906.965    22051906.824    22051908.397
  22051908.335          47.750          48.000
 131581120.188 6 102530747.233 6  25039056.027    25039055.476    25039055.592
  25039056.170          40.000          39.750
 128023643.050 6  99758686.787 6  24362089.068    24362089.009    24362093.605
  24362093.333          39.250          41.250
 111013259.322 7  86503839.83347  21125117.275    21125116.569
  21125117.702          46.250          45.7504
 123017790.662 6  95858018.233 7  23409506.377    23409506.217    23409510.476
  23409511.095          41.500          45.750
 117307145.858 7  91408013.87945  22322768.712    22322767.988
  22322769.541          47.750          34.7504
 108899370.664 8  84856510.716 8  20722825.091    20722825.378    20722826.652
  20722826.582          50.250          52.500
 110604094.981 7  86185011.89847  21047258.042    21047257.223
  21047258.998          46.000          42.7504
 20  1  3  0 11 30.0000000  0  8G29G05G27G21G10G13G15G20
 115979064.600 7  90373165.880 7  22070047.030    22070046.898    22070048.401
  22070048.466          47.750          47.750
 131681771.505 6 102609176.823 6  25058208.607    25058208.853    25058208.864
  25058208.978          41.250          39.250
 127926206.802 6  99682762.454 7  24343548.568    24343548.609    24343552.334
  24343551.088          40.250          42.000
 110985621.411 7  86482303.80347  21119858.009    21119857.324
  21119858.477          47.500          45.7504
 122934073.926 6  95792784.422 7  23393575.547    23393575.792    23393579.838
  23393580.236          41.000          46.000
 117354176.189 7  91444660.90445  22331717.786    22331717.486
  22331719.064          47.000          34.5004
 108903479.606 8  84859712.500 8  20723607.060    20723607.273    20723608.416
  20723608.535          51.000          52.000
 110549115.341 7  86142170.65347  21036796.321    21036795.574
  21036796.958          47.000          43.5004
 20  1  3  0 12  0.0000000  0  8G29G05G27G21G10G13G15G20
 116074730.087 7  90447710.400 8  22088251.620    22088251.851    22088253.294
  22088253.255          47.500          48.250
 131782393.362 6 102687583.417 6  25077355.776    25077354.935    25077358.430
  25077356.781          39.500          40.500
 127829026.274 6  99607037.361 7  24325055.625    24325055.273    24325058.654
  24325058.935          41.750          42.500
 110958203.740 7  86460939.38347  21114640.585    21114639.845
  21114640.981          47.500          45.5004
 122850545.620 7  95727697.435 7  23377680.661    23377681.268    23377684.206
  23377684.906          42.000          45.500
 117401770.634 7  91481747.49845  22340774.809    22340774.940
  22340775.803          47.500          34.7504
 108908236.812 8  84863419.418 8  20724512.463    20724512.604    20724513.912
  20724513.813          50.750          52.250
 110494435.148 7  86099562.71547  21026389.850    21026389.295
  21026391.582          45.250          42.7504
 20  1  3  0 12 30.0000000  0  8G29G05G27G21G10G13G15G20
 116170731.624 7  90522516.783 7  22106520.413    22106520.103    22106521.628
  22106521.650          47.750          47.500
 131882984.626 6 102765966.253 6  25096497.209    25096497.574    25096499.086
  25096498.861          39.250          40.500
 127732104.226 6  99531513.681 7  24306611.634    24306611.345    24306615.122
  24306615.254          41.750          42.500
 110931007.690 7  86439747.65347  21109465.389    21109464.667
  21109465.668          47.500          45.7504
 122767206.440 7  95662757.820 7  23361822.451    23361822.244    23361825.951
  23361826.745          42.000          46.250
 117449927.506 7  91519272.33945  22349939.021    22349938.679
  22349940.275          47.000          34.7504
 108913641.845 8  84867631.138 8  20725540.953    20725541.079    20725542.121
  20725542.114          50.500          52.000
 110440054.371 7  86057188.11947  21016042.280    21016041.983
  21016043.059          46.250          43.5004
 20  1  3  0 13  0.0000000  0  8G29G05G27G21G10G13G15G20
 116267065.748 7  90597582.334 7  22124852.039    22124852.095    22124852.887
  22124853.514          47.750          47.000
 131983543.317 6 102844323.626 6  25115634.164    25115633.114    25115634.238
  25115634.581          40.250          37.000
 127635442.419 6  99456192.795 7  24288217.603    24288217.621    24288221.171
  24288221.279          41.750          42.750
 110904033.729 7  86418728.98547  21104331.980    21104331.659
  21104332.818          47.500          45.5004
 122684056.059 6  95597965.323 7  23345998.818    23345998.944    23346002.329
  23346003.450          41.750          45.750
 117498644.018 7  91557233.25845  22359209.443    22359209.039
  22359210.204          47.250          34.7504
 108919693.426 8  84872346.660 8  20726692.512    20726692.731    20726694.113
  20726693.638          50.250          52.000
 110385972.636 7  86015046.50747  21005750.359    21005749.684
  21005751.840          45.250          43.0004
 20  1  3  0 13 30.0000000  0  8G29G05G27G21G10G13G15G20
 116363731.114 7  90672905.995 7  22143246.332    22143246.431    22143248.227
  22143247.992          47.000          47.500
 132084070.078 6 102922656.196 6  25134763.352    25134763.813    25134764.551
  25134763.991          40.250          38.500
 127539044.354 6  99381077.426 7  24269873.544    24269873.631    24269876.873
  24269876.799          40.750          42.750
 110877282.984 7  86397884.24847  21099241.771    21099241.226
  21099242.270          47.500          45.7504
 122601095.886 7  95533321.043 7  23330211.985    23330212.379    23330215.824
  23330216.908          42.000          46.250
 117547919.114 7  91595629.45145  22368585.851    22368586.069
  22368587.322          46.750          34.5004
 108926391.972 8  84877566.311 8  20727967.219    20727967.259    20727968.885
  20727968.480          50.750          52.500
 110332190.678 7  85973138.51247  20995516.909    20995516.171
  20995517.447          46.750          43.5004
 20  1  3  0 14  0.0000000  0  8G29G05G27G21G10G13G15G20
 116460725.424 7  90748485.963 7  22161703.957    22161703.857    22161705.783
  22161705.879          47.000          47.750
 132184563.408 6 103000962.683 6  25153886.421    25153886.870    25153887.046
  25153886.746          39.750          36.500
 127442913.101 6  99306169.961 7  24251580.133    24251580.900    24251583.307
  24251584.464          40.750          42.250
 110850757.732 8  86377215.22047  21094194.245    21094193.552
  21094194.630          48.000          45.7504
 122518326.911 6  95468825.750 7  23314461.566    23314461.977    23314466.071
  23314466.432          41.250          46.750
 117597751.448 7  91634459.84145  22378068.557    22378068.537
  22378069.674          46.500          34.0004
 108933737.155 8  84883289.842 8  20729364.981    20729365.049    20729366.440
  20729366.118          51.000          52.250
 110278709.258 7  85931464.67847  20985339.146    20985338.394
  20985340.172          46.250          43.0004
 20  1  3  0 14 30.0000000  0  8G29G05G27G21G10G13G15G20
 116558046.292 7  90824320.388 7  22180223.350    22180223.230    22180225.214
  22180225.182          46.750          47.500
 132285022.303 6 103079242.328 6  25173003.472    25173002.347    25173003.961
  25173003.989          40.000          38.000
 127347051.439 6  99231472.562 7  24233338.412    24233337.741    24233341.548
  24233341.167          40.500          42.000
 110824458.496 8  86356722.30847  21089189.670    21089188.910
  21089190.095          48.000          45.7504
 122435749.728 6  95404479.899 7  23298747.354    23298747.651    23298750.856
  23298751.620          41.000          45.500
 117648139.365 7  91673723.15745  22387657.520    22387657.492
  22387658.281          47.000          34.2504
 108941728.811 8  84889517.109 8  20730885.796    20730885.790    20730887.020
  20730887.026          51.000          52.250
 110225528.770 7  85890025.35347  20975219.764    20975219.065
  20975220.332          47.250          43.7504
 20  1  3  0 15  0.0000000  0  8G29G05G27G21G10G13G15G20
 116655691.028 7  90900407.184 7  22198804.559    22198804.713    22198806.325
  22198806.216          46.750          47.250
 132385445.939 6 103157494.560 6  25192113.510    25192113.506    25192115.486
  25192113.919          39.000          36.750
 127251461.794 6  99156987.121 7  24215148.548    24215148.594    24215151.807
  24215152.391          40.750          42.500
 110798385.914 8  86336406.01347  21084228.248    21084227.575
  21084228.646          48.500          45.7504
 122353364.675 6  95340283.772 7  23283070.137    23283070.315    23283074.100
  23283074.195          41.750          45.750
 117699080.795 7  91713417.78445  22397350.905    22397351.188
  22397351.954          46.500          34.2504
 108950366.325 8  84896247.646 8  20732529.442    20732529.443    20732530.938
  20732530.684          51.250          52.500
 110172649.323 7  85848820.60347  20965156.253    20965155.627
  20965157.756          46.250          43.2504
 20  1  3  0 15 30.0000000  0  9G16G29G05G27G21G10G13G15G20
 126802329.995 6  98807015.58443  24129682.430    24129681.573
  24129682.912          36.250          23.0004
 116753655.796 7  90976743.364 7  22217446.743    22217446.663    22217448.391
  22217448.149          46.750          47.000
 132485831.740 6 103235717.197 5  25211216.184    25211215.754    25211217.788
  25211216.790          38.750          35.500
 127156145.462 6  99082714.658 7  24197010.133    24197010.440    24197013.960
  24197013.684          40.500          42.250
 110772539.699 8  86316266.10547  21079309.728    21079309.205
  21079310.287          48.500          45.5004
 122271170.917 6  95276236.688 7  23267429.265    23267428.666    23267433.520
  23267433.722          41.250          46.750
 117750572.552 7  91753541.23945  22407149.156    22407149.753
  22407150.801          46.250          34.2504
 108959647.574 8  84903479.804 8  20734295.602    20734295.692    20734297.084
  20734296.857          51.250          52.250
 110120069.824 7  85807849.57547  20955151.409    20955150.815
  20955152.137          47.250          43.7504
 20  1  3  0 16  0.0000000  0 10G16G29G05G26G27G21G10G13G15G20
 126841072.785 6  98837204.76644  24137055.447    24137054.340
  24137055.873          36.500          24.5004
 116851940.133 7  91053328.560 7  22236149.397    22236149.599    22236151.571
  22236151.134          46.500          47.000
 132586180.799 6 103313911.328 5  25230312.277    25230312.298    25230312.370
  25230312.390          38.750          33.750
                 101158013.715 6                                  24703825.348
                                        41.000
 127061107.198 6  99008658.873 7  24178925.185    24178924.930    24178928.705
  24178927.939          40.250          42.000
 110746923.347 8  86296305.30847  21074435.245    21074434.538
  21074435.710          48.750          45.7504
 122189171.133 7  95212340.780 7  23251825.564    23251825.303    23251829.342
  23251830.069          43.000          47.000
 117802614.572 7  91794093.45845  22417052.669    22417052.863
  22417053.798          46.500          34.2504
 108969574.112 8  84911214.773 8  20736184.454    20736184.707    20736185.878
  20736185.590          51.500          52.000
 110067792.376 7  85767113.90847  20945202.945    20945202.265
  20945204.149          46.750          43.2504
 20  1  3  0 16 30.0000000  0 10G16G29G05G26G27G21G10G13G15G20
 126880298.372 6  98867770.11143  24144519.935    24144519.497
  24144520.704          36.000          23.5004
 116950540.303 7  91130159.847 7  22254912.491    22254912.632    22254914.193
  22254914.058          46.750          47.000
 132686490.894 6 103392075.002 5  25249399.959    25249400.490    25249402.213
  25249400.759          39.000          35.000
 129886663.059 6 101210383.620 6  24716610.451    24716609.569    24716615.767
  24716615.945          37.000          37.250
 126966348.547 6  98934820.996 7  24160893.590    24160892.978    24160895.819
  24160896.463          40.500          42.000
 110721536.568 8  86276523.39647  21069604.337    21069603.516
  21069604.738          48.500          45.5004
 122107364.782 7  95148595.583 7  23236258.225    23236258.218    23236262.191
  23236262.858          42.250          47.000
 117855203.919 7  91835072.17945  22427060.393    22427060.630
  22427061.196          46.750          34.2504
 108980144.170 8  84919451.190 8  20738195.897    20738196.077    20738197.109
  20738197.088          51.750          52.000
 110015816.446 8  85726613.18947  20935312.738    20935311.943
  20935313.386          48.000          43.7504
 20  1  3  0 17  0.0000000  0  9G29G05G16G27G21G10G13G15G20
 117049454.182 7  91207235.590 7  22273735.505    22273735.533    22273737.291
  22273737.173          47.250          47.000
 132786761.652 6 103470208.095 5  25268481.113    25268481.303    25268481.818
  25268482.242          37.000          33.250
 126920012.648 6  98898711.04643  24152075.858    24152075.018
  24152075.969          36.750          23.2504
 126871872.470 6  98861203.281 7  24142915.063    24142914.633    24142918.397
  24142918.426          41.500          42.750
 110696380.512 8  86256921.27547  21064817.315    21064816.540
  21064817.722          48.750          45.7504
 122025752.503 7  95085001.610 7  23220727.796    23220727.730    23220731.542
  23220732.638          42.750          47.000
 117908338.847 7  91876476.02545  22437171.485    22437171.275
  22437172.648          45.750          34.5004
 108991357.400 8  84928188.779 8  20740329.809    20740329.773    20740330.773
  20740330.869          52.250          52.000
 109964142.427 7  85686347.73747  20925478.969    20925478.253
  20925480.332          47.250          43.7504
 20  1  3  0 17 30.0000000  0  9G29G05G16G27G21G10G13G15G20
 117148679.317 7  91284553.879 7  22292617.291    22292617.654    22292619.326
  22292618.729          47.250          46.750
 132886992.133 6 103548309.746 6  25287554.040    25287554.311    25287554.868
  25287555.222          37.250          36.500
 126960198.006 6  98930024.26043  24159722.121    24159721.213
  24159723.464          36.500          22.5004
 126777681.676 6  98787807.854 7  24124991.400    24124991.656    24124994.964
  24124994.370          41.500          43.250
 110671455.997 8  86237499.57147  21060074.330    21060073.745
  21060074.750          49.000          45.7504
 121944335.019 7  95021559.432 7  23205233.758    23205234.049    23205238.410
  23205238.624          42.250          45.750
 117962017.727 7  91918303.72745  22447386.463    22447386.406
  22447387.632          46.500          34.2504
 109003213.318 8  84937427.166 8  20742585.653    20742585.904    20742587.149
  20742587.026          52.500          52.000
 109912770.594 8  85646317.75547  20915703.446    20915702.714
  20915704.286          48.000          43.7504
 20  1  3  0 18  0.0000000  0  8G29G26G27G21G10G13G15G20
 117248212.539 7  91362112.232 7  22311557.848    22311557.789    22311559.694
  22311559.667          47.500          47.500
 130089706.665 6 101368600.102 6  24755247.463                    24755252.481
                        38.750          37.000
 126683778.356 6  98714636.449 7  24107122.060    24107121.577    24107125.503
  24107124.945          41.750          43.750
 110646763.932 8  86218258.99547  21055375.330    21055374.981
  21055375.948          48.750          45.7504
 121863112.296 7  94958269.001 7  23189778.782    23189778.634    23189781.983
  23189782.577          43.500          45.750
 118016237.792 7  91960553.13345  22457703.796    22457703.763
  22457704.964          46.000          34.2504
 109015710.513 8  84947165.250 8  20744963.767    20744964.108    20744965.518
  20744965.201          52.750          52.250
 109861700.505 7  85606522.89847  20905984.915    20905984.307
  20905986.152          47.750          43.7504
 20  1  3  0 18 30.0000000  0  9G29G26G16G27G21G10G13G15G20
 117348051.947 7  91439909.154 7  22330556.705    22330556.502    22330558.189
  22330558.380          47.500          46.750
 130157845.332 6 101421695.176 6  24768212.767    24768213.099    24768218.419
  24768218.878          36.500          41.250
 127041996.323 6  98993762.42643  24175287.941    24175287.713
  24175288.914          38.000          23.5004
 126590165.648 7  98641691.486 7  24089308.008    24089308.156    24089311.634
  24089311.552          42.250          43.750
 110622305.553 8  86199200.51647  21050721.130    21050720.642
  21050721.685          48.750          45.5004
 121782085.352 7  94895131.132 7  23174359.519    23174359.762    23174363.243
  23174364.004          43.250          46.250
 118070997.799 7  92003223.27645  22468124.962    22468124.363
  22468126.224          46.250          34.2504
 109028848.853 8  84957402.932 8  20747464.104    20747464.207    20747465.756
  20747465.359          52.750          52.500
 109810933.304 8  85566964.05147  20896324.537    20896323.868
  20896325.435          48.250          44.0004
 20  1  3  0 19  0.0000000  0  9G29G26G16G27G21G10G13G15G20
 117448194.240 7  91517942.098 7  22349612.923    22349612.782    22349614.962
  22349614.728          47.000          46.500
 130226207.844 6 101474964.664 6  24781222.861    24781222.530    24781228.040
  24781228.332          38.000          40.750
 127083603.874 6  99026183.83843  24183205.756    24183204.921
  24183206.884          36.750          23.5004
 126496845.438 6  98568974.441 7  24071549.844    24071549.847    24071553.342
  24071553.049          41.750          44.000
 110598081.417 8  86180324.56047  21046111.657    21046110.984
  21046112.040          49.000          45.7504
 121701253.936 7  94832145.642 7  23158977.897    23158977.958    23158981.169
  23158981.428          43.750          46.000
 118126295.149 7  92046312.13045  22478647.693    22478647.207
  22478648.013          46.500          34.0004
 109042626.666 8  84968138.901 8  20750085.710    20750085.950    20750087.383
  20750087.203          53.250          52.000
 109760468.231 8  85527640.62747  20886720.983    20886720.463
  20886722.105          48.250          43.7504
 20  1  3  0 19 30.0000000  0  9G29G26G16G27G21G10G13G15G20
 117548638.588 7  91596210.416 7  22368727.225    22368726.894    22368729.079
  22368728.473          47.750          46.500
 130294792.925 6 101528407.594 6  24794273.296    24794273.011    24794279.372
  24794279.386          36.500          41.500
 127125682.312 6  99058972.23944  24191213.156    24191212.220
  24191214.551          38.000          24.7504
 126403822.198 6  98496488.798 7  24053847.957    24053847.283    24053851.505
  24053850.956          41.500          43.750
 110574094.208 8  86161633.23347  21041546.976    21041546.274
  21041547.326          48.750          45.7504
 121620620.342 7  94769314.261 7  23143634.261    23143634.107    23143637.517
  23143637.821          44.250          46.500
 118182129.202 7  92089819.17945  22489272.178    22489272.086
  22489272.976          45.250          33.7504
 109057045.154 8  84979374.095 8  20752829.737    20752829.770    20752831.299
  20752831.036          53.500          52.250
 109710307.275 8  85488554.18047  20877176.199    20877175.380
  20877176.947          48.500          43.7504
 20  1  3  0 20  0.0000000  0  9G29G26G16G27G21G10G13G15G20
 117649382.530 7  91674712.180 7  22387898.175    22387897.995    22387900.064
  22387899.700          47.750          46.500
 130363597.918 6 101582021.884 6  24807367.229    24807366.799    24807372.135
  24807372.563          37.500          40.750
 127168229.959 6  99092126.20943  24199308.737    24199308.990
  24199311.229          37.250          23.7504
 126311098.741 6  98424236.755 7  24036202.748    24036203.201    24036206.821
  24036206.976          41.250          44.000
 110550345.471 8  86143127.71847  21037027.867    21037027.173
  21037028.144          49.250          46.0004
 121540185.264 7  94706637.582 7  23128327.103    23128327.256    23128331.120
  23128331.287          43.750          45.500
 118238498.039 7  92133742.95645  22499998.424    22499998.605
  22499999.757          45.250          33.5004
 109072103.793 8  84991108.107 8  20755695.323    20755695.418    20755696.471
  20755696.411          53.750          52.250
 109660450.825 8  85449705.01247  20867688.544    20867687.794
  20867689.526          48.500          44.0004
 20  1  3  0 20 30.0000000  0  9G29G26G16G27G21G10G13G15G20
 117750422.136 8  91753444.326 7  22407124.720    22407125.166    22407126.591
  22407126.529          48.000          46.000
 130432618.465 6 101635804.140 6  24820500.128    24820500.440    24820506.577
  24820507.098          36.750          41.250
 127211242.992 6  99125642.83043  24207494.271    24207494.422
  24207496.130          36.500          23.5004
 126218676.413 6  98352219.349 7  24018616.058    24018615.677    24018619.597
  24018619.357          41.000          44.250
 110526834.378 8  86124807.37947  21032553.588    21032553.131
  21032554.118          49.000          45.7504
 121459947.846 7  94644114.919 7  23113058.211    23113058.227    23113062.490
  23113062.807          43.750          46.750
 118295398.387 7  92178080.90245  22510825.982    22510826.530
  22510827.600          45.000          33.7504
 109087800.181 9  85003339.060 8  20758682.110    20758682.311    20758683.357
  20758683.301          54.000          52.000
 109610897.759 8  85411092.24647  20858258.897    20858258.343
  20858259.746          49.000          44.0004
 20  1  3  0 21  0.0000000  0  9G29G26G16G27G21G10G13G15G20
 117851754.797 8  91832404.837 7  22426407.967    22426408.485    22426410.200
  22426409.707          48.250          46.000
 130501851.437 6 101689751.908 6  24833675.628    24833675.586    24833681.143
  24833681.216          38.750          41.000
 127254718.944 6  99159520.13643  24215766.986    24215766.481
  24215769.831          37.000          22.5004
 126126557.753 6  98280438.577 7  24001086.257    24001086.215    24001089.925
  24001089.833          41.000          44.750
 110503561.737 8  86106672.85247  21028125.062    21028124.481
  21028125.437          49.250          45.7504
 121379908.394 7  94581746.525 7  23097827.034    23097827.775    23097831.419
  23097832.087          43.750          47.250
 118352828.270 7  92222831.45545  22521754.770    22521754.860
  22521756.089          45.000          33.5004
 109104133.067 9  85016065.989 8  20761790.160    20761790.312    20761791.255
  20761791.207          54.000          52.000
 109561648.157 8  85372715.93547  20848887.134    20848886.249
  20848887.902          49.000          44.0004
 20  1  3  0 21 30.0000000  0  9G29G26G16G27G21G10G13G15G20
 117953379.141 7  91911592.635 7  22445746.463    22445746.744    22445747.607
  22445748.197          47.500          45.750
 130571295.166 6 101743863.917 6  24846890.085    24846890.783    24846897.027
  24846896.174          38.000          41.500
 127298656.713 6  99193757.35143  24224127.968    24224127.864
  24224130.810          37.750          23.0004
 126034746.547 6  98208897.374 7  23983615.452    23983615.099    23983618.762
  23983619.038          40.750          44.250
 110480530.323 8  86088726.28747  21023742.452    21023741.820
  21023742.767          49.000          46.0004
 121300068.627 7  94519533.744 7  23082634.614    23082634.838    23082638.597
  23082639.118          44.250          47.000
 118410786.448 7  92267993.68545  22532783.346    22532784.223
  22532785.358          44.000          33.7504
 109121103.060 9  85029289.372 8  20765019.416    20765019.709    20765020.823
  20765020.547          54.250          52.000
 109512703.595 8  85334577.33747  20839572.808    20839572.444
  20839573.923          48.500          44.0004
 20  1  3  0 22  0.0000000  0  9G29G26G16G27G21G10G13G15G20
 118055292.434 8  91991005.584 7  22465140.261    22465139.719    22465142.073
  22465141.757          48.000          46.500
 130640946.706 6 101798137.818 6  24860144.533    24860144.948    24860149.836
  24860150.949          37.750          40.250
 127343054.206 6  99228352.76244  24232577.145    24232576.361
  24232578.980          37.750          24.0004
 125943245.549 6  98137597.913 7  23966203.975    23966203.067    23966206.243
  23966205.970          41.000          44.000
 110457740.747 8  86070968.17047  21019405.719    21019405.016
  21019406.083          49.250          45.7504
 121220429.097 7  94457476.977 7  23067480.037    23067480.114    23067483.784
  23067483.544          45.000          46.500
 118469270.978 7  92313566.04345  22543913.220    22543913.035
  22543914.630          45.000          34.5004
 109138709.445 8  85043008.635 8  20768369.715    20768370.045    20768371.200
  20768370.992          53.750          52.000
 109464063.766 8  85296676.18447  20830317.235    20830316.511
  20830318.196          48.750          43.7504
 20  1  3  0 22 30.0000000  0  9G29G26G16G27G21G10G13G15G20
 118157490.808 8  92070640.654 7  22484587.870    22484587.801    22484589.291
  22484589.250          48.250          46.500
 130710801.583 6 101852570.219 6  24873437.479    24873436.558    24873443.296
  24873443.387          37.000          40.000
 127387907.316 6  99263303.24143  24241111.575    24241111.785
  24241114.982          37.250          23.5004
 125852055.849 6  98066541.014 7  23948850.696    23948850.161    23948853.697
  23948854.174          41.000          43.250
 110435192.712 8  86053398.26847  21015114.841    21015114.297
  21015115.337          49.250          46.0004
 121140988.698 7  94395575.369 7  23052362.833    23052362.996    23052366.135
  23052366.773          45.000          46.250
 118528278.182 7  92359545.69845  22555142.204    22555141.991
  22555143.258          45.000          33.7504
 109156949.793 8  85057221.903 8  20771840.721    20771840.961    20771842.085
  20771842.065          53.750          52.000
 109415727.659 8  85259011.69647  20821119.298    20821118.455
  20821120.136          48.750          44.0004
 20  1  3  0 23  0.0000000  0  9G29G26G16G27G21G10G13G15G20
 118259971.863 8  92150496.018 7  22504089.863    22504089.499    22504091.305
  22504090.654          49.000          45.750
 130780857.273 6 101907159.078 6  24886769.191    24886768.557    24886774.342
  24886774.442          37.250          39.500
 127433214.112 6  99298607.20144  24249734.804    24249733.954
  24249736.143          39.250          24.2504
 125761180.610 6  97995729.123 7  23931557.925    23931557.523    23931560.157
  23931560.700          41.500          43.250
 110412887.685 8  86036017.72747  21010870.250    21010869.638
  21010870.753          49.500          45.5004
 121061748.389 7  94333829.680 7  23037283.436    23037284.100    23037287.499
  23037288.220          44.500          47.250
 118587806.282 7  92405931.23445  22566469.891    22566469.885
  22566470.997          44.250          33.7504
 109175823.241 8  85071928.494 8  20775432.272    20775432.449    20775433.933
  20775433.559          53.750          52.250
 109367696.421 8  85221584.77247  20811978.886    20811978.232
  20811980.028          48.750          44.0004
 20  1  3  0 23 30.0000000  0  9G29G05G16G27G21G10G13G15G20
 118362733.871 7  92230570.321 7  22523644.361    22523644.406    22523646.066
  22523646.038          47.750          46.000
 134086268.272 6 104482807.491 5  25515769.184    25515769.316    25515769.942
  25515769.757          38.750          35.500
 127478972.829 6  99334263.34244  24258442.450    24258440.643
  24258443.870          39.250          24.2504
 125670623.059 6  97925164.788 7  23914324.463    23914324.565    23914327.838
  23914327.746          40.750          43.500
 110390827.517 8  86018827.98947  21006672.541    21006671.857
  21006672.797          49.250          45.7504
 120982709.254 7  94272240.755 7  23022243.027    23022243.578    23022246.754
  23022246.934          44.750          46.750
 118647854.048 7  92452721.69045  22577896.613    22577896.216
  22577897.847          44.000          33.0004
 109195329.588 8  85087128.257 8  20779144.058    20779144.298    20779145.656
  20779145.423          53.750          52.250
 109319970.157 8  85184395.49047  20802897.196    20802896.543
  20802898.056          49.000          44.2504
 20  1  3  0 24  0.0000000  0  9G29G05G16G27G21G10G13G15G20
 118465774.940 7  92310862.038 7  22543252.151    22543252.100    22543253.731
  22543253.895          47.250          45.750
 134185891.957 6 104560436.318 6  25534727.103    25534727.494    25534728.321
  25534728.539          38.250          39.000
 127525182.731 6  99370271.03844  24267235.448    24267235.690
  24267236.917          40.000          24.7504
 125580387.074 6  97854851.030 7  23897152.980    23897153.158    23897156.272
  23897157.105          41.250          44.000
 110369013.990 8  86001830.43947  21002521.628    21002520.922
  21002521.893          49.500          45.7504
 120903873.013 7  94210809.921 7  23007240.984    23007241.255    23007244.951
  23007245.315          44.750          47.000
 118708420.198 7  92499916.09345  22589421.412    22589421.665
  22589422.729          44.000          32.5004
 109215469.000 8  85102821.311 8  20782976.637    20782976.776    20782978.298
  20782977.897          53.750          52.250
 109272550.427 8  85147445.06847  20793873.400    20793872.703
  20793874.351          48.750          44.0004
 20  1  3  0 24 30.0000000  0  9G29G05G16G27G21G10G13G15G20
 118569091.073 8  92391368.103 7  22562912.894    22562912.874    22562914.583
  22562914.649          48.250          46.250
 134285462.386 6 104638023.639 6  25553674.312    25553674.725    25553675.995
  25553674.331          38.500          38.250
 127571839.168 6  99406626.69543  24276112.817    24276112.670
  24276115.376          37.750          23.2504
 125490473.273 6  97784788.327 7  23880043.324    23880043.180    23880046.148
  23880046.408          41.250          44.000
 110347446.391 8  85985024.52147  20998417.315    20998416.625
  20998417.763          49.500          45.7504
 120825237.998 7  94149535.885 7  22992277.121    22992277.202    22992281.253
  22992281.877          44.500          47.250
 118769500.455 7  92547511.10245  22601045.430    22601045.080
  22601046.380          44.250          32.7504
 109236238.417 8  85119005.293 8  20786928.993    20786929.109    20786930.199
  20786930.152          53.750          52.000
 109225435.401 8  85110732.07147  20784907.601    20784906.956
  20784908.689          48.750          44.2504
 20  1  3  0 25  0.0000000  0  9G29G05G16G27G21G10G13G15G20
 118672681.038 8  92472087.546 7  22582625.415    22582625.607    22582626.928
  22582627.294          48.250          45.500
 134384979.951 6 104715569.765 6  25572612.194    25572611.885    25572613.535
  25572612.933          37.000          36.500
 127618941.387 6  99443329.68944  24285076.814    24285077.449
  24285078.961          39.750          25.2504
 125400886.026 6  97714980.102 7  23862995.320    23862995.004    23862999.262
  23862998.915          40.750          44.250
 110326127.491 8  85968412.39247  20994360.606    20994359.721
  20994360.801          49.250          45.7504
 120746806.427 7  94088420.380 7  22977352.370    22977352.800    22977355.696
  22977356.493          45.000          46.750
 118831094.626 7  92595506.55145  22612766.050    22612765.960
  22612766.761          44.250          32.5004
 109257638.508 8  85135680.691 8  20791001.200    20791001.447    20791002.633
  20791002.392          53.250          51.750
 109178627.074 8  85074258.06347  20776000.434    20775999.816
