     2.11           OBSERVATION DATA    M (MIXED)           RINEX VERSION / TYPE
teqc  2008Oct2                          20220908 07:50:36UTCPGM / RUN BY / DATE
MSXP|IAx86-PII|bcc32 5.0|MSWin95->XP|486/DX+                COMMENT
BIT 2 OF LLI FLAGS DATA COLLECTED UNDER A/S CONDITION       COMMENT
-Unknown-                                                   MARKER NAME
-Unknown-           -Unknown-                               OBSERVER / AGENCY
235-1829            TPS E_GGD           2.3 Aug,01,2003 p2  REC # / TYPE / VERS
-Unknown-           -Unknown-                               ANT # / TYPE
  1240234.6096  4530662.5077  4302599.6018                  APPROX POSITION XYZ
        0.0000        0.0000        0.0000                  ANTENNA: DELTA H/E/N
     1     1                                                WAVELENGTH FACT L1/2
     7    L1    L2    C1    P1    P2    S1    S2            # / TYPES OF OBSERV
 SNR is mapped to RINEX snr flag value [0-9]                COMMENT
  L1 & L2: min(max(int(snr_dBHz/6), 0), 9)                  COMMENT
pseudorange smoothing corrections not applied               COMMENT
rx board ID = AGUS451XLHC                                   COMMENT
  2020     5     2     0     0    0.0000000     GPS         TIME OF FIRST OBS
    14                                                      LEAP SECONDS
                                                            END OF HEADER
 20  5  2  0  0  0.0000000  0 11R 7G 3G14R 1R 8G31G 9G16G 4G22G26
 114194995.992 7  88818302.030 7  21370026.960    21370026.984    21370030.788
        47.000          42.000
 109483658.66948  85311954.13948  20834043.836    20834044.151    20834049.752
        48.000          51.000
 125453494.71645  97755975.55742  23873000.759    23873001.974    23873005.435
        35.000          16.000
 111180621.853 7  86473821.656 6  20798632.188    20798644.209    20798650.810
        47.000          38.000
 102894419.937 8  80028983.727 8  19255279.518    19255280.680    19255282.452
        49.000          49.000
 118993902.51847  92722540.70546  22643785.380    22643785.179    22643787.698
        43.000          41.000
 125527867.95446  97813938.95645  23887155.907    23887156.634    23887162.112
        39.000          34.000
 112368026.03447  87559509.19845  21382921.958    21382921.453    21382924.635
        45.000          35.000
 111724629.88747  87058146.15046  21260479.132    21260479.093    21260483.479
        46.000          36.000
 115890734.81147  90304486.30745  22053267.314    22053266.471    22053267.714
        46.000          35.000
 109941634.02948  85668811.84748  20921193.691    20921193.774    20921199.911
        48.000          49.000
 20  5  2  0  0 30.0000000  0 11R 7G 3G14R 1R 8G31G 9G16G 4G22G26
 114366869.507 7  88951981.409    21402191.098    21402190.693    21402193.222
        46.000           3.000
 109593315.43948  85397400.96648  20854910.731    20854911.002    20854916.738
        48.000          51.000
 125607486.44946  97875969.07742  23902305.887    23902305.298    23902307.604
        36.000          15.000
 111164341.662 7  86461159.281 5  20795587.562    20795598.687    20795606.880
        47.000          30.000
 102966821.023 8  80085295.714    19268828.337    19268829.430    19268829.752
        50.000           2.000
 119157607.68247  92850103.13146  22674936.616    22674937.049    22674939.791
        44.000          40.000
 125510189.36146  97800163.44645  23883792.366    23883791.922    23883798.143
        39.000          34.000
 112365262.30847  87557355.65345  21382396.350    21382395.551    21382398.704
        46.000          35.000
 111742022.56547  87071698.89746  21263788.271    21263788.668    21263792.772
        46.000          36.000
 116041345.12747  90421844.98245  22081927.343    22081926.541    22081927.750
        46.000          35.000
 110018611.36048  85728794.18348  20935842.034    20935841.918    20935848.158
        48.000          49.000
 20  5  2  0  1  0.0000000  0 11R 7G 3G14R 1R 8G31G 9G16G 4G22G26
 114740270.792 7                  21434437.133
        47.000
 109703569.65548  85483313.33548  20875891.273    20875891.604    20875897.390
        48.000          51.000
 125761658.33945  97996102.96142  23931643.073    23931644.202    23931646.874
        35.000          14.000
 111148427.767 7  86448781.837    20792609.547    20792621.712    20792629.022
        47.000           5.000
 103039881.992 8  80142120.862    19282500.470    19282501.888    19282503.415
        50.000           3.000
 119321458.04047  92977778.69846  22706116.937    22706117.209    22706119.443
        44.000          40.000
 125492582.05946  97786443.47245  23880441.100    23880440.863    23880447.872
        38.000          34.000
 112363026.65647  87555613.58745  21381970.643    21381970.089    21381973.077
        46.000          35.000
 111759672.24747  87085451.91146  21267147.206    21267147.382    21267151.371
        46.000          36.000
 116192353.55447  90539513.87345  22110663.157    22110662.384    22110663.778
        47.000          35.000
 110096232.30648  85789278.03248  20950612.777    20950612.654    20950618.924
        48.000          49.000
 20  5  2  0  1 30.0000000  0 11R 7G 3G14R 1R 8G31G 9G16G 4G22G26
 114913335.148 7                  21466767.231
        47.000
 109814428.12848  85569696.55548  20896987.091    20896987.372    20896993.083
        49.000          51.000
 125916017.76345  98116382.97242  23961016.780    23961016.451    23961022.188
        35.000          15.000
 111132891.765 7  86436698.375    20789702.644    20789714.976    20789731.451
        47.000           3.000
 103330846.065 8                  19296298.574
        50.000
 119485459.71547  93105572.16746  22737325.369    22737325.423    22737328.054
        44.000          41.000
 125475054.89346  97772785.95245  23877105.393    23877105.631    23877112.129
        38.000          34.000
 112361329.92347  87554291.45945  21381647.708    21381647.242    21381650.422
        46.000          35.000
 111777588.09847  87099412.31946  21270556.421    21270556.495    21270560.345
        46.000          36.000
 116343765.87647  90657497.49845  22139476.056    22139475.262    22139476.577
        46.000          35.000
 110174504.59748  85850269.42148  20965507.500    20965507.412    20965513.674
        48.000          49.000
 20  5  2  0  2  0.0000000  0 11R 7G 3G14R 1R 8G31G 9G16G 4G22G26
 115086839.961 8                  21499180.064
        48.000
 109925884.68048  85656545.80848  20918196.304    20918196.786    20918202.538
        49.000          51.000
 126070559.10946  98236804.72942  23990425.223    23990425.390    23990428.895
        36.000          15.000
 111117731.635 7                  20786866.561
        47.000
 103405398.327 8  80426408.307 7  19310220.674    19310219.625    19310234.709
        50.000          44.000
 119649605.53447  93233477.96146  22768561.063    22768561.817    22768563.866
        44.000          41.000
 125457603.94246  97759187.83045  23873784.632    23873784.884    23873791.701
        38.000          34.000
 112360169.39147  87553387.15445  21381427.133    21381426.332    21381429.796
        46.000          35.000
 111795766.31447  87113577.17146  21274015.769    21274015.806    21274019.842
        46.000          36.000
 116495574.76547  90775790.12345  22168364.494    22168363.272    22168365.005
        46.000          35.000
 110253422.72947  85911764.05848  20980525.129    20980524.943    20980531.324
        47.000          49.000
 20  5  2  0  2 30.0000000  0 11R 7G 3G14R 1R 8G31G 9G16G 4G22G26
 115260776.799 7  89647251.483 7  21531672.470    21531671.443    21531675.842
        47.000          42.000
 110037931.58648  85743855.07748  20939518.200    20939518.499    20939524.363
        48.000          51.000
 126225276.19746  98357363.43542  24019866.413    24019865.995    24019869.544
        36.000          15.000
 111102944.508 7                  20784101.073
        47.000
 103480612.181 8  80484907.974 8  19324265.981    19324267.236    19324269.212
        50.000          49.000
 119813887.51047  93361489.86946  22799823.083    22799823.351    22799825.551
        44.000          40.000
 125440223.59746  97745644.71545  23870478.045    23870477.660    23870484.113
        38.000          34.000
 112359541.32747  87552897.75945  21381307.153    21381306.964    21381310.258
        46.000          35.000
 111814201.51547  87127942.27846  21277524.029    21277524.101    21277527.872
        46.000          36.000
 116647771.52647  90894384.99445  22197326.247    22197325.491    22197327.095
        46.000          35.000
 110332979.80548  85973756.58448  20995664.298    20995664.277    20995670.597
        48.000          49.000
 20  5  2  0  3  0.0000000  0 11R 7G 3G14R 1R 8G31G 9G16G 4G22G26
 115435146.361 7  89782872.230 7  21564245.681    21564245.893    21564248.990
        47.000          42.000
 110150570.37448  85831625.55948  20960952.870    20960952.920    20960958.786
        48.000          51.000
 126380170.80445  98478060.46842  24049343.190    24049341.096    24049346.146
        35.000          15.000
 111088536.012 7  86402218.360 6  20781406.899    20781417.430    20781423.954
        47.000          38.000
 103556491.496 8  80543925.214 8  19338435.909    19338437.255    19338439.090
        50.000          49.000
 119978306.44447  93489608.47746  22831111.671    22831111.330    22831113.790
        43.000          41.000
 125422917.66146  97732159.57545  23867184.342    23867184.481    23867190.581
        38.000          34.000
 112359451.01747  87552827.39145  21381290.145    21381289.672    21381292.913
        46.000          35.000
 111832897.64047  87142510.69546  21281081.675    21281081.609    21281085.615
        46.000          37.000
 116800356.46847  91013282.34345  22226362.108    22226361.230    22226362.925
        46.000          35.000
 110413178.01648  86036248.69248  21010925.560    21010925.465    21010931.745
        48.000          49.000
 20  5  2  0  3 30.0000000  0 11R 7G 3G14R 1R 8G31G 9G16G 4G22G26
 115609957.086 7  89918836.112 7  21596902.213    21596901.875    21596905.436
        47.000          42.000
 110263810.23248  85919864.40148  20982501.463    20982501.890    20982507.726
        49.000          51.000
 126535252.99645  98598903.67942  24078853.195    24078852.595    24078855.844
        35.000          14.000
 111074520.307 7  86391317.256 6  20778783.711    20778795.352    20778802.465
        47.000          38.000
 103633048.265 8  80603469.362 8  19352732.431    19352733.838    19352735.477
        50.000          48.000
 120142871.37847  93617840.85546  22862426.989    22862426.870    22862429.234
        43.000          40.000
 125405697.45946  97718741.24945  23863907.439    23863907.526    23863913.629
        38.000          34.000
 112359911.37147  87553186.11646  21381377.598    21381377.377    21381380.348
        46.000          36.000
 111851866.31947  87157291.49346  21284691.229    21284691.421    21284695.421
        46.000          37.000
 116953337.60147  91132488.41145  22255473.815    22255472.571    22255474.535
        46.000          35.000
 110494027.29248  86099248.12448  21026310.844    21026310.517    21026316.809
        48.000          49.000
 20  5  2  0  4  0.0000000  0 11R 7G 3G14R 1R 8G31G 9G16G 4G22G26
 115785197.594 8  90055134.255 7  21629638.625    21629638.885    21629641.708
        48.000          42.000
 110377640.15048  86008563.02748  21004162.658    21004163.123    21004168.790
        49.000          51.000
 126690512.33045  98719884.90142  24108398.035    24108397.694    24108400.357
        34.000          14.000
 111060890.701 7  86380716.467 6  20776232.549    20776245.583    20776252.802
        47.000          38.000
 103710273.573 8  80663533.478 8  19367153.958    19367155.170    19367156.715
        50.000          48.000
 120307570.44647  93746177.75746  22893767.901    22893768.118    22893770.285
        43.000          39.000
 125388554.25346  97705382.91845  23860645.374    23860645.211    23860651.216
        39.000          34.000
 112360915.22147  87553968.33846  21381568.883    21381568.308    21381571.472
        46.000          36.000
 111871098.98447  87172277.99546  21288351.383    21288351.330    21288355.302
        46.000          37.000
 117106702.88347  91251993.81645  22284657.936    22284657.003    22284658.787
        46.000          35.000
 110575517.31848  86162746.84048  21041817.540    21041817.505    21041823.961
        48.000          49.000
 20  5  2  0  4 30.0000000  0 11R 7G 3G14R 1R 8G31G 9G16G 4G22G26
 114356060.539 7  88943583.189 7  21362663.517    21362664.192    21362667.585
        47.000          42.000
 108916644.50648  84870124.85448  20726144.535    20726144.856    20726150.583
        48.000          51.000
 125270535.25245  97613409.20542  23838185.965    23838184.385    23838189.653
        35.000          13.000
 109445089.414 7  85123982.130 6  20473966.022    20473976.818    20473983.959
        47.000          38.000
 102182798.210 8  79475497.077 8  19081908.640    19081909.731    19081911.579
        50.000          49.000
 118896989.19447  92647023.52446  22625343.527    22625343.586    22625345.566
        44.000          40.000
 123796070.30746  96464486.36245  23557605.891    23557605.891    23557611.392
        39.000          34.000
 110787046.97247  86327577.50746  21082071.274    21082071.120    21082074.292
        46.000          36.000
 110315179.34847  85959873.09446  20992269.654    20992269.612    20992273.590
        46.000          37.000
 115685036.75547  90144202.01445  22014124.080    22014123.180    22014125.195
        46.000          35.000
 109082232.18048  84999148.02248  20757655.193    20757654.955    20757661.030
        48.000          49.000
 20  5  2  0  5  0.0000000  0 11R 7G 3G14R 1R 8G31G 9G16G 4G22G26
 114532158.393 7  89080548.150 7  21395560.673    21395560.539    21395563.910
        47.000          42.000
 109031655.22948  84959743.58748  20748030.116    20748030.566    20748036.323
        48.000          51.000
 125426152.21145  97734669.12742  23867798.676    23867799.097    23867802.978
        34.000          13.000
 109432246.615 7  85113993.280 6  20471563.819    20471574.418    20471581.223
        47.000          39.000
 102261369.052 8  79536607.724 8  19096581.173    19096582.345    19096584.209
        50.000          49.000
 119061955.71047  92775568.82346  22656735.328    22656735.620    22656738.144
        44.000          40.000
 123779088.74446  96451253.99845  23554373.708    23554374.009    23554379.878
        38.000          34.000
 110789150.29747  86329216.46546  21082471.865    21082471.266    21082474.576
        46.000          36.000
 110334948.18747  85975277.38846  20996031.190    20996031.663    20996035.612
        46.000          37.000
 115839167.88147  90264304.18445  22043453.991    22043453.368    22043454.971
        46.000          35.000
 109165006.62048  85063647.57948  20773406.523    20773406.263    20773412.710
        48.000          49.000
 20  5  2  0  5 30.0000000  0 11R 7G 3G14R 1R 8G31G 9G16G 4G22G26
 114708687.942 7  89217848.880 7  21428537.542    21428536.700    21428541.049
        47.000          42.000
 109147260.15648  85049825.34448  20770028.917    20770029.448    20770035.150
        49.000          50.000
 125581953.08845  97856072.33242  23897446.219    23897446.943    23897452.479
        35.000          14.000
 109419808.097 7  85104318.878 6  20469237.601    20469247.227    20469254.253
        47.000          39.000
 102340620.543 8  79598247.760 8  19111380.887    19111382.051    19111383.702
        50.000          49.000
 119227059.29847  92904220.93046  22688153.629    22688153.800    22688156.293
        43.000          40.000
 123762195.31046  96438090.28545  23551159.397    23551159.622    23551165.020
        39.000          35.000
 110791812.89547  86331291.20946  21082978.444    21082977.807    21082981.223
        46.000          36.000
 110354992.71147  85990896.50446  20999845.792    20999845.842    20999849.886
        46.000          37.000
 115993684.08047  90384706.40745  22072857.743    22072856.655    22072858.474
        46.000          34.000
 109248428.13448  85128651.34848  20789281.129    20789280.936    20789287.406
        48.000          49.000
 20  5  2  0  6  0.0000000  0 11R 7G 3G14R 1R 8G31G 9G16G 4G22G26
 114885643.656 7  89355481.076 7  21461594.195    21461593.956    21461598.046
        47.000          42.000
 109263454.83448  85140366.64548  20792140.593    20792140.671    20792146.305
        48.000          51.000
 125737934.11445  97977615.95142  23927129.198    23927129.671    23927131.711
        35.000          14.000
 109407773.806 8  85094958.885 6  20466985.889    20466996.252    20467003.086
        48.000          39.000
 102420550.563 8  79660415.542 8  19126306.823    19126308.305    19126310.123
        49.000          49.000
 119392295.02947  93032976.00246  22719596.996    22719597.008    22719599.546
        43.000          40.000
 123745387.90346  96424993.62345  23547961.145    23547961.028    23547966.623
        38.000          35.000
 110795033.88647  86333801.07946  21083591.137    21083590.686    21083594.260
        46.000          36.000
 110375310.98347  86006728.92546  21003712.066    21003712.176    21003716.066
        46.000          37.000
 116148579.91547  90505404.44445  22102333.206    22102332.443    22102333.956
        46.000          34.000
 109332492.97347  85194156.41148  20805277.815    20805277.843    20805284.288
        47.000          49.000
 20  5  2  0  6 30.0000000  0 11R 7G 3G14R 1R 8G31G 9G16G 4G22G26
 115063017.768 7  89493438.694 7  21494729.257    21494729.509    21494733.054
        47.000          42.000
 109380232.00748  85231361.83048  20814362.482    20814362.727    20814368.296
        49.000          51.000
 125894089.12646  98099295.12542  23956844.302    23956844.719    23956848.127
        36.000          13.000
 109396141.258 8  85085911.344 6  20464809.096    20464820.048    20464827.073
        48.000          39.000
 102501153.912 8  79723107.026 8  19141359.468    19141360.491    19141362.370
        49.000          49.000
 119557655.03447  93161827.93046  22751063.624    22751064.110    22751066.376
        43.000          39.000
 123728661.69546  96411960.23145  23544778.673    23544778.010    23544783.557
        39.000          34.000
 110798810.00047  86336743.50746  21084310.077    21084309.531    21084312.768
        46.000          36.000
 110395898.38847  86022771.06946  21007629.575    21007629.850    21007633.881
        46.000          37.000
 116303847.07047  90626391.82745  22131879.836    22131878.700    22131880.387
        46.000          34.000
 109417194.55548  85260157.63848  20821396.285    20821396.007    20821402.711
        48.000          49.000
 20  5  2  0  7  0.0000000  0 11R 7G 3G14R 1R 8G31G 9G16G 4G22G26
 115240800.762 7  89631714.317 7  21527940.918    21527940.536    21527944.818
        47.000          42.000
 109497583.24248  85322804.34448  20836693.779    20836693.953    20836699.434
        49.000          51.000
 126050410.36546  98221103.80342  23986591.420    23986590.608    23986594.574
        36.000          13.000
 109384906.810 7  85077173.453 6  20462707.413    20462718.245    20462725.343
        47.000          39.000
 102582424.545 8  79786317.505 8  19156536.324    19156537.263    19156539.043
        49.000          49.000
 119723130.75547  93290770.00746  22782553.209    22782553.172    22782555.765
        43.000          40.000
 123712010.74046  96398985.46445  23541609.558    23541609.540    23541615.357
        39.000          35.000
 110803136.80447  86340115.05146  21085133.367    21085132.826    21085136.297
        46.000          36.000
 110416749.08747  86039018.37746  21011597.795    21011597.643    21011601.831
        47.000          37.000
 116459475.98847  90747661.10145  22161494.936    22161493.609    22161495.626
        46.000          34.000
 109502525.23948  85326649.06848  20837634.083    20837633.869    20837640.488
        48.000          49.000
 20  5  2  0  7 30.0000000  0 11R 7G 3G14R 1R 8G31G 9G16G 4G22G26
 115419000.209 7  89770313.866 5  21561230.325    21561229.700    21561233.485
        46.000          32.000
 109615516.60548  85414700.45948  20859135.716    20859135.879    20859141.434
        49.000          51.000
 126206907.10946  98343049.21942  24016371.913    24016372.521    24016374.365
        36.000          13.000
 109374083.084 8  85068754.996 6  20460682.372    20460693.439    20460700.485
        48.000          39.000
 102664373.187 8  79850055.329 8  19171839.344    19171840.652    19171842.301
        49.000          49.000
 119888730.00747  93419808.35346  22814065.960    22814065.740    22814068.447
        43.000          40.000
 123695445.52746  96386077.51345  23538457.132    23538457.066    23538462.822
        39.000          35.000
 110808026.06647  86343924.86546  21086063.829    21086063.270    21086066.603
        47.000          36.000
 110437873.76547  86055479.17146  21015617.284    21015617.583    21015621.606
        47.000          37.000
 116615473.87247  90869217.88645  22191180.354    22191179.120    22191180.870
        46.000          34.000
 109588493.70948  85393637.48048  20853993.160    20853993.179    20853999.714
        48.000          49.000
 20  5  2  0  8  0.0000000  0 11R 7G 3G14R 1R 8G31G 9G16G 4G22G26
 115597600.914 7  89909225.488 7  21594594.651    21594594.222    21594598.123
        47.000          42.000
 109734017.60648  85507038.89048  20881685.699    20881685.938    20881691.423
        49.000          51.000
 126363565.57346  98465120.69642  24046183.923    24046184.234    24046186.967
        36.000          14.000
 109363660.247 8  85060648.344 6  20458732.009    20458743.447    20458750.714
        48.000          39.000
 102746987.753 8  79914311.097 8  19187266.765    19187268.258    19187269.964
        49.000          49.000
 120054438.01047  93548931.42046  22845598.549    22845598.608    22845601.526
        42.000          39.000
 123678954.07946  96373227.05145  23535318.623    23535318.989    23535325.048
        39.000          35.000
 110813467.22047  86348164.72646  21087099.280    21087098.734    21087101.919
        47.000          36.000
 110459260.64947  86072144.28446  21019687.381    21019687.164    21019691.326
        47.000          37.000
 116771825.35647  90991050.20345  22220932.703    22220932.169    22220933.686
        45.000          34.000
 109675086.18547  85461112.13348  20870471.363    20870471.328    20870477.786
        47.000          49.000
 20  5  2  0  8 30.0000000  0 11R 7G 3G14R 1R 8G31G 9G16G 4G22G26
 115776615.783 7  90048459.257 7  21628035.764    21628035.425    21628038.917
        47.000          42.000
 109853099.92148  85599830.29348  20904346.331    20904346.544    20904351.970
        48.000          51.000
 126520400.32746  98587329.52342  24076027.581    24076028.747    24076031.407
        36.000          14.000
 109353657.240 7  85052868.234 6  20456860.551    20456872.587    20456879.411
        47.000          39.000
 102830284.417 8  79979097.380 8  19202822.126    19202823.232    19202825.185
        49.000          49.000
 120220268.00847  93678149.56546  22877154.921    22877155.046    22877157.930
        42.000          39.000
 123662552.58946  96360446.68645  23532197.668    23532198.021    23532203.788
        39.000          35.000
 110819477.95347  86352848.41646  21088242.788    21088242.585    21088245.605
        47.000          36.000
 110480926.06447  86089026.42646  21023809.750    21023810.113    21023813.992
        46.000          37.000
 116928543.02947  91113167.85845  22250755.662    22250754.448    22250756.054
        45.000          34.000
 109762317.04648  85529084.22948  20887070.908    20887070.615    20887077.319
        48.000          49.000
 20  5  2  0  9  0.0000000  0 11R 7G 3G14R 1R 8G31G 9G16G 4G22G26
 115956034.981 7  90188007.492 7  21661552.254    21661552.330    21661556.295
        47.000          42.000
 109972754.14548  85693067.34348  20927115.785    20927115.930    20927121.474
        48.000          51.000
 126677402.98645  98709669.23042  24105904.055    24105905.055    24105907.942
        35.000          14.000
 109344069.106 8  85045410.794 6  20455067.434    20455078.517    20455085.769
        48.000          39.000
 102914256.168 8  80044408.726 8  19218503.512    19218504.403    19218506.376
        49.000          48.000
 120386210.58047  93807455.42246  22908732.867    22908732.915    22908735.748
        42.000          38.000
 123646234.25146  96347731.12145  23529092.776    23529092.327    23529098.408
        38.000          35.000
 110826052.69647  86357971.59146  21089494.108    21089493.745    21089496.801
        47.000          37.000
 110502863.35747  86106120.43346  21027984.435    21027984.287    21027988.405
        46.000          37.000
 117085616.10247  91235562.45045  22280645.347    22280644.708    22280646.361
        46.000          34.000
 109850177.59348  85597546.98648  20903790.232    20903790.053    20903796.409
        48.000          49.000
 20  5  2  0  9 30.0000000  0 11R 7G 3G14R 1R 8G31G 9G16G 4G22G26
 116135853.758 7  90327866.517 7  21695143.771    21695144.743    21695148.079
        47.000          42.000
 110092976.38748  85786746.99848  20949993.189    20949993.522    20949999.092
        49.000          50.000
 126834570.87646  98832137.62642  24135812.953    24135810.607    24135815.635
        36.000          15.000
 109334896.788 7  85038276.776 6  20453352.095    20453362.872    20453369.939
        47.000          39.000
 102998901.662 8  80110244.105 8  19234310.509    19234311.514    19234313.026
        49.000          49.000
 120552261.55147  93936845.74946  22940331.146    22940331.266    22940334.394
        42.000          38.000
 123629997.73346  96335079.29745  23526002.763    23526002.546    23526008.584
        38.000          35.000
 110833191.21147  86363534.07446  21090852.658    21090852.238    21090855.303
        47.000          37.000
 110525071.34347  86123425.36546  21032210.136    21032210.496    21032214.455
        46.000          37.000
 117243040.44247  91358230.75045  22310602.278    22310601.270    22310603.066
        46.000          34.000
 109938664.47748  85666497.80548  20920628.711    20920628.581    20920635.018
        48.000          49.000
 20  5  2  0 10  0.0000000  0 11R 7G 3G14R 1R 8G31G 9G16G 4G22G26
 116316078.569 7  90468041.344 6  21728811.469    21728812.208    21728815.228
        47.000          41.000
 110213773.71448  85880874.76848  20972980.108    20972980.496    20972986.067
        48.000          50.000
 126991911.96546  98954741.02042  24165753.777    24165752.758    24165757.955
        36.000          14.000
 109326152.480 7  85031475.667 6  20451715.035    20451727.283    20451734.325
        47.000          39.000
 103084230.209 8  80176610.744 8  19250244.764    19250245.810    19250247.633
        49.000          49.000
 120718427.76647  94066325.87646  22971951.974    22971952.289    22971954.705
        43.000          39.000
 123613852.71346  96322498.77045  23522930.921    23522930.441    23522936.642
        40.000          35.000
 110840904.33847  86369544.30146  21092320.436    21092319.921    21092323.213
        47.000          37.000
 110547559.85947  86140948.89146  21036489.871    21036489.856    21036493.937
        46.000          37.000
 117400822.02847  91481177.42745  22340627.154    22340626.301    22340628.436
        46.000          34.000
 110027785.67447  85735942.88648  20937587.681    20937587.777    20937594.280
        47.000          49.000
 20  5  2  0 10 30.0000000  0 11R 7G 3G14R 1R 8G31G 9G16G 4G22G26
 116496714.591 7  90608535.988 6  21762556.334    21762556.134    21762559.813
        47.000          41.000
 110335151.63548  85975454.95948  20996077.492    20996078.015    20996083.553
        48.000          50.000
 127149432.55345  99077484.29442  24195729.533    24195728.312    24195732.877
        35.000          13.000
 109317846.777 7  85025015.669 6  20450162.634    20450173.023    20450180.499
        47.000          39.000
 103170249.988 8  80243515.010 8  19266308.011    19266309.424    19266311.399
        49.000          49.000
 120884714.80846  94195900.15646  23003595.305    23003595.478    23003598.069
        41.000          39.000
 123597807.32446  96309995.88046  23519877.872    23519877.668    23519883.053
        39.000          36.000
 110849201.81047  86376009.87246  21093899.342    21093899.070    21093901.860
        47.000          37.000
 110570337.17947  86158697.46246  21040824.096    21040824.277    21040828.281
        46.000          38.000
 117558965.32247  91604405.95645  22370721.297    22370719.926    22370722.064
        46.000          34.000
 110117547.26347  85805886.97648  20954668.919    20954668.852    20954675.237
        47.000          49.000
 20  5  2  0 11  0.0000000  0 11R 7G 3G14R 1R 8G31G 9G16G 4G22G26
 116677743.287 7  90749336.062 6  21796373.511    21796374.108    21796377.346
        46.000          41.000
 110457092.51948  86070473.81748  21019282.322    21019282.538    21019288.157
        48.000          50.000
 127307116.24245  99200354.62242  24225736.241    24225734.272    24225740.617
        34.000          14.000
 109309966.576 7  85018886.635 6  20448687.684    20448699.025    20448706.341
        47.000          39.000
 103256945.763 8  80310945.055 8  19282497.929    19282499.262    19282501.194
        49.000          49.000
 121051104.83546  94325554.67646  23035258.340    23035258.049    23035260.971
        41.000          38.000
 123581846.64746  96297559.00846  23516840.484    23516840.461    23516845.947
        40.000          36.000
 110858069.70847  86382919.92846  21095586.792    21095586.325    21095589.182
        46.000          37.000
 110593388.55647  86176659.58046  21045210.600    21045210.718    21045214.882
        46.000          38.000
 117717451.75147  91727901.85745  22400879.764    22400879.072    22400880.880
        45.000          33.000
 110207932.25448  85876316.84948  20971868.690    20971868.408    20971874.809
        48.000          49.000
 20  5  2  0 11 30.0000000  0 11R 7G 3G14R 1R 8G31G 9G16G 4G22G26
 116859156.836 7  90890435.446 6  21830263.824    21830263.005    21830266.871
        46.000          40.000
 110579589.48748  86165925.99048  21042592.432    21042592.904    21042598.589
        49.000          50.000
 127464957.08945  99323347.43842  24255771.444    24255769.546    24255774.438
        34.000          13.000
 109302509.909 7  85013087.014 6  20447292.785    20447303.855    20447310.991
        47.000          39.000
 103344312.527 8  80378896.974 8  19298813.402    19298814.434    19298816.327
        49.000          49.000
 121217590.82647  94455283.98546  23066939.200    23066939.289    23066942.416
        42.000          38.000
 123565966.50246  96285184.87946  23513818.370    23513818.677    23513823.923
        40.000          36.000
 110867505.11547  86390272.19346  21097382.480    21097381.838    21097385.051
        47.000          37.000
 110616709.88747  86194832.05746  21049648.389    21049648.597    21049652.627
        46.000          38.000
 117876273.46947  91851659.02645  22431102.465    22431101.597    22431103.553
        46.000          33.000
 110298934.50548  85947227.68448  20989185.366    20989185.672    20989192.042
        48.000          49.000
 20  5  2  0 12  0.0000000  0 11R 7G 3G14R 1R 8G31G 9G16G 4G22G26
 117040966.190 7  91031842.698 6  21864226.665    21864226.867    21864230.396
        45.000          40.000
 110702653.36448  86261819.90648  21066010.723    21066011.219    21066016.849
        48.000          50.000
 127622967.26545  99446472.23742  24285838.646    24285839.464    24285845.717
        34.000          12.000
 109295492.623 7  85007629.132 6  20445979.369    20445990.643    20445998.540
        47.000          39.000
 103432364.100 8  80447381.520 8  19315256.429    19315257.666    19315259.372
        49.000          49.000
 121384183.65547  94585096.53346  23098641.061    23098641.382    23098643.895
        42.000          39.000
 123550180.46446  96272884.08146  23510815.055    23510814.426    23510819.703
        39.000          36.000
 110877522.74447  86398078.14146  21099288.569    21099288.201    21099291.356
        47.000          37.000
 110640314.85747  86213225.55146  21054140.477    21054140.426    21054144.621
        46.000          38.000
 118035440.69247  91975685.41445  22461391.306    22461390.063    22461391.801
        46.000          33.000
 110390565.47648  86018628.44148  21006622.445    21006622.470    21006628.749
        48.000          49.000
 20  5  2  0 12 30.0000000  0 11R 7G 3G14R 1R 8G31G 9G16G 4G22G26
 117223168.702 7  91173555.717 6  21898264.065    21898263.959    21898267.017
        46.000          40.000
 110826282.93248  86358154.62148  21089536.696    21089537.082    21089542.843
        49.000          50.000
 127781146.06145  99569728.40542  24315940.635    24315939.428    24315944.186
        34.000          13.000
 109288918.566 7  85002515.979 6  20444749.986    20444761.409    20444768.852
        47.000          39.000
 103521101.196 8  80516399.260 8  19331827.610    19331828.544    19331830.557
        48.000          49.000
 121550882.08047  94714991.38346  23130362.756    23130362.993    23130365.749
        42.000          38.000
 123534490.02546  96260657.78246  23507828.056    23507828.212    23507833.670
        39.000          36.000
 110888125.16447  86406339.76646  21101306.112    21101305.757    21101308.998
        47.000          37.000
 110664205.19047  86231841.40446  21058686.584    21058686.930    21058690.877
        47.000          38.000
 118194951.18547  92099979.29145  22491745.455    22491744.130    22491745.722
        45.000          33.000
 110482824.60147  86090518.66648  21024178.806    21024178.797    21024185.080
        47.000          49.000
 20  5  2  0 13  0.0000000  0 11R 7G 3G14R 1R 8G31G 9G16G 4G22G26
 117405756.275 7  91315568.251 6  21932373.009    21932372.825    21932376.725
        46.000          41.000
 110950470.31248  86454924.00148  21113168.967    21113169.209    21113174.910
        49.000          50.000
 127939486.97445  99693110.87842  24346071.412    24346072.422    24346075.027
        35.000          13.000
 109282784.627 8  84997745.138 6  20443603.082    20443613.911    20443621.149
        48.000          40.000
 103610518.852 8  80585946.313 8  19348525.633    19348526.685    19348528.537
        49.000          49.000
 121717678.13546  94844962.28946  23162103.141    23162103.490    23162105.703
        41.000          38.000
 123518890.11246  96248502.02146  23504859.560    23504859.451    23504865.089
        39.000          36.000
 110899308.40647  86415053.98446  21103434.190    21103433.802    21103436.835
        47.000          37.000
 110688375.87047  86250675.69746  21063286.144    21063286.513    21063290.342
        46.000          38.000
 118354795.84847  92224533.56645  22522162.571    22522161.623    22522163.190
        45.000          33.000
 110575704.67248  86162892.75148  21041853.310    21041853.206    21041859.724
        48.000          49.000
 20  5  2  0 13 30.0000000  0 11R 7G 3G14R 1R 8G31G 9G16G 4G22G26
 117588721.612 7  91457874.596 6  21966552.337    21966552.127    21966556.088
        45.000          41.000
 111075208.88548  86552122.88248  21136905.957    21136906.228    21136911.926
        48.000          50.000
 128097984.78445  99816615.61842  24376233.937    24376232.841    24376235.588
        35.000          12.000
 109277089.485 8  84993315.590 6  20442536.792    20442548.949    20442555.888
        48.000          40.000
 103700612.230 8  80656018.931 8  19365349.968    19365351.117    19365352.782
        49.000          48.000
 121884565.47847  94975004.34446  23193860.696    23193860.640    23193863.093
        42.000          38.000
 123503376.94246  96236413.84546  23501907.108    23501907.257    23501912.763
        40.000          36.000
 110911069.51147  86424218.49546  21105672.364    21105671.652    21105674.963
        47.000          37.000
 110712823.19147  86269725.56946  21067938.499    21067938.797    21067942.460
        47.000          38.000
 118514967.43147  92349342.56945  22552642.254    22552641.358    22552642.579
        44.000          33.000
 110669199.70348  86235746.01548  21059645.193    21059644.788    21059651.190
        48.000          49.000
 20  5  2  0 14  0.0000000  0 11R 7G 3G14R 1R 8G31G 9G16G 4G22G26
 117772068.461 7  91600477.669 6  22000802.650    22000802.726    22000806.967
        45.000          41.000
 111200502.98848  86649754.63448  21160748.460    21160748.813    21160754.573
        49.000          49.000
 128256644.77145  99940246.76442  24406424.424    24406424.967    24406429.674
        34.000          12.000
 109271842.178 8  84989234.350 6  20441556.309    20441567.706    20441573.912
        48.000          40.000
 103791388.479 8  80726622.673 8  19382301.907    19382302.845    19382304.646
        49.000          49.000
 122051548.46847  95105120.91946  23225636.348    23225636.861    23225639.271
        42.000          38.000
 123487957.68146  96224398.86246  23498973.559    23498973.074    23498978.774
        39.000          36.000
 110923416.75647  86433839.72346  21108021.953    21108021.291    21108024.468
        47.000          37.000
 110737554.51947  86288996.73646  21072644.852    21072644.795    21072648.809
        46.000          38.000
 118675469.85447  92474409.38845  22583184.759    22583183.853    22583185.720
        45.000          33.000
 110763314.71348  86309082.39248  21077554.467    21077554.371    21077560.699
        48.000          49.000
 20  5  2  0 14 30.0000000  0 11R 7G 3G14R 1R 8G31G 9G16G 4G22G26
 117955794.424 7  91743375.609 6  22035124.462    22035124.286    22035128.294
        45.000          41.000
 111326350.58047  86747817.68048  21184696.450    21184696.730    21184702.537
        47.000          50.000
 128415466.00845 100064003.44442  24436646.938    24436646.487    24436650.723
        34.000          12.000
 109267045.852 8  84985503.867 6  20440659.187    20440670.097    20440677.085
        48.000          39.000
 103882847.826 8  80797757.708 8  19399380.657    19399381.932    19399384.000
        48.000          49.000
 122218625.10447  95235310.47646  23257430.635    23257430.460    23257432.842
        43.000          38.000
 123472633.17946  96212457.70445  23496056.431    23496056.861    23496062.922
        39.000          35.000
 110936352.06047  86443919.18446  21110483.152    21110482.806    21110486.137
        47.000          38.000
 110762570.73347  86308489.89246  21077404.886    21077405.117    21077409.245
        46.000          38.000
 118836300.08447  92599731.62645  22613790.018    22613788.626    22613790.733
        45.000          32.000
 110858048.28547  86382900.76148  21095581.464    21095581.486    21095587.859
        47.000          49.000
 20  5  2  0 15  0.0000000  0 11R 7G 3G14R 1R 8G31G 9G16G 4G22G26
 116535076.006 7  90638372.356 6  21769722.780    21769721.956    21769726.483
        45.000          41.000
 109877319.88748  85618702.84548  20908955.177    20908955.401    20908961.193
        48.000          50.000
 126999019.16045  98960278.52842  24167105.926    24167104.280    24167110.731
        34.000          12.000
 107660126.914 8  83735678.038 6  20140051.491    20140062.453    20140069.277
        48.000          40.000
 102369604.250 8  79620790.470 8  19116792.910    19116794.427    19116796.369
        49.000          48.000
 120810365.25947  94137965.10446  22989446.981    22989447.404    22989449.976
        42.000          38.000
 121881969.82946  94972979.78146  23193364.344    23193364.037    23193369.511
        39.000          36.000
 109374443.97348  85226847.95146  20813262.046    20813261.679    20813265.104
        48.000          38.000
 109212439.71147  85100595.59146  20782424.801    20782424.929    20782429.179
        46.000          38.000
 117422026.66147  91497700.36945  22344662.641    22344661.708    22344662.933
        45.000          33.000
 109377968.26847  85229591.65848  20813931.764    20813931.637    20813937.985
        47.000          49.000
 20  5  2  0 15 30.0000000  0 11R 7G 3G14R 1R 8G31G 9G16G 4G22G26
 116719523.749 7  90781831.682 6  21804179.271    21804179.299    21804183.024
        45.000          41.000
 110004240.88648  85717602.31048  20933107.539    20933107.801    20933113.505
        48.000          50.000
 127158133.05245  99084263.36541  24197384.966    24197388.713    24197389.369
        33.000          10.000
 107656214.137 8  83732634.765 6  20139320.097    20139330.353    20139337.175
        48.000          40.000
 102462402.296 8  79692966.719 8  19134123.174    19134124.411    19134125.836
        48.000          49.000
 120977596.26747  94268274.95446  23021270.211    23021270.581    23021273.124
        42.000          38.000
 121866809.95346  94961166.90346  23190479.056    23190479.260    23190485.010
        40.000          36.000
 109388533.51647  85237826.81946  20815943.395    20815942.903    20815945.958
        47.000          37.000
 109238001.16147  85120513.61546  20787288.953    20787288.995    20787293.317
        46.000          38.000
 117583476.24347  91623505.23145  22375385.204    22375384.365    22375386.414
        45.000          32.000
 109473907.35147  85304349.38648  20832188.265    20832188.043    20832194.548
        47.000          49.000
 20  5  2  0 16  0.0000000  0 11R 7G 3G14R 1R 8G31G 9G16G 4G22G26
 116904340.642 7  90925578.113 6  21838704.351    21838704.486    21838707.865
        45.000          41.000
 110131707.29348  85816926.76948  20957363.684    20957363.940    20957369.585
        48.000          50.000
 127317403.59145  99208370.21241  24227693.467    24227693.096    24227695.268
        33.000          10.000
 107652759.487 8  83729947.819 6  20138672.962    20138684.148    20138691.272
        48.000          40.000
 102555882.396 8  79765673.450 8  19151579.884    19151580.933    19151582.533
        49.000          48.000
 121144913.21447  94398651.75346  23053109.735    23053109.839    23053112.536
        42.000          37.000
 121851745.53746  94949428.40646  23187613.035    23187612.599    23187618.278
        40.000          36.000
 109403214.55647  85249266.59946  20818737.114    20818736.733    20818739.821
        47.000          38.000
 109263848.52547  85140654.41346  20792207.732    20792207.701    20792211.677
        46.000          38.000
 117745243.08547  91749557.30045  22406168.489    22406167.406    22406169.683
        45.000          32.000
 109570458.84948  85379584.31748  20850561.353    20850561.332    20850567.787
        48.000          49.000
 20  5  2  0 16 30.0000000  0 11R 7G 3G14R 1R 8G31G 9G16G 4G22G26
 117089519.202 7  91069605.850 6  21873297.342    21873297.169    21873300.866
        46.000          40.000
 110259712.25148  85916670.88148  20981722.211    20981722.457    20981728.146
        48.000          50.000
 127476825.15545  99332594.79041  24258031.049    24258032.577    24258032.241
        32.000           8.000
 107649761.505 8  83727616.058 6  20138112.730    20138123.487    20138130.517
        49.000          40.000
 102650039.872 8  79838907.027 8  19169162.734    19169164.082    19169165.935
        49.000          49.000
 121312309.61747  94529090.46946  23084964.379    23084964.355    23084967.255
        42.000          38.000
 121836772.73746  94937761.31446  23184763.337    23184763.436    23184768.861
        40.000          36.000
 109418484.27447  85261165.08446  20821642.884    20821642.428    20821645.525
        47.000          38.000
 109289978.02047  85161015.06646  20797179.982    20797179.972    20797183.873
        46.000          38.000
 117907319.61047  91875850.67045  22437010.206    22437009.409    22437012.035
        44.000          32.000
 109667616.56047  85455291.62548  20869049.710    20869049.829    20869056.300
        47.000          49.000
 20  5  2  0 17  0.0000000  0 11R 7G 3G14R 1R 8G31G 9G16G 4G22G26
 117275061.269 7  91213916.316 6  21907958.392    21907957.136    21907961.691
        45.000          40.000
 110388258.11048  86016836.46548  21006183.457    21006183.855    21006189.563
        49.000          50.000
 127636401.32845  99456939.87141  24288397.587    24288393.442    24288401.914
        31.000           7.000
 107647227.190 8  83725644.943 6  20137636.830    20137648.908    20137656.199
        48.000          40.000
 102744879.216 8  79912670.944 8  19186873.792    19186874.824    19186876.371
        49.000          49.000
 121479788.23947  94659593.23746  23116834.433    23116834.397    23116837.427
        43.000          38.000
 121821896.84046  94926169.72346  23181932.799    23181933.107    23181938.270
        40.000          37.000
 109434348.83047  85273527.07346  20824661.696    20824661.226    20824664.440
        47.000          38.000
 109316395.01947  85181599.75046  20802206.827    20802207.328    20802210.998
        46.000          38.000
 118069707.17747  92002386.42345  22467911.915    22467910.856    22467913.221
        44.000          32.000
 109765383.43247  85531473.59948  20887654.567    20887654.338    20887660.828
        47.000          49.000
 20  5  2  0 17 30.0000000  0 11R 7G 3G14R 1R 8G31G 9G16G 4G22G26
 117460962.152 7  91358505.865 6  21942686.592    21942686.065    21942689.491
        46.000          40.000
 110517340.99948  86117420.52848  21030747.331    21030747.532    21030753.202
        48.000          50.000
 127796129.46545  99581403.3124   24318791.276    24318791.127    24318795.786
        30.000           5.000
 107645158.264 8  83724035.781 6  20137250.835    20137261.952    20137269.182
        48.000          40.000
 102840399.233 8  79986964.270 8  19204711.279    19204712.421    19204714.067
        49.000          49.000
 121647345.13447  94790157.01146  23148719.233    23148719.414    23148722.287
        42.000          38.000
 121807117.09546  94914653.04746  23179119.974    23179120.536    23179125.441
        41.000          37.000
 109450808.23048  85286352.58546  20827793.714    20827793.437    20827796.359
        48.000          38.000
 109343098.84947  85202407.92646  20807288.509    20807288.636    20807292.571
        46.000          38.000
 118232401.51947  92129161.21945  22498871.495    22498870.411    22498872.773
        45.000          32.000
 109863756.25848  85608127.74848  20906374.142    20906374.106    20906380.447
        48.000          49.000
 20  5  2  0 18  0.0000000  0 11R 7G 3G14R 1R 8G31G 9G16G 4G22G26
 117647226.247 7  91503377.913 6  21977481.870    21977482.123    21977485.148
        46.000          40.000
 110646965.33948  86218426.49048  21055413.909    21055414.194    21055419.869
        48.000          50.000
 127956015.20245  99705989.5064   24349217.099    24349215.576    24349221.791
        30.000           4.000
 107643564.295 8  83722796.026 6  20136952.843    20136963.734    20136971.291
        48.000          40.000
 102936606.667 8  80061792.264 8  19222677.506    19222678.595    19222680.459
        49.000          49.000
 121814985.27647  94920785.65546  23180620.554    23180620.196    23180623.303
        42.000          37.000
 121792440.91546  94903217.08646  23176327.697    23176327.462    23176332.551
        40.000          37.000
 109467870.80447  85299648.09346  20831040.585    20831040.361    20831043.305
        47.000          38.000
 109370096.99847  85223445.45546  20812425.919    20812426.038    20812430.189
        47.000          38.000
 118395405.99147  92256177.67345  22529890.066    22529889.102    22529891.614
        44.000          32.000
 109962740.02948  85685257.95248  20925210.075    20925210.136    20925216.480
        48.000          49.000
 20  5  2  0 18 30.0000000  0 11R 7G 3G14R 1R 8G31G 9G16G 4G22G26
 117833857.023 7  91648535.147 6  22012346.104    22012345.108    22012349.385
        45.000          40.000
 110777135.14248  86319857.49248  21080184.362    21080184.710    21080190.379
        48.000          49.000
 128116063.87745                  24379672.019
        31.000
 107642454.606 8  83721932.932 6  20136746.435    20136756.446    20136763.555
        48.000          40.000
 103033507.559 8  80137159.606 8  19240773.331    19240773.955    19240776.042
        49.000          49.000
 121982712.93347  95051482.48746  23212537.635    23212537.876    23212540.544
        42.000          37.000
 121777875.44146  94891867.38446  23173555.617    23173555.654    23173561.043
        40.000          38.000
 109485544.17048  85313419.55146  20834403.793    20834403.193    20834406.394
        48.000          37.000
 109397396.67247  85244717.92846  20817620.761    20817621.083    20817625.263
        47.000          38.000
 118558723.91847  92383438.37545  22560968.162    22560967.579    22560969.786
        44.000          31.000
 110062339.41048  85762867.86148  20944163.445    20944163.259    20944169.642
        48.000          49.000
 20  5  2  0 19  0.0000000  0 11R 7G 3G14R 1R 8G31G 9G16G 4G22G26
 118020839.620 7  91793966.026 6  22047276.609    22047276.000    22047280.037
        45.000          40.000
 110907836.33348  86421702.56648  21105055.924    21105056.328    21105062.006
        48.000          50.000
 128276262.97745                  24410158.044
        31.000
 107641820.315 8  83721439.590 6  20136626.628    20136637.762    20136645.056
        48.000          40.000
 103131090.253 8  80213057.247 8  19258995.553    19258997.057    19258998.789
        49.000          49.000
 122150514.47146  95182236.89846  23244469.662    23244469.416    23244472.193
        41.000          36.000
 121763409.74646  94880595.43946  23170802.795    23170802.831    23170808.223
        40.000          37.000
 109503818.23547  85327659.07346  20837881.292    20837880.752    20837883.961
        47.000          38.000
 109424986.96147  85266216.85946  20822871.392    20822871.242    20822875.507
        47.000          38.000
 118722340.79047  92510932.03045  22592103.541    22592102.566    22592105.213
        44.000          31.000
 110162540.94548  85840946.97548  20963231.063    20963230.769    20963237.512
        48.000          49.000
 20  5  2  0 19 30.0000000  0 11R 7G 3G14R 1R 8G31G 9G16G 4G22G26
 118208172.969 7  91939669.700 6  22082272.027    22082272.036    22082274.997
        45.000          40.000
 111039068.35148  86523961.26748  21130028.600    21130029.022    21130034.642
        48.000          49.000
 128436613.03845                  24440673.314
        30.000
 107641665.883 8  83721319.483 6  20136597.314    20136608.752    20136616.061
        48.000          40.000
 103229356.655 8  80289486.655 8  19277345.894    19277347.309    19277349.333
        49.000          49.000
 122318389.64546  95313048.67246  23276414.972    23276414.978    23276418.212
        41.000          36.000
 121749046.35846  94869403.20446  23168069.180    23168069.391    23168075.049
        40.000          38.000
 109522696.54147  85342369.43646  20841473.496    20841473.016    20841476.219
        47.000          38.000
 109452870.52747  85287944.31246  20828177.047    20828177.203    20828181.450
        46.000          38.000
 118886255.45447  92638657.72745  22623296.191    22623294.956    22623297.081
        45.000          31.000
 110263344.67248  85919495.32448  20982413.279    20982413.235    20982419.422
        48.000          49.000
 20  5  2  0 20  0.0000000  0 11R 7G 3G14R 1R 8G31G 9G16G 4G22G26
 118395847.140 7  92085638.457 6  22117330.566    22117329.957    22117333.724
        44.000          39.000
 111170821.72947  86626626.22148  21155100.677    21155100.897    21155106.456
        47.000          49.000
 128597105.74445                  24471211.634
        30.000
 107641987.287 8  83721569.456 6  20136657.705    20136669.238    20136675.910
        49.000          40.000
 103328298.909 8  80366441.733 8  19295823.151    19295824.313    19295826.399
        49.000          49.000
 122486329.52447  95443910.87346  23308372.782    23308372.988    23308376.135
        42.000          36.000
 121734779.01146  94858285.80746  23165354.458    23165354.646    23165360.148
        41.000          38.000
 109542172.97347  85357545.88046  20845179.711    20845179.160    20845182.340
        47.000          38.000
 109481041.06647  85309895.38546  20833537.796    20833538.085    20833542.031
        47.000          39.000
 119050457.31147  92766607.21045  22654542.792    22654541.669    22654543.738
        44.000          31.000
 110364741.71547  85998506.00348  21001708.345    21001708.402    21001714.898
        47.000          49.000
 20  5  2  0 20 30.0000000  0 11R 7G 3G14R 1R 8G31G 9G16G 4G22G26
 118583856.853 7  92231868.177 6  22152452.509    22152451.983    22152456.272
        45.000          40.000
 111303091.85447  86729693.83848  21180270.565    21180271.060    21180276.685
        47.000          50.000
 128757737.85045                  24501777.383
        31.000
 107642784.749 8  83722189.704 6  20136806.985    20136818.159    20136825.158
        49.000          40.000
 103427914.495 8  80443920.511 8  19314425.921    19314426.640    19314428.667
        49.000          49.000
 122654329.89247  95574820.20546  23340342.992    23340342.799    23340345.442
        42.000          36.000
 121720606.33646  94847242.18546  23162657.899    23162657.780    23162663.004
        41.000          38.000
 109562247.10247  85373188.05946  20848999.901    20848999.315    20849002.579
        47.000          38.000
 109509497.29747  85332069.07846  20838952.935    20838953.324    20838956.992
        47.000          39.000
 119214941.17947  92894776.44545  22685842.763    22685841.877    22685844.013
        44.000          31.000
 110466728.11648  86077975.92148  21021115.895    21021115.783    21021122.201
        48.000          49.000
 20  5  2  0 21  0.0000000  0 11R 7G 3G14R 1R 8G31G 9G16G 4G22G26
 118772199.934 7  92378357.204 6  22187636.388    22187636.716    22187640.417
        45.000          39.000
 111435876.89948  86833162.69248  21205538.850    21205539.311    21205544.863
        48.000          49.000
 128918508.95645                  24532373.930
        32.000
 107644062.007 8  83723183.139 6  20137044.661    20137057.277    20137064.301
        49.000          40.000
 103528204.299 8  80521923.679 8  19333154.010    19333155.259    19333157.026
        49.000          49.000
 122822389.36546  95705775.60645  23372323.318    23372323.143    23372326.072
        41.000          35.000
 121706529.69246  94836273.38746  23159979.062    23159978.966    23159984.386
        40.000          38.000
 109582920.82548  85389297.45746  20852933.791    20852933.620    20852936.584
        48.000          38.000
 109538240.59247  85354466.45546  20844423.028    20844423.172    20844426.796
        47.000          38.000
 119379704.76947  93023163.64545  22717196.307    22717195.008    22717197.029
        44.000          31.000
 110569302.62647  86157904.10448  21040635.313    21040634.973    21040641.405
        47.000          49.000
 20  5  2  0 21 30.0000000  0 11R 7G 3G14R 1R 8G31G 9G16G 4G22G26
 118960877.923 7  92525106.707 6  22222882.724    22222883.186    22222885.922
        45.000          39.000
 111569178.77048  86937034.26548  21230905.564    21230905.911    21230911.364
        48.000          49.000
 129079422.30445                  24562994.886
        32.000
 107645825.940 8  83724555.083 6  20137375.080    20137387.242    20137394.449
        48.000          40.000
 103629172.477 8  80600454.474 8  19352009.487    19352010.342    19352012.157
        49.000          49.000
 122990510.45946  95836779.00245  23404315.798    23404315.561    23404318.775
        41.000          35.000
 121692554.21746  94825383.42346  23157320.191    23157319.437    23157325.060
        41.000          39.000
 109604199.92447  85405878.56646  20856983.204    20856982.842    20856985.751
        47.000          38.000
 109567276.15147  85377091.56646  20849948.276    20849948.127    20849951.901
        47.000          39.000
 119544749.27947  93151769.73245  22748603.238    22748601.977    22748604.583
        44.000          31.000
 110672467.72048  86238292.47848  21060267.057    21060266.891    21060273.089
        48.000          49.000
 20  5  2  0 22  0.0000000  0 11R 7G 3G14R 1R 8G31G 9G16G 4G22G26
 119149896.554 7  92672121.163 6  22258193.304    22258193.666    22258197.413
        45.000          40.000
 111703003.78248  87041313.48148  21256371.708    21256372.040    21256377.457
        48.000          49.000
 129240485.73945                  24593643.532
        33.000
 107648088.648 8  83726314.960 6  20137798.541    20137810.495    20137817.717
        49.000          41.000
 103730827.697 8  80679519.635 8  19370992.601    19370993.869    19370995.520
        49.000          49.000
 123158700.05046  95967835.77845  23436321.172    23436321.226    23436323.949
        40.000          35.000
 121678689.53046  94814579.79046  23154680.951    23154681.118    23154686.917
        41.000          38.000
 109626094.36947  85422939.17546  20861149.386    20861149.007    20861152.169
        47.000          38.000
 109596613.55847  85399951.88846  20855530.676    20855530.677    20855534.626
        46.000          38.000
 119710080.60647  93280599.32145  22780064.481    22780063.644    22780066.221
        43.000          31.000
 110776230.34347  86319146.46148  21080012.290    21080012.090    21080018.431
        47.000          49.000
 20  5  2  0 22 30.0000000  0 11R 7G 3G14R 1R 8G31G 9G16G 4G22G26
 119339236.722 7  92819385.697 6  22293563.291    22293563.524    22293567.872
        44.000          40.000
 111837333.45048  87145985.93648  21281933.328    21281934.138    21281939.645
        48.000          49.000
 129401681.91745                  24624317.870
        32.000
 107650836.778 8  83728452.400 6  20138313.514    20138324.868    20138331.906
        49.000          40.000
 103833153.484 8  80759106.352 8  19390101.092    19390102.327    19390104.111
        49.000          49.000
 123326940.17246  96098931.94345  23468336.272    23468336.022    23468339.136
        40.000          34.000
 121664920.44646  94803850.64846  23152060.668    23152060.499    23152066.435
        40.000          38.000
 109648589.78447  85440468.05946  20865430.293    20865429.842    20865432.994
        47.000          39.000
 109626237.71947  85423035.65146  20861167.931    20861167.959    20861172.042
        47.000          39.000
 119875679.72347  93409637.58145  22811576.932    22811576.184    22811578.142
        44.000          31.000
 110880572.62648  86400452.13348  21099868.187    21099868.069    21099874.209
        48.000          49.000
 20  5  2  0 23  0.0000000  0 11R 7G 3G14R 1R 8G31G 9G16G 4G22G26
 119528902.022 7  92966903.124 6  22328994.870    22328994.286    22328998.583
        44.000          40.000
 111972171.59348  87251054.60048  21307592.381    21307592.939    21307598.580
        48.000          49.000
 129563016.54145                  24655019.864
        32.000
 107654079.373 8  83730974.426 6  20138919.652    20138931.331    20138938.364
        49.000          40.000
 103936155.686 8  80839219.164 8  19409336.204    19409337.383    19409339.059
        49.000          49.000
