     2.11           OBSERVATION DATA    G (GPS)             RINEX VERSION / TYPE
teqc  2008Oct2                          20220511 04:15:50UTCPGM / RUN BY / DATE
MSXP|IAx86-PII|bcc32 5.0|MSWin95->XP|486/DX+                COMMENT
BIT 2 OF LLI FLAGS DATA COLLECTED UNDER A/S CONDITION       COMMENT
NtRSkaza                                                    MARKER NAME
kaza                                                        MARKER NUMBER
-Unknown-           -Unknown-                               OBSERVER / AGENCY
4752143407          TRIMBLE NETRS       NP 1.32 / SP 0.00   REC # / TYPE / VERS
30895097            TRM55971.00                             ANT # / TYPE
  1325807.4672  4606495.9092  4195524.6291                  APPROX POSITION XYZ
        0.1705        0.0000        0.0000                  ANTENNA: DELTA H/E/N
     1     1                                                WAVELENGTH FACT L1/2
     7    L1    L2    C1    P2    P1    S1    S2            # / TYPES OF OBSERV
 SNR is mapped to RINEX snr flag value [0-9]                COMMENT
  L1 & L2: min(max(int(snr_dBHz/6), 0), 9)                  COMMENT
  2020     5     4     0     0    0.0000000     GPS         TIME OF FIRST OBS
                                                            END OF HEADER
 20  5  4  0  0  0.0000000  0  9G16G 6G 9G 4G22G31G 3G26G14
 -20000704.23747 -15864749.95946  21067932.8284   21067924.5554
        46.5004         37.2504
   -935827.87546   -730469.02445  25154232.5084   25154227.1484
        37.2504         30.2504
  -9567050.89646  -7431070.20846  23586305.7504   23586301.2544
        40.5004         37.5004
 -23406744.99547 -18214146.95346  21080233.1334   21080226.2934
        46.5004         36.5004
 -18728863.98547 -14583248.80545  22156840.4774   22156830.3324
        47.5004         35.5004
 -10601313.31147  -8137329.33446  23011396.7114   23011388.0984
        45.0004         40.5004
 -23865391.17748 -18580706.27448  20849924.9774   20849919.8444
        49.0004         51.7504
 -20428849.32148 -15883156.13148  20951934.2194   20951929.5664
        49.0004         50.0004
  -5577271.58746  -4172475.00543  24115048.7584   24115041.7974
        37.0004         21.2504
 20  5  4  0  0 30.0000000  0  9G16G 6G 9G 4G22G31G 3G26G14
 -20066526.19547 -15916039.79946  21055407.2114   21055399.3634
        47.2504         37.5004
   -939657.49346   -733453.15644  25153503.3834   25153498.1294
        37.5004         29.7504
  -9657079.33746  -7501222.23446  23569174.7274   23569170.2424
        41.0004         39.0004
 -23459402.39947 -18255178.70546  21070212.7114   21070205.6484
        46.7504         36.7504
 -18648683.91447 -14520770.83245  22172097.9224   22172087.9414
        47.5004         34.7504
 -10509821.75047  -8066037.23446  23028806.3364   23028798.4654
        43.7504         40.2504
 -23823751.73548 -18548259.95648  20857848.7344   20857843.7974
        48.2504         51.7504
 -20412937.90348 -15870757.62548  20954962.2734   20954957.8714
        48.2504         50.2504
  -5497292.45646  -4110153.60743  24130268.0634   24130260.8834
        40.0004         21.7504
 20  5  4  0  1  0.0000000  0  9G16G 6G 9G 4G22G31G 3G26G14
 -20131793.06447 -15966897.09946  21042987.1334   21042979.4804
        46.7504         37.5004
   -942961.26746   -736027.55645  25152874.9774   25152870.0944
        37.0004         30.5004
  -9747052.52246  -7571331.20146  23552053.3674   23552048.5784
        41.2504         39.5004
 -23511821.37447 -18296024.66046  21060237.5474   21060231.0434
        46.0004         37.0004
 -18568157.57147 -14458023.05045  22187421.7034   22187411.4264
        46.7504         35.2504
 -10418252.95147  -7994684.97946  23046231.0164   23046223.2814
        43.7504         40.0004
 -23781555.48248 -18515379.77848  20865878.4304   20865873.5474
        48.2504         51.7504
 -20396420.10348 -15857886.62248  20958104.8444   20958100.6024
        48.5004         50.2504
  -5417165.82546  -4047717.30043  24145516.2814   24145508.8404
        40.5004         21.5004
 20  5  4  0  1 30.0000000  0  9G16G 6G 9G 4G22G31G 3G26G14
 -20196501.81847 -16017319.52046  21030673.6954   21030665.8794
        47.5004         37.5004
   -945738.98946   -738192.03745  25152346.5554   25152341.8164
        37.2504         30.0004
  -9836968.60946  -7641395.65946  23534943.6644   23534938.1954
        41.2504         40.2504
 -23563999.82847 -18336683.19346  21050308.6094   21050301.3244
        46.5004         36.5004
 -18487287.10147 -14395007.10745  22202810.9224   22202801.0204
        47.0004         34.7504
 -10326607.83147  -7923273.24246  23063671.7974   23063663.3324
        44.0004         40.7504
 -23738802.95448 -18482066.13048  20874013.5164   20874009.0044
        48.5004         51.7504
 -20379295.98548 -15844543.16548  20961363.9694   20961359.4104
        48.7504         50.5004
  -5336891.25246  -3985165.76943  24160791.9144   24160784.5944
        39.0004         19.7504
 20  5  4  0  2  0.0000000  0  9G16G 6G 9G 4G22G31G 3G26G14
 -20260650.10147 -16067305.19646  21018466.8134   21018458.8874
        47.2504         37.2504
   -947991.10046   -739946.95445  25151917.9694   25151913.3204
        37.2504         31.0004
  -9926826.70246  -7711414.94946  23517843.7194   23517838.8444
        41.7504         39.7504
 -23615936.69147 -18377153.48546  21040424.7734   21040418.3364
        47.2504         37.0004
 -18406074.53247 -14331724.59745  22218265.2034   22218255.3324
        46.5004         34.5004
 -10234888.03447  -7851803.31446  23081125.0864   23081117.2544
        45.0004         40.7504
 -23695495.63148 -18448320.17248  20882255.0004   20882250.0634
        48.7504         51.5004
 -20361566.54548 -15830728.03048  20964737.8834   20964733.3444
        48.7504         50.2504
  -5256469.50646  -3922499.52243  24176094.0394   24176088.9844
        37.0004         19.7504
 20  5  4  0  2 30.0000000  0  9G16G 6G 9G 4G22G31G 3G26G14
 -20324236.14847 -16116852.76846  21006366.6804   21006358.3914
        47.0004         36.5004
   -949718.61546   -741293.09045  25151588.5084   25151584.1564
        36.7504         30.7504
 -10016626.01346  -7781388.43546  23500755.5164   23500750.0204
        41.2504         39.0004
 -23667631.07647 -18417434.82246  21030588.1334   21030580.9774
        46.5004         36.5004
 -18324522.81047 -14268177.81045  22233783.9774   22233774.3484
        46.5004         35.5004
 -10143095.29547  -7780276.54646  23098592.5314   23098584.8364
        44.0004         40.5004
 -23651635.37748 -18414143.36348  20890601.3524   20890596.1804
        49.5004         51.5004
 -20343233.18148 -15816442.29948  20968226.6804   20968222.3134
        48.0004         50.2504
  -5175901.34546  -3859719.23743  24191427.0314   24191420.4264
        38.7504         20.0004
 20  5  4  0  3  0.0000000  0  9G16G 6G 9G 4G22G31G 3G26G14
 -20387257.41247 -16165960.26046  20994374.2504   20994366.1094
        46.7504         37.5004
   -950921.87946   -742230.73845  25151360.0554   25151356.2274
        38.0004         32.5004
 -10106365.35046  -7851315.16746  23483678.5944   23483673.1334
        41.2504         39.0004
 -23719081.53047 -18457526.08446  21020797.0704   21020790.3834
        47.0004         36.5004
 -18242634.28547 -14204368.58545  22249366.9534   22249357.3674
        46.0004         35.2504
 -10051231.44147  -7708694.38046  23116073.8524   23116066.1414
        43.5004         40.5004
 -23607223.32048 -18379536.57648  20899052.4384   20899047.9844
        49.2504         51.5004
 -20324296.63848 -15801686.56248  20971830.3444   20971825.3204
        48.0004         50.2504
  -5095186.96046  -3796825.01443  24206786.4774   24206780.0594
        38.5004         20.0004
 20  5  4  0  3 30.0000000  0  9G16G 6G 9G 4G22G31G 3G26G14
 -20449711.26147 -16214625.60746  20982489.8754   20982481.1994
        46.2504         36.5004
   -951601.24346   -742760.17345  25151230.3134   25151227.2034
        36.5004         31.7504
 -10196043.46546  -7921194.20746  23466612.8984   23466607.9614
        40.7504         38.7504
 -23770286.65547 -18497426.17046  21011053.1024   21011046.3914
        46.5004         37.5004
 -18160411.06447 -14140298.56645  22265013.3204   22265003.5124
        46.0004         35.5004
  -9959297.82647  -7637057.85446  23133568.7814   23133560.9024
        44.5004         40.7504
 -23562260.82548 -18344500.88648  20907609.3914   20907603.9884
        48.5004         51.5004
 -20304757.73248 -15786461.44248  20975548.2034   20975543.5634
        48.5004         50.2504
  -5014326.65746  -3733817.04143  24222173.7584   24222167.4304
        39.5004         20.7504
 20  5  4  0  4  0.0000000  0  9G16G 6G 9G 4G22G31G 3G26G14
 -20511596.08047 -16262847.56046  20970713.1174   20970705.3014
        47.0004         37.2504
   -951757.37546   -742881.83945  25151200.2114   25151197.0784
        36.0004         30.7504
 -10285659.23446  -7991024.67346  23449559.7424   23449554.6214
        41.0004         38.5004
 -23821245.20947 -18537134.13446  21001356.0944   21001349.7774
        46.5004         36.7504
 -18077855.48347 -14075969.54745  22280723.1174   22280713.7664
        46.0004         35.0004
  -9867295.97147  -7565368.13746  23151075.1174   23151067.8914
        43.7504         40.0004
 -23516749.29648 -18309037.36848  20916269.1334   20916264.2624
        49.2504         51.2504
 -20284617.50048 -15770767.76648  20979380.6954   20979376.3014
        48.0004         50.2504
  -4933320.53246  -3670695.45543  24237588.8524   24237582.3754
        39.5004         22.0004
 20  5  4  0  4 30.0000000  0  9G16G 6G 9G 4G22G31G 3G26G14
 -20572909.12747 -16310623.97146  20959045.7194   20959037.6214
        47.0004         37.5004
   -951390.70346   -742596.17145  25151271.7504   25151266.7424
        37.2504         31.0004
 -10375211.48246  -8060805.65846  23432518.0394   23432513.6094
        40.2504         39.5004
 -23871955.83447 -18576648.90646  20991705.6024   20991699.6844
        47.0004         37.5004
 -17994969.91447 -14011383.41845  22296495.6644   22296485.9344
        47.0004         34.7504
  -9775227.33647  -7493626.40746  23168596.2734   23168587.9494
        44.0004         40.5004
 -23470690.23748 -18273147.19648  20925033.8284   20925028.9614
        49.0004         51.0004
 -20263876.90548 -15754606.27348  20983327.6954   20983323.2234
        48.5004         50.0004
  -4852169.21046  -3607460.70443  24253031.6024   24253025.4144
        39.2504         20.5004
 20  5  4  0  5  0.0000000  0  9G16G 6G 9G 4G22G31G 3G26G14
 -20633647.68547 -16357952.72546  20947487.7424   20947479.6764
        46.7504         37.5004
   -950501.55845   -741903.35345  25151440.3444   25151435.7384
        35.0004         30.7504
 -10464698.65546  -8130535.89646  23415490.0234   23415484.7624
        41.5004         39.2504
 -23922416.85747 -18615969.18146  20982103.6644   20982097.6454
        46.7504         37.5004
 -17911756.44247 -13946541.76845  22312330.9844   22312320.9024
        45.5004         35.0004
  -9683093.03747  -7421833.47746  23186128.5554   23186120.0984
        43.2504         39.5004
 -23424084.69348 -18236831.21048  20933902.8754   20933897.8674
        49.0004         51.5004
 -20242536.63448 -15737977.50148  20987388.5474   20987384.1374
        48.5004         50.2504
  -4770872.96546  -3544113.05743  24268501.5314   24268495.0474
        37.5004         19.5004
 20  5  4  0  5 30.0000000  0  9G16G 6G 9G 4G22G31G 3G26G14
 -20693809.95447 -16404832.42246  20936039.1954   20936031.3364
        47.2504         37.7504
   -949090.75446   -740804.04545  25151708.1564   25151704.1294
        36.2504         31.5004
 -10554119.86946  -8200214.76546  23398473.1024   23398468.4024
        41.7504         40.0004
 -23972627.20247 -18655094.11846  20972549.3134   20972542.3524
        47.0004         37.5004
 -17828217.68747 -13881446.64745  22328227.7344   22328217.7624
        46.0004         33.7504
  -9590894.82347  -7349990.75346  23203672.8674   23203665.2074
        43.0004         39.5004
 -23376934.38848 -18200090.72548  20942875.2424   20942870.1914
        48.7504         51.2504
 -20220597.92248 -15720882.40648  20991563.3984   20991558.6524
        48.0004         50.2504
  -4689431.87046  -3480652.55342  24283999.2734   24283992.1764
        38.0004         17.2504
 20  5  4  0  6  0.0000000  0  9G16G 6G 9G 4G22G31G 3G26G14
 -20753393.33247 -16451261.03446  20924700.6484   20924692.7074
        47.2504         37.2504
   -947158.49946   -739298.40645  25152076.1334   25152071.9344
        37.0004         32.0004
 -10643473.54047  -8269840.96046  23381470.6884   23381465.0044
        43.0004         40.0004
 -24022585.13347 -18694022.37746  20963042.4304   20963036.1564
        46.7504         37.5004
 -17744355.47147 -13816099.47345  22344185.8134   22344176.2584
        45.7504         33.0004
  -9498633.76447  -7278099.05846  23221229.4924   23221221.4964
        43.0004         39.5004
 -23329240.41548 -18162926.59848  20951951.4924   20951946.1094
        49.2504         51.2504
 -20198061.42848 -15703321.51548  20995852.1254   20995847.6684
        48.7504         50.2504
  -4607846.09245  -3417079.25043  24299523.8914   24299518.3914
        35.5004         18.2504
 20  5  4  0  6 30.0000000  0  9G16G 6G 9G 4G22G31G 3G26G14
 -20812396.26147 -16497237.35846  20913473.1334   20913465.2464
        47.2504         38.0004
   -944705.99646   -737387.38745  25152543.2344   25152538.4884
        36.2504         31.7504
 -10732759.01047  -8339414.04346  23364479.8594   23364474.4264
        42.0004         40.0004
 -24072289.88047 -18732753.35146  20953583.6644   20953577.3484
        46.7504         38.0004
 -17660172.93347 -13750502.71245  22360205.7894   22360195.6604
        45.7504         33.7504
  -9406311.88647  -7206159.99246  23238798.2814   23238790.3244
        44.0004         40.0004
 -23281004.86748 -18125340.47148  20961129.9694   20961124.9964
        48.2504         51.2504
 -20174928.78548 -15685296.09248  21000253.8594   21000249.6174
        48.2504         50.2504
  -4526116.76346  -3353394.19643  24315078.5634   24315070.0314
        37.5004         19.2504
 20  5  4  0  7  0.0000000  0  9G16G 6G 9G 4G22G31G 3G26G14
 -20870816.44147 -16542759.57946  20902356.5164   20902348.2344
        47.5004         37.5004
   -941733.71346   -735071.36045  25153108.7194   25153104.9614
        37.5004         33.0004
 -10821974.81447  -8408932.83946  23347502.4774   23347496.7544
        42.0004         39.2504
 -24121739.89247 -18771285.82946  20944173.9224   20944167.4574
        46.2504         37.7504
 -17575672.29247 -13684658.06645  22376285.7504   22376275.5354
        45.5004         33.7504
  -9313930.35147  -7134174.42846  23256377.6804   23256370.1094
        43.5004         40.0004
 -23232229.04148 -18087333.35048  20970411.6954   20970406.9654
        48.5004         51.0004
 -20151200.89448 -15666806.83048  21004769.3444   21004764.8714
        48.5004         50.2504
  -4444243.91046  -3289597.22943  24330657.9304   24330651.8164
        38.5004         19.0004
 20  5  4  0  7 30.0000000  0  9G16G 6G 9G 4G22G31G 3G26G14
 -20928651.27747 -16587825.69546  20891350.0164   20891342.1334
        47.5004         37.7504
   -938242.05646   -732350.59845  25153773.7034   25153768.8444
        37.5004         32.5004
 -10911119.59346  -8478396.30346  23330538.9304   23330533.1484
        41.5004         39.5004
 -24170933.54447 -18809618.54446  20934812.6254   20934805.7774
        47.2504         37.2504
 -17490855.59647 -13618567.13645  22392425.7894   22392415.5514
        45.5004         34.0004
  -9221490.36947  -7062143.33046  23273968.1724   23273960.8834
        42.7504         39.2504
 -23182914.22848 -18048906.23648  20979795.9144   20979790.9064
        48.5004         51.0004
 -20126878.58948 -15647854.39648  21009397.7504   21009393.1644
        48.5004         50.5004
  -4362227.73046  -3225688.53743  24346264.6414   24346259.1024
        38.2504         22.0004
 20  5  4  0  8  0.0000000  0  9G16G 6G 9G 4G22G31G 3G26G14
 -20985898.98347 -16632434.30246  20880456.9144   20880448.7894
        47.0004         37.5004
   -934232.16346   -729226.03145  25154536.0474   25154532.0944
        37.5004         32.5004
 -11000192.45346  -8547803.74046  23313588.8524   23313583.2384
        41.0004         40.0004
 -24219869.96247 -18847750.82746  20925500.4924   20925493.3094
        46.7504         37.5004
 -17405725.57147 -13552232.06545  22408625.3134   22408615.6374
        45.7504         33.7504
  -9128993.76847  -6990068.11146  23291569.0944   23291562.8954
        42.5004         40.0004
 -23133062.47948 -18010060.73648  20989282.8524   20989277.8134
        48.2504         51.0004
 -20101963.50947 -15628440.05548  21014138.8754   21014134.7034
        47.5004         50.5004
  -4280068.88146  -3161668.72443  24361898.1564   24361892.9104
        36.0004         20.2504
 20  5  4  0  8 30.0000000  0  9G16G 6G 9G 4G22G31G 3G26G14
 -21042556.70247 -16676583.19146  20869674.7114   20869666.9224
        46.5004         37.5004
   -929704.02146   -725697.62545  25155397.7504   25155393.8094
        37.0004         31.7504
 -11089191.44446  -8617153.60846  23296651.8594   23296647.3364
        41.2504         40.0004
 -24268547.00647 -18885680.99346  20916237.7274   20916230.5084
        46.5004         37.5004
 -17320284.27847 -13485654.45245  22424884.4534   22424874.4184
        45.2504         33.5004
  -9036441.31447  -6917949.37846  23309181.9924   23309174.5394
        42.7504         40.0004
 -23082674.56448 -17970797.43548  20998871.3984   20998865.8874
        48.5004         51.0004
 -20076455.95747 -15608564.05948  21018993.0164   21018988.7584
        47.5004         50.5004
  -4197767.13946  -3097537.63843  24377560.1174   24377554.5704
        37.0004         19.7504
 20  5  4  0  9  0.0000000  0  9G16G 6G 9G 4G22G31G 3G26G14
 -21098622.69747 -16720270.98146  20859005.7114   20858997.7774
        47.0004         38.0004
   -924658.58145   -721766.12345  25156357.8914   25156353.8834
        35.7504         31.2504
 -11178115.55546  -8686445.11646  23279730.9534   23279726.2384
        41.0004         40.2504
 -24316963.57347 -18923408.20046  20907023.7974   20907017.5354
        46.7504         37.2504
 -17234534.15247 -13418836.18845  22441202.1174   22441192.4494
        45.2504         35.0004
  -8943834.68847  -6845788.40946  23326804.1804   23326797.1254
        42.7504         39.5004
 -23031752.37048 -17931117.81648  21008561.2504   21008556.4654
        49.0004         51.0004
 -20050357.42448 -15588227.54648  21023959.7194   21023955.0354
        48.0004         50.2504
  -4115323.15846  -3033295.58243  24393248.5864   24393243.2034
        37.5004         19.5004
 20  5  4  0  9 30.0000000  0  9G16G 6G 9G 4G22G31G 3G26G14
 -21154094.82347 -16763496.02946  20848449.8594   20848441.8204
        46.5004         37.5004
   -919096.73045   -717432.23945  25157416.2734   25157412.2034
        35.7504         31.0004
 -11266963.53346  -8755677.28046  23262823.8914   23262818.7734
        41.2504         40.0004
 -24365118.27647 -18960931.35046  20897860.2034   20897853.5434
        46.0004         37.0004
 -17148477.38547 -13351779.00845  22457578.2034   22457568.6994
        46.0004         34.5004
  -8851175.28347  -6773586.34746  23344437.4304   23344429.8404
        43.0004         39.0004
 -22980297.49248 -17891023.12748  21018352.8054   21018347.7664
        48.7504         50.7504
 -20023669.10047 -15567431.45848  21029037.7034   21029033.5744
        47.7504         50.2504
  -4032737.15345  -2968942.94543  24408964.0944   24408959.1134
        35.5004         19.2504
 20  5  4  0 10  0.0000000  0  9G16G 6G 9G 4G22G31G 3G26G14
 -21208970.86447 -16806256.59146  20838006.7974   20837999.5044
        46.5004         37.5004
   -913018.84046   -712696.25245  25158572.8834   25158568.7274
        37.5004         30.0004
 -11355733.86846  -8824848.96846  23245930.7894   23245926.7894
        41.0004         40.5004
 -24413009.52747 -18998249.20246  20888747.2344   20888740.5944
        47.5004         37.2504
 -17062116.69347 -13284484.97145  22474012.1644   22474002.2774
        45.5004         34.2504
  -8758464.42447  -6701344.15646  23362079.3674   23362072.3094
        43.5004         39.0004
 -22928311.36048 -17850514.46948  21028245.1564   21028240.5554
        48.0004         50.7504
 -19996391.99248 -15546176.57648  21034228.7194   21034223.9774
        48.0004         50.2504
  -3950009.33046  -2904479.81243  24424707.5234   24424700.9024
        38.2504         18.5004
 20  5  4  0 10 30.0000000  0  9G16G 6G 9G 4G22G31G 3G26G14
 -21263250.05347 -16848552.06546  20827678.3594   20827670.5704
        47.2504         38.0004
   -906426.93846   -707559.71245  25159827.5164   25159823.4924
        37.5004         31.0004
 -11444426.33646  -8893959.97846  23229053.0394   23229048.3484
        41.5004         40.5004
 -24460636.97247 -19035361.49746  20879683.4304   20879677.2934
        47.0004         36.7504
 -16975455.04047 -13216956.44045  22490502.7504   22490493.3674
        45.0004         33.0004
  -8665704.13847  -6629063.45946  23379731.4614   23379723.6414
        43.0004         38.7504
 -22875796.69648 -17809593.96048  21038238.5554   21038233.8284
        48.2504         50.7504
 -19968528.31747 -15524464.63048  21039530.6334   21039525.9494
        47.0004         50.0004
  -3867141.27946  -2839907.35643  24440476.9774   24440470.6524
        39.5004         19.5004
 20  5  4  0 11  0.0000000  0  9G16G 6G 9G 4G22G31G 3G26G14
 -21316929.47047 -16890380.19246  20817463.5944   20817455.7734
        47.7504         38.2504
   -899320.72246   -702022.42745  25161180.5704   25161175.5554
        38.0004         31.2504
 -11533038.66247  -8963008.54046  23212191.7194   23212186.1134
        42.0004         41.0004
 -24507998.24947 -19072266.39546  20870671.1884   20870664.7504
        47.2504         37.2504
 -16888494.01447 -13149194.61345  22507051.5164   22507041.0594
        45.2504         33.2504
  -8572894.89047  -6556744.60746  23397392.2814   23397384.9104
        43.0004         38.7504
 -22822754.14848 -17768262.12048  21048332.1024   21048327.4414
        48.5004         51.0004
 -19940078.41747 -15502295.88348  21044944.5554   21044940.3714
        47.2504         50.0004
  -3784132.36046  -2775225.10043  24456273.0704   24456266.4804
        36.5004         18.5004
 20  5  4  0 11 30.0000000  0  9G16G 6G 9G 4G22G31G 3G26G14
 -21370007.10047 -16931739.38946  20807363.2814   20807355.3134
        47.7504         38.0004
   -891701.34046   -696085.28345  25162630.4064   25162625.6374
        38.5004         31.5004
 -11621569.78746  -9031993.82946  23195344.3054   23195339.0704
        41.7504         40.5004
 -24555092.20747 -19108962.99046  20861709.7114   20861703.3984
        47.0004         37.5004
 -16801236.44347 -13081201.72545  22523655.5554   22523645.9384
        45.2504         34.0004
  -8480038.21547  -6484388.81946  23415062.6094   23415055.1254
        42.7504         39.0004
 -22769185.69948 -17726520.48748  21058526.4454   21058521.1724
        48.2504         50.7504
 -19911043.79247 -15479671.51248  21050469.4614   21050465.1764
        47.0004         50.0004
  -3700983.18246  -2710433.69443  24472095.1724   24472090.6134
        37.2504         20.5004
 20  5  4  0 12  0.0000000  0  9G16G 6G 9G 4G22G31G 3G26G14
 -21422480.87048 -16972628.04846  20797377.9614   20797369.9264
        48.5004         38.0004
   -883569.56246   -689748.85045  25164177.9454   25164173.1484
        39.5004         30.5004
 -11710018.26847  -9100914.71846  23178513.2974   23178508.7624
        42.0004         41.0004
 -24601917.38847 -19145450.14746  20852798.9384   20852792.4774
        47.5004         37.2504
 -16713684.38847 -13012979.35245  22540316.7734   22540306.5084
        45.2504         33.5004
  -8387135.63847  -6411997.24646  23432741.7664   23432734.2194
        42.7504         39.2504
 -22715092.93647 -17684370.29748  21068819.6334   21068814.8364
        47.5004         50.7504
 -19881425.65047 -15456592.44648  21056105.5944   21056101.1604
        47.2504         50.0004
  -3617694.35546  -2645533.39743  24487945.5084   24487939.3134
        38.5004         20.2504
 20  5  4  0 12 30.0000000  0  9G16G 6G 9G 4G22G31G 3G26G14
 -21474348.49648 -17013044.38146  20787507.7734   20787500.0744
        48.2504         38.2504
   -874925.90245   -683013.52145  25165820.9694   25165817.2854
        35.5004         31.0004
 -11798382.47747  -9169769.92546  23161698.7664   23161693.1914
        42.5004         40.7504
 -24648471.98047 -19181726.45546  20843940.6484   20843933.4804
        47.5004         38.0004
 -16625840.43547 -12944529.53345  22557032.4384   22557022.4924
        45.0004         32.5004
  -8294188.08647  -6339570.64146  23450429.1954   23450421.2234
        42.7504         38.7504
 -22660477.19947 -17641812.58848  21079212.3364   21079207.6294
        47.0004         50.5004
 -19851224.94347 -15433059.43648  21061852.6644   21061848.2734
        47.5004         50.0004
  -3534265.65945  -2580523.92342  24503820.6564   24503815.0124
        33.7504         16.7504
 20  5  4  0 13  0.0000000  0  9G16G 6G 9G 4G22G31G 3G26G14
 -21525607.87347 -17052986.76746  20777753.5004   20777745.4384
        47.5004         38.0004
   -865771.27946   -675880.01945  25167564.0084   25167559.4964
        36.7504         31.5004
 -11886661.01247  -9238558.37046  23144899.5004   23144894.3634
        42.2504         41.2504
 -24694754.56647 -19217790.80946  20835132.6724   20835125.8754
        47.5004         37.5004
 -16537706.94947 -12875854.10745  22573803.9304   22573793.9384
        45.0004         33.5004
  -8201196.85647  -6267109.98146  23468124.4844   23468116.8594
        42.0004         38.0004
 -22605340.22347 -17598848.73148  21089704.8674   21089700.4494
        47.5004         50.5004
 -19820442.96847 -15409073.48448  21067710.1254   21067705.9654
        47.2504         49.7504
  -3450697.37045  -2515405.96942  24519723.6884   24519718.9574
        35.7504         17.2504
 20  5  4  0 13 30.0000000  0  9G16G 6G 9G 4G22G31G 3G26G14
 -21576258.19347 -17092454.54746  20768114.9924   20768107.3134
        47.2504         38.0004
   -856107.22446   -668349.59445  25169402.4304   25169398.4104
        36.0004         31.0004
 -11974853.31947  -9307279.64646  23128117.8364   23128111.3594
        42.5004         41.0004
 -24740764.50147 -19253642.71446  20826377.6334   20826370.8834
        47.7504         38.0004
 -16449286.91447 -12806955.39645  22590629.7344   22590619.8284
        45.0004         32.5004
  -8108163.69947  -6194616.65746  23485827.8754   23485820.4694
        42.5004         38.2504
 -22549684.55147 -17555480.68848  21100295.7814   21100291.0434
        47.5004         50.5004
 -19789081.88547 -15384636.28848  21073678.2814   21073673.4654
        47.5004         49.7504
  -3366990.99046  -2450180.30643  24535653.0704   24535646.7584
        38.5004         20.2504
 20  5  4  0 14  0.0000000  0  9G16G 6G 9G 4G22G31G 3G26G14
 -21626298.19347 -17131446.76246  20758592.5234   20758584.5944
        47.5004         38.2504
   -845935.47446   -660423.53445  25171337.9064   25171333.9104
        37.7504         31.5004
 -12062958.54947  -9375933.09746  23111350.1954   23111345.5314
        42.5004         40.5004
 -24786500.91548 -19289281.48046  20817674.1484   20817667.5634
        48.0004         39.0004
 -16360583.06747 -12737835.54245  22607509.5164   22607499.7624
        44.7504         33.2504
  -8015090.50847  -6122092.14346  23503538.7734   23503531.7114
        43.0004         38.2504
 -22493512.46947 -17511710.25048  21110984.8674   21110980.1724
        46.7504         50.5004
 -19757143.53647 -15359749.27148  21079755.8054   21079751.2154
        46.7504         49.7504
  -3283147.03745  -2384847.36543  24551607.1254   24551602.2624
        35.5004         19.5004
 20  5  4  0 14 30.0000000  0  9G16G 6G 9G 4G22G31G 3G26G14
 -21675724.10447 -17169960.45846  20749187.5084   20749179.4264
        47.7504         38.5004
   -835255.11246   -652101.17045  25173371.1804   25173366.3244
        36.0004         30.7504
 -12150973.80447  -9444516.40046  23094602.2504   23094596.9024
        42.0004         40.5004
 -24831960.75947 -19324704.73846  20809023.4774   20809016.8524
        47.2504         37.7504
 -16271596.55047 -12668495.41945  22624442.8524   22624433.1294
        45.2504         33.0004
  -7921977.17847  -6049536.34546  23521257.8754   23521250.5744
        42.2504         38.2504
 -22436824.17747 -17467537.57748  21121772.3914   21121768.0004
        47.2504         50.7504
 -19724627.76347 -15334412.31548  21085943.5394   21085939.3014
        47.0004         49.7504
  -3199164.457 6                  24567589.492
        37.000
 20  5  4  0 15  0.0000000  0 10G16G 6G 9G 4G22G31G 3G26G14G 7
 -21724534.77447 -17207994.75946  20739898.6024   20739890.7384
        46.7504         38.5004
   -824067.83646   -643383.83345  25175500.1644   25175495.5474
        37.5004         30.7504
 -12238898.15047  -9513028.85246  23077871.2584   23077865.2854
        42.0004         40.7504
 -24877143.16747 -19359911.81746  20800425.0784   20800419.2074
        46.2504         37.7504
 -16182330.40547 -12598937.40245  22641429.8444   22641420.1764
        44.5004         32.5004
  -7828825.36147  -5976950.57546  23538984.4694   23538976.4614
        43.0004         38.2504
 -22379622.00347 -17422964.47048  21132657.8674   21132653.0554
        47.0004         51.0004
 -19691536.50647 -15308626.93048  21092240.6254   21092236.2344
        47.5004         49.7504
  -3115044.37046  -2340859.44153  24583596.8674   24583591.1994
        37.0004         19.0004
    110473.40455     96891.61953  25460454.1484   25460446.7074
        32.5004         21.0004
 20  5  4  0 15 30.0000000  0 10G16G 6G 9G 4G22G31G 3G26G14G 7
 -21772730.42547 -17245549.80446  20730727.5164   20730720.0904
        47.0004         38.2504
   -812376.94946   -634274.03445  25177724.3984   25177720.4884
        37.5004         31.5004
 -12326732.60147  -9581471.25246  23061157.0704   23061151.5474
        42.2504         40.7504
 -24922049.01047 -19394903.38346  20791879.9924   20791873.4844
        45.5004         38.0004
 -16092789.18047 -12529165.04745  22658469.2734   22658459.0554
        44.5004         32.5004
  -7735638.57447  -5904337.53046  23556717.0704   23556710.0044
        42.2504         38.0004
 -22321910.12347 -17377994.20148  21143639.9844   21143635.3674
        47.0004         51.0004
 -19657873.49747 -15282396.02448  21098646.2664   21098641.9614
        47.5004         49.5004
  -3030789.38746  -2275206.24943  24599630.5704   24599623.7774
        37.7504         19.0004
     26581.16445     31521.03844  25444490.2664   25444482.5984
        34.0004         24.7504
 20  5  4  0 16  0.0000000  0 10G16G 6G 9G 4G22G31G 3G26G14G 7
 -21820306.03148 -17282621.70946  20721674.1484   20721666.5514
        48.2504         38.0004
   -800179.61446   -624769.61445  25180045.3984   25180040.7894
        36.2504         30.7504
 -12414471.90046  -9649839.53346  23044459.4844   23044454.9804
        41.5004         41.5004
 -24966673.04647 -19429675.36946  20783388.6804   20783381.8134
        47.0004         37.7504
 -16002971.58947 -12459177.33145  22675561.0554   22675550.9494
        45.0004         33.0004
  -7642414.30547  -5831695.29246  23574457.6254   23574449.2624
        43.0004         38.0004
 -22263686.51847 -17332625.17248  21154719.4534   21154714.7704
        47.5004         50.7504
 -19623636.36347 -15255717.73648  21105161.6724   21105157.0744
        46.7504         49.5004
  -2946396.14445  -2209445.42742  24615689.0634   24615684.4844
        34.7504         16.7504
    -57228.78845    -33785.42044  25428540.8914   25428533.9654
        35.2504         25.7504
 20  5  4  0 16 30.0000000  0 10G16G 6G 9G 4G22G31G 3G26G14G 7
 -21867260.99548 -17319209.99746  20712739.2194   20712731.0864
        48.5004         38.2504
   -787478.29046   -614872.48645  25182463.7974   25182458.1024
        38.0004         31.7504
 -12502116.13047  -9718133.72747  23027782.1724   23027776.6414
        42.2504         42.0004
 -25011015.32947 -19464227.79846  20774950.3834   20774943.6414
        46.5004         38.0004
 -15912882.03847 -12388977.69645  22692704.2894   22692694.6454
        45.0004         33.0004
  -7549155.52047  -5759026.15846  23592203.7274   23592196.7384
        42.5004         38.0004
 -22204954.54947 -17286860.01748  21165896.0864   21165890.8634
        47.5004         50.2504
 -19588828.08547 -15228594.41948  21111785.2504   21111780.6454
        47.2504         49.5004
  -2861866.50345  -2143578.32642  24631774.5234   24631769.8874
        33.2504         16.7504
   -140957.56246    -99028.63544  25412607.8204   25412600.7274
        37.0004         28.5004
 20  5  4  0 17  0.0000000  0 10G16G 6G 9G 4G22G31G 3G26G14G 7
 -21913593.87547 -17355313.54346  20703922.0944   20703914.0234
        47.5004         38.0004
   -774274.42546   -604583.75945  25184976.0784   25184970.6094
        37.7504         31.0004
 -12589664.05347  -9786352.87647  23011121.9534   23011117.0204
        42.2504         42.0004
 -25055074.56247 -19498559.67246  20766566.2814   20766559.8754
        46.2504         37.5004
 -15822522.97247 -12318568.04745  22709898.7034   22709889.0594
        45.0004         32.0004
  -7455863.50346  -5686331.14146  23609956.9534   23609949.1484
        41.7504         38.2504
 -22145716.26247 -17240700.32048  21177168.5394   21177163.5084
        47.0004         50.2504
 -19553450.33647 -15201027.34648  21118517.6334   21118513.0004
        47.0004         49.5004
  -2777201.40745  -2077605.57542  24647885.9384   24647882.1884
        35.5004         15.5004
   -224605.04146   -164208.49345  25396691.2894   25396683.3554
        38.0004         30.0004
 20  5  4  0 17 30.0000000  0 10G16G 6G 9G 4G22G31G 3G26G14G 7
 -21959303.30848 -17390931.29146  20695223.6884   20695215.9574
        48.5004         38.2504
   -760569.33146   -593904.47545  25187583.5784   25187578.2544
        36.5004         30.2504
 -12677114.63947  -9854496.17747  22994480.6414   22994476.2194
        42.0004         42.0004
 -25098849.73647 -19532670.19646  20758235.9304   20758229.0274
        47.0004         37.5004
 -15731897.22647 -12247950.61245  22727144.1884   22727134.8404
        44.7504         32.2504
  -7362539.88047  -5613611.48946  23627715.6334   23627708.7194
        42.0004         38.2504
 -22085973.94947 -17194147.88848  21188537.3754   21188532.0394
        47.0004         50.0004
 -19517504.96747 -15173017.97948  21125357.4774   21125353.2274
        47.0004         49.5004
  -2692401.60646  -2011527.79643  24664023.8674   24664017.6564
        37.0004         18.2504
   -308171.69846   -229325.36945  25380788.3284   25380780.9454
        38.2504         31.2504
 20  5  4  0 18  0.0000000  0 10G16G 6G 9G 4G22G31G 3G26G14G 7
 -22004386.98647 -17426061.43746  20686644.6484   20686636.6954
        47.7504         38.0004
   -746363.44146   -582834.94545  25190285.9384   25190282.0394
        37.0004         30.5004
 -12764465.79646  -9922561.99346  22977857.9844   22977853.1844
        41.7504         41.2504
 -25142338.60147 -19566557.63046  20749960.5474   20749954.0594
        47.0004         37.2504
 -15641006.34647 -12177126.58245  22744440.0864   22744430.8444
        45.0004         32.2504
  -7269184.82347  -5540867.33746  23645481.0864   23645473.3714
        42.2504         37.7504
 -22025728.76547 -17147203.60348  21200001.5084   21199996.4024
        46.5004         50.0004
 -19480992.79048 -15144566.93948  21132305.9614   21132301.3284
        48.0004         49.7504
  -2607466.31045  -1945344.54742  24680185.1564   24680180.5204
        33.2504         16.7504
   -391655.71146   -294377.84345  25364901.8914   25364894.7154
        37.5004         30.5004
 20  5  4  0 18 30.0000000  0 10G16G 6G 9G 4G22G31G 3G26G14G 7
 -22048843.99748 -17460703.26646  20678185.0234   20678176.7504
        48.2504         38.0004
   -731658.66546   -571376.72745  25193084.8054   25193080.7704
        36.0004         30.0004
 -12851716.93947  -9990549.88447  22961255.9844   22961249.4494
        42.5004         42.0004
 -25185540.72947 -19600221.63146  20741739.5634   20741732.7234
        47.0004         38.2504
 -15549853.84447 -12106098.67845  22761786.0554   22761776.2974
        44.5004         33.0004
  -7175800.45246  -5468100.35446  23663251.3754   23663244.1174
        41.7504         37.7504
 -21964983.63847 -17099869.76048  21211560.8364   21211556.0704
        47.0004         50.0004
 -19443916.30548 -15115676.17248  21139361.0394   21139356.7814
        48.0004         49.5004
  -2522396.86345  -1879056.83942  24696374.2504   24696369.1524
        35.5004         15.5004
   -475057.90646   -359366.56845  25349030.8364   25349023.6804
        36.7504         30.2504
 20  5  4  0 19  0.0000000  0 10G16G 6G 9G 4G22G31G 3G26G14G 7
 -22092672.09648 -17494855.04046  20669844.5864   20669836.6914
        48.2504         38.0004
   -716455.79646   -559530.35345  25195977.2584   25195973.3244
        36.5004         30.2504
 -12938866.10747 -10058458.32646  22944672.1414   22944665.6764
        43.0004         41.5004
 -25228454.10547 -19633660.63246  20733573.0234   20733566.3554
        46.2504         38.2504
 -15458441.85547 -12034868.58745  22779181.1724   22779171.8244
        45.2504         31.7504
  -7082387.80646  -5395311.34446  23681027.0474   23681020.0274
        41.7504         38.2504
 -21903739.88247 -17052147.37048  21223214.9224   21223209.9844
        47.5004         50.0004
 -19406276.50548 -15086346.46848  21146523.6564   21146519.1604
        48.2504         49.5004
  -2437193.67646  -1812664.81442  24712588.4694   24712582.9774
        37.0004         15.5004
   -558377.63445   -424291.00844  25333175.1024   25333168.7194
        35.5004         29.0004
 20  5  4  0 19 30.0000000  0 10G16G 6G 9G 4G22G31G 3G26G14G 7
 -22135870.39448 -17528516.05646  20661624.4774   20661616.0044
        48.2504         38.5004
   -700756.26845   -547296.96644  25198964.0864   25198960.9804
        35.2504         29.5004
 -13025912.17247 -10126286.42047  22928107.6954   22928101.3404
        43.2504         42.0004
 -25271077.63147 -19666873.77446  20725462.3984   20725455.4774
        47.2504         38.5004
 -15366773.19247 -11963438.46845  22796624.9064   22796615.3054
        45.0004         31.0004
  -6988948.29846  -5322501.39746  23698807.5004   23698800.9454
        41.2504         37.2504
 -21841999.86947 -17004038.28448  21234963.5004   21234959.2774
        47.0004         50.0004
 -19368075.37447 -15056579.36548  21153793.2814   21153788.6294
        47.2504         49.2504
  -2351857.57146  -1746169.20442  24728827.1094   24728821.2894
        39.0004         15.5004
   -641614.20046   -489150.66644  25317336.2894   25317329.3484
        36.5004         28.0004
 20  5  4  0 20  0.0000000  0 10G16G 6G 9G 4G22G31G 3G26G14G 7
 -22178436.68648 -17561684.60046  20653524.3834   20653516.3554
        48.5004         38.2504
   -684560.85546   -534677.19845  25202047.9774   25202043.2114
        37.5004         31.7504
 -13112853.33347 -10194032.77047  22911563.2504   22911556.6454
        43.0004         42.0004
 -25313409.45547 -19699859.62346  20717406.8284   20717400.0164
        47.5004         38.5004
 -15274850.12447 -11891810.12845  22814117.6094   22814107.8204
        44.2504         31.5004
  -6895482.72646  -5249671.13146  23716593.6564   23716586.9064
        41.5004         38.5004
 -21779765.16747 -16955543.73448  21246806.7034   21246802.0864
        47.5004         50.0004
 -19329314.09147 -15026375.77848  21161169.4224   21161164.7894
        47.7504         49.2504
  -2266388.56146  -1679569.93042  24745091.8984   24745085.4264
        37.5004         15.5004
   -724767.19746   -553945.22544  25301513.4064   25301505.7664
        37.2504         28.5004
 20  5  4  0 20 30.0000000  0 10G16G 6G 9G 4G22G31G 3G26G14G 7
 -22220369.36647 -17594359.41846  20645544.8674   20645536.7034
        47.7504         38.5004
   -667870.84346   -521672.00945  25205223.1174   25205218.7074
        37.2504         30.7504
 -13199688.05047 -10261696.18347  22895039.0784   22895033.5314
        43.2504         42.5004
 -25355448.06747 -19732616.99346  20709407.0634   20709400.6484
        47.0004         38.5004
 -15182674.98847 -11819985.37545  22831657.9774   22831648.5944
        44.7504         32.5004
  -6801992.23946  -5176821.45946  23734384.8984   23734377.2304
        41.7504         37.0004
 -21717037.78347 -16906665.27148  21258743.5004   21258738.6884
        47.5004         50.0004
 -19289994.29947 -14995736.99748  21168651.2974   21168646.9844
        47.7504         49.2504
  -2180786.89244  -1612867.33742  24761381.4144   24761375.8484
        28.2504         13.7504
   -807836.46346   -618674.56544  25285705.8284   25285698.0944
        37.5004         29.7504
 20  5  4  0 21  0.0000000  0 10G16G 6G 9G 4G22G31G 3G26G14G 7
 -22261667.08747 -17626539.47046  20637685.5784   20637677.8714
        47.5004         38.7504
   -650687.43346   -508282.35845  25208493.2034   25208488.6134
        36.0004         30.5004
 -13286414.94547 -10329275.56947  22878535.5474   22878529.9884
        43.0004         42.7504
 -25397192.11447 -19765144.82846  20701463.6024   20701456.7544
        46.7504         38.0004
 -15090250.06147 -11747965.98145  22849246.0634   22849236.6174
        44.5004         31.5004
  -6708477.89447  -5103953.19946  23752180.6414   23752173.0394
        42.7504         37.5004
 -21653819.72847 -16857404.47248  21270774.0944   21270768.7074
        47.0004         50.2504
 -19250117.64147 -14964664.28648  21176239.7424   21176235.1804
        47.5004         49.0004
  27837927.15115                  24777696.227
        33.000
   -890821.44546   -683338.18844  25269914.5004   25269906.5434
        36.7504         29.7504
 20  5  4  0 21 30.0000000  0 10G16G 6G 9G 4G22G31G 3G26G14G 7
 -22302329.02448 -17658224.09946  20629948.0634   20629940.0124
        48.0004         38.2504
   -633012.56546   -494509.77445  25211856.8984   25211852.7344
        36.2504         31.0004
 -13373033.23447 -10396770.33147  22862053.0704   22862046.5234
        43.7504         42.5004
 -25438640.85947 -19797442.55746  20693575.7814   20693569.2664
        46.5004         38.5004
 -14997579.03547 -11675754.81445  22866880.4534   22866871.0084
        45.0004         32.2504
  -6614941.60846  -5031067.81346  23769979.0704   23769972.1844
        41.5004         37.0004
 -21590113.85647 -16807763.55148  21282896.3364   21282891.6524
        47.0004         50.2504
 -19209686.54847 -14933159.55048  21183933.4844   21183928.8284
        47.0004         49.0004
  27923791.68246  21748771.47353  24794035.3284   24794028.8014
        38.0004         19.0004
   -973722.44246   -747936.33044  25254137.9614   25254130.8484
        37.5004         29.0004
 20  5  4  0 22  0.0000000  0 10G16G 6G 9G 4G22G31G 3G26G14G 7
 -22342353.34448 -17689411.88046  20622331.7974   20622323.8634
        48.0004         39.0004
   -614847.02146   -480354.80645  25215313.0944   25215309.6134
        37.2504         30.5004
 -13459540.87147 -10464178.87347  22845590.3204   22845584.4264
        43.0004         42.2504
 -25479792.26147 -19829508.59546  20685745.1884   20685738.8754
        47.2504         38.2504
 -14904663.94747 -11603353.47145  22884561.8674   22884552.2584
        44.0004         31.0004
  -6521383.94347  -4958165.81546  23787783.1334   23787775.4304
        42.5004         36.5004
 -21525921.57447 -16757743.61148  21295111.6564   21295106.8284
        47.2504         50.0004
 -19168702.14647 -14901223.67048  21191732.6094   21191727.5634
        47.5004         49.0004
  28009787.18246  21815780.90143  24810399.2814   24810393.4454
        36.5004         18.5004
  -1056538.53046   -812468.36344  25238378.7974   25238371.5704
        37.7504         29.5004
 20  5  4  0 22 30.0000000  0 10G16G 6G 9G 4G22G31G 3G26G14G 7
 -22381738.17248 -17720101.36446  20614837.1564   20614829.2424
        48.0004         39.0004
   -596191.75446   -465818.24445  25218863.4844   25218859.3094
        36.0004         31.0004
 -13545936.03647 -10531499.77547  22829150.2274   22829144.6724
        42.5004         42.0004
 -25520644.61647 -19861341.60246  20677971.3524   20677964.6524
        47.0004         39.0004
 -14811506.87147 -11530763.56945  22902289.4144   22902279.4184
        43.7504         31.7504
  -6427805.67747  -4885247.72346  23805590.2424   23805582.6454
        42.5004         37.0004
 -21461244.66647 -16707346.04048  21307419.4614   21307414.6054
        46.5004         49.7504
 -19127165.83847 -14868857.71948  21199636.4924   21199632.2584
        47.7504         49.0004
  28095913.55345  21882892.20842  24826788.2974   24826783.4384
        31.2504         14.7504
  -1139269.43146   -876934.04844  25222635.6954   25222628.7854
        37.5004         29.2504
 20  5  4  0 23  0.0000000  0 10G16G 6G 9G 4G22G31G 3G26G14G 7
 -22420482.36748 -17750291.65446  20607464.6804   20607456.7974
        48.5004         39.0004
   -577048.49546   -450901.46945  25222507.0554   25222502.4264
        37.7504         30.2504
 -13632217.58147 -10598732.13347  22812731.0394   22812725.3754
        43.2504         42.0004
 -25561196.76847 -19892940.69246  20670254.4224   20670247.8244
        47.0004         38.5004
 -14718110.47147 -11457987.16945  22920061.8834   22920052.0634
        44.0004         31.0004
  -6334208.34946  -4812314.78546  23823400.6174   23823394.0824
        41.5004         36.5004
 -21396085.57547 -16656572.73848  21319818.2974   21319813.5124
        47.0004         50.0004
 -19085079.64347 -14836063.28948  21207645.3674   21207640.7584
        47.5004         48.7504
  28182169.899 5                  24843202.844
        35.500
  -1221914.74646   -941332.97745  25206908.2114   25206901.6134
        37.0004         30.0004
 20  5  4  0 23 30.0000000  0 10G16G 6G 9G 4G22G31G 3G26G14G 7
 -22458585.08247 -17779982.08446  20600213.7274   20600205.9804
        46.5004         39.0004
   -557418.72346   -435605.56945  25226241.6884   25226237.0744
        36.7504         30.5004
 -13718384.27647 -10665875.01047  22796334.0164   22796328.4184
        43.5004         42.0004
 -25601447.46947 -19924304.86846  20662595.1174   20662588.6764
        46.0004         39.0004
 -14624477.78447 -11385026.66045  22937879.3054   22937869.7544
        44.5004         32.2504
  -6240593.15746  -4739367.94646  23841215.5084   23841208.2274
        41.5004         36.5004
 -21330446.60347 -16605425.50248  21332309.3134   21332304.6994
        46.7504         49.7504
 -19042445.56747 -14802841.93748  21215758.3594   21215753.9534
        47.0004         49.0004
  28268554.98546  21951103.89252  24859641.9924   24859634.1844
        38.0004         16.2504
  -1304474.47446  -1005665.22845  25191198.3284   25191190.8594
        38.5004         30.0004
 20  5  4  0 24  0.0000000  0 10G16G 6G 9G 4G22G31G 3G26G14G 7
 -22496044.64847 -17809171.36046  20593085.6334   20593077.7304
        47.2504         38.7504
   -537303.66446   -419931.50345  25230069.2664   25230065.0084
        36.5004         30.7504
 -13804434.36547 -10732927.01447  22779959.2194   22779953.6884
        43.5004         42.5004
 -25641395.15347 -19955432.94946  20654993.2504   20654986.6564
        47.2504         38.5004
 -14530611.03147 -11311883.77045  22955742.3984   22955732.3404
        44.2504         31.5004
  -6146961.32747  -4666408.15644  23859032.6484   23859026.2234
        42.0004         28.2504
 -21264329.72347 -16553905.88048  21344891.1884   21344886.2934
        46.7504         49.7504
 -18999265.18148 -14769194.90048  21223975.5394   21223970.9844
        48.2504         48.5004
  28355069.25646  22018517.56942  24876104.4224   24876098.7894
        38.0004         16.7504
  -1386948.29946  -1069930.59744  25175504.7274   25175496.9264
        37.0004         29.0004
 20  5  4  0 24 30.0000000  0 10G16G 6G 9G 4G22G31G 3G26G14G 7
 -22532859.35947 -17837858.14646  20586080.1804   20586072.2194
        46.7504         38.2504
   -516704.46246   -403880.23245  25233989.0474   25233985.3954
        36.5004         30.0004
 -13890365.99247 -10799886.73647  22763607.1414   22763601.6374
        44.0004         43.7504
 -25681038.06247 -19986323.54446  20647449.5474   20647442.8914
        47.2504         39.5004
 -14436512.45147 -11238560.22344  22973648.3754   22973638.5824
        44.5004         29.5004
  -6053313.58646  -4593435.93143  23876853.9924   23876846.2344
        41.0004         22.2504
 -21197736.79547 -16502015.30148  21357563.3674   21357558.4344
        46.5004         48.7504
 -18955540.01548 -14735123.35748  21232295.9384   21232291.3094
        48.5004         48.5004
  28441712.14945  22086031.40842  24892592.8754   24892586.7934
        34.2504         16.2504
  -1469335.37246  -1134128.31044  25159826.6414   25159818.9654
        36.7504         28.5004
 20  5  4  0 25  0.0000000  0 10G16G 6G 9G 4G22G31G 3G26G14G 7
 -22569028.38148 -17866041.81146  20579197.2424   20579189.4184
        48.0004         39.0004
   -495622.69945   -387452.90444  25238001.6954   25237996.6764
        35.5004         29.7504
 -13976178.08947 -10866753.28147  22747277.0164   22747271.8834
        43.5004         43.7504
 -25720375.00447 -20016975.70746  20639963.8984   20639957.1994
        47.7504         38.7504
 -14342184.95947 -11165058.30745  22991598.0234   22991588.5124
        44.0004         30.2504
  -5959651.25047  -4520452.37344  23894677.5474   23894669.8284
        42.5004         26.5004
 -21130670.20747 -16449755.64948  21370325.4534   21370321.1054
        47.0004         49.7504
 -18911272.13248 -14700628.91348  21240720.2194   21240715.3634
        48.0004         48.5004
  28528482.98545  22153644.88542  24909104.5314   24909099.5394
        35.7504         16.2504
  -1551635.79246  -1198258.54045  25144165.6884   25144157.7304
        39.2504         31.5004
 20  5  4  0 25 30.0000000  0 10G16G 6G 9G 4G22G31G 3G26G14G 7
 -22604550.43947 -17893721.33546  20572437.5944   20572429.9184
        47.2504         39.2504
   -474060.15646   -370650.97745  25242105.5704   25242100.1804
        37.0004         30.5004
 -14061869.13047 -10933525.51147  22730971.2734   22730965.7974
        43.5004         43.0004
 -25759404.73747 -20047388.49446  20632536.7344   20632530.3834
        47.0004         38.7504
 -14247631.36347 -11091380.21745  23009591.4224   23009581.3054
        45.0004         30.7504
  -5865975.39247  -4447458.25944  23912503.1254   23912496.0474
        42.0004         26.0004
 -21063132.38047 -16397128.78448  21383178.0004   21383172.4964
        47.7504         49.5004
 -18866463.53648 -14665713.13148  21249246.9844   21249241.9694
        48.2504         48.5004
  28615380.746 5                  24925640.211
        32.750
  -1633849.52946  -1262321.19044  25128521.2424   25128512.9654
        36.5004         28.0004
 20  5  4  0 26  0.0000000  0 10G16G 6G 9G 4G22G31G 3G26G14G 7
 -22639424.56347 -17920895.98546  20565801.2584   20565793.2114
        47.7504         39.0004
   -452017.94346   -353475.22444  25246298.4694   25246294.4344
        36.0004         29.5004
 -14147437.56347 -11000202.19447  22714687.7274   22714682.4344
        43.0004         43.2504
 -25798125.67447 -20077560.66946  20625168.9694   20625161.5704
        47.5004         38.2504
 -14152854.07047 -11017527.79845  23027626.8134   23027616.6334
        44.2504         30.2504
  -5772287.27847  -4374454.56944  23930331.2974   23930324.0784
        42.0004         27.2504
 -20995125.34247 -16344136.31248  21396118.9224   21396114.0314
        47.5004         49.2504
 -18821115.95248 -14630377.37148  21257876.4534   21257872.0744
        48.0004         48.7504
  28702405.30515                  24942200.672
        31.750
  -1715975.73046  -1326315.66445  25112892.4454   25112885.3164
        39.5004         31.7504
 20  5  4  0 26 30.0000000  0 10G16G 6G 9G 4G22G31G 3G26G14G 7
 -22673648.76048 -17947564.19646  20559289.2814   20559281.3594
        48.0004         38.5004
   -429497.39546   -335926.76945  25250583.7034   25250580.0554
        36.2504         30.2504
 -14232881.53747 -11066781.90647  22698427.1644   22698423.1334
        42.7504         43.0004
 -25836536.14547 -20107490.91446  20617859.0864   20617852.5594
        46.5004         38.5004
 -14057855.65747 -10943503.08845  23045704.1334   23045694.1214
        43.7504         31.0004
  -5678587.71746  -4301442.00344  23948162.1174   23948155.3284
        41.2504         27.2504
 -20926651.06347 -16290779.74048  21409149.2114   21409144.0744
        46.7504         49.0004
 -18775230.95547 -14594622.84048  21266607.5234   21266603.0944
        47.7504         48.5004
  28789556.01945  22131974.24753  24958786.1724   24958778.7074
        35.7504         18.2504
  -1798014.26446  -1390241.75844  25097280.6484   25097273.4964
        37.5004         29.5004
 20  5  4  0 27  0.0000000  0 10G16G 6G 9G 4G22G31G 3G26G14G 7
 -22707222.53747 -17973725.58546  20552899.9064   20552891.6024
        47.2504         39.0004
   -406500.18246   -318006.91644  25254960.6414   25254955.9614
        36.5004         29.0004
 -14318199.66347 -11133263.53247  22682192.8524   22682187.2194
        43.0004         43.2504
 -25874634.80647 -20137178.18946  20610609.4774   20610602.6454
        47.5004         38.7504
 -13962638.60047 -10869307.99545  23063823.9694   23063813.9344
        44.2504         30.5004
  -5584877.90647  -4228421.44144  23965994.8524   23965987.4844
        42.2504         26.7504
 -20857711.94847 -16237060.97748  21422267.8754   21422263.0664
        46.7504         49.2504
 -18728810.64948 -14558451.18748  21275441.5944   21275436.7934
        48.2504         48.5004
  28876832.48346  22199981.81843  24975393.5234   24975387.8984
        37.2504         19.0004
  -1879964.89646  -1454099.43345  25081686.1254   25081678.3674
        39.0004         30.2504
 20  5  4  0 27 30.0000000  0 10G16G 6G 9G 4G22G31G 3G26G14G 7
 -22740144.22047 -17999378.85446  20546634.8284   20546627.1024
        47.7504         38.7504
   -383027.82446   -299716.83745  25259427.4304   25259422.4494
        36.5004         30.0004
 -14403390.48447 -11199645.99147  22665981.0634   22665975.8984
        43.7504         43.0004
 -25912420.34947 -20166621.48546  20603419.0164   20603412.1334
        47.5004         38.5004
 -13867205.62447 -10794944.66645  23081984.6724   23081974.5084
        44.7504         31.0004
  -5491158.81847  -4155393.64244  23983828.8674   23983821.9104
        42.5004         27.0004
 -20788310.27847 -16182981.77648  21435474.8284   21435469.6484
        47.5004         49.2504
 -18681856.95248 -14521863.89448  21284376.5004   21284371.6954
        48.0004         48.5004
  28964234.05246  22268086.85343  24992025.9064   24992019.6484
        36.5004         19.5004
  -1961826.99246  -1517888.08645  25066108.4304   25066101.2504
        37.2504         31.5004
 20  5  4  0 28  0.0000000  0 10G16G 6G 9G 4G22G31G 3G26G14G 7
 -22772413.42948 -18024523.69946  20540494.1724   20540486.4964
        48.0004         38.7504
   -359081.89945   -281057.66745  25263984.2034   25263980.0434
        35.7504         30.2504
 -14488452.35647 -11265927.96247  22649794.9304   22649789.2664
        44.0004         43.0004
 -25949891.26747 -20195819.61246  20596288.7344   20596281.8244
        47.0004         39.0004
 -13771559.26047 -10720415.06945  23100185.2734   23100175.7074
        43.7504         30.5004
  -5397431.45046  -4082359.38344  24001664.3444   24001657.3594
        40.7504         26.0004
 -20718448.30047 -16128543.89348  21448769.1414   21448764.6804
        47.5004         49.2504
 -18634371.75448 -14484862.45448  21293412.5474   21293408.1254
        48.0004         48.2504
  29051760.24445  22336289.02742  25008680.5474   25008675.8094
        34.0004         17.7504
  -2043600.79646  -1581607.92545  25050547.1644   25050539.8094
        39.2504         31.2504
 20  5  4  0 28 30.0000000  0 10G16G 6G 9G 4G22G31G 3G26G14G 7
 -22804028.50747 -18049158.83246  20534477.9304   20534470.4224
        47.2504         38.5004
   -334663.59946   -262030.46745  25268630.6334   25268626.5354
        36.5004         30.7504
 -14573383.47147 -11332108.04247  22633632.9694   22633627.2584
        43.7504         43.2504
 -25987045.83747 -20224771.23246  20589218.2894   20589211.3204
        47.5004         38.7504
 -13675701.98747 -10645721.12345  23118426.4534   23118416.5744
        44.0004         31.0004
  -5303696.71046  -4009319.37844  24019500.4844   24019494.2584
        40.7504         24.7504
 -20648128.03147 -16073748.89948  21462150.3054   21462145.9534
        47.7504         49.0004
 -18586356.71447 -14447448.14648  21302549.1804   21302544.8404
        47.2504         48.2504
  29139410.80545  22404588.03142  25025360.1174   25025355.7584
        32.5004         14.7504
  -2125285.62346  -1645258.47945  25035003.5084   25034995.8714
        38.0004         30.2504
 20  5  4  0 29  0.0000000  0 10G16G 6G 9G 4G22G31G 3G26G14G 7
 -22834988.41447 -18073283.43546  20528586.6024   20528578.7154
        47.5004         38.5004
   -309774.93746   -242636.74945  25273367.5314   25273363.0084
        36.5004         31.0004
 -14658182.61547 -11398185.30047  22617495.4844   22617490.7274
        44.2504         43.0004
 -26023882.98247 -20253475.50246  20582208.3524   20582201.5234
        47.2504         38.5004
 -13579636.70747 -10570865.08645  23136706.4454   23136697.2974
        44.0004         31.0004
  -5209955.91046  -3936274.69944  24037339.8914   24037333.1684
        41.0004         26.0004
 -20577352.06447 -16018598.81448  21475618.5394   21475614.1454
        47.2504         49.0004
 -18537814.12947 -14409622.77448  21311786.7034   21311782.2114
        47.5004         48.5004
  29227184.63445  22472983.16942  25042062.9304   25042058.2774
        33.5004         16.2504
  -2206881.48246  -1708839.68045  25019476.3594   25019468.3444
        38.7504         31.7504
 20  5  4  0 29 30.0000000  0 10G16G 6G 9G 4G22G31G 3G26G14G 7
 -22865292.71247 -18096897.17846  20522820.0944   20522812.2424
        47.0004         39.2504
   -284417.46346   -222877.69145  25278192.1884   25278188.5204
        37.0004         31.2504
 -14742848.16747 -11464158.44847  22601384.4924   22601379.5004
        43.2504         44.0004
 -26060401.26447 -20281931.31546  20575258.9774   20575252.5314
        45.7504         38.2504
 -13483365.83547 -10495848.85745  23155026.4694   23155016.9304
        43.5004         30.7504
  -5116209.79546  -3863225.84444  24055179.6174   24055172.3244
        41.2504         25.5004
 -20506122.72347 -15963095.46248  21489173.3054   21489168.4804
        47.5004         49.0004
 -18488745.97747 -14371387.86648  21321124.0314   21321119.6914
        47.2504         48.2504
  29315081.23946  22541473.96442  25058789.8524   25058784.5784
        36.5004         17.2504
  -2288387.63646  -1772351.01445  25003965.9224   25003958.6884
        37.5004         30.5004
 20  5  4  0 30  0.0000000  0 10G16G 6G 9G 4G22G31G 3G26G14G 7
 -22894940.36947 -18119999.25546  20517178.3444   20517170.2854
        46.7504         38.5004
   -258592.87445   -202754.67545  25283106.3444   25283102.1564
        35.2504         30.2504
 -14827378.63547 -11530026.33147  22585299.1254   22585294.3554
        44.0004         44.2504
 -26096599.32747 -20310137.60546  20568370.7584   20568363.6454
        46.7504         39.0004
