     2.11           OBSERVATION DATA    G (GPS)             RINEX VERSION / TYPE
teqc  2008Oct2                          20220511 04:16:25UTCPGM / RUN BY / DATE
MSXP|IAx86-PII|bcc32 5.0|MSWin95->XP|486/DX+                COMMENT
BIT 2 OF LLI FLAGS DATA COLLECTED UNDER A/S CONDITION       COMMENT
NtRSkaza                                                    MARKER NAME
kaza                                                        MARKER NUMBER
-Unknown-           -Unknown-                               OBSERVER / AGENCY
4752143407          TRIMBLE NETRS       NP 1.32 / SP 0.00   REC # / TYPE / VERS
30895097            TRM55971.00                             ANT # / TYPE
  1325807.6201  4606496.1378  4195524.9368                  APPROX POSITION XYZ
        0.1705        0.0000        0.0000                  ANTENNA: DELTA H/E/N
     1     1                                                WAVELENGTH FACT L1/2
     7    L1    L2    C1    P2    P1    S1    S2            # / TYPES OF OBSERV
 SNR is mapped to RINEX snr flag value [0-9]                COMMENT
  L1 & L2: min(max(int(snr_dBHz/6), 0), 9)                  COMMENT
  2020     5     5     0     0    0.0000000     GPS         TIME OF FIRST OBS
                                                            END OF HEADER
 20  5  5  0  0  0.0000000  0  9G16G 6G 4G22G 9G31G26G14G 3
 -21602054.12147 -16606106.10246  20969747.2584   20969739.2464
        46.5004         37.5004
  -1455202.04646  -1137409.05343  25149437.1484   25149433.9884
        37.0004         20.0004
 -24334489.03847 -18939972.05246  21000423.2034   21000417.1134
        47.0004         36.5004
 -18456537.73147 -14370762.96945  22288063.3524   22288053.6994
        46.5004         34.7504
 -10780386.73046  -8387536.49646  23449800.8284   23449795.1844
        41.2504         39.0004
  -9009208.59947  -7882679.54946  23158882.7344   23158875.0514
        43.7504         39.7504
 -20772756.73648 -16163056.48848  20981136.0474   20981131.0784
        48.2504         50.0004
  -5410217.11446  -3989958.76943  24241302.2734   24241295.3984
        40.5004         21.0004
 -22409025.51048 -17445889.27048  20919181.9694   20919176.4304
        49.5004         51.2504
 20  5  5  0  0 30.0000000  0  9G16G 6G 4G22G 9G31G26G14G 3
 -21663338.01447 -16653859.78446  20958085.5554   20958077.4384
        46.5004         37.5004
  -1454653.20046  -1136981.44043  25149542.1484   25149538.5664
        36.2504         19.0004
 -24385171.89647 -18979465.18346  20990778.6564   20990772.5784
        47.0004         36.7504
 -18373480.19047 -14306042.83345  22303869.0004   22303859.1884
        47.0004         35.2504
 -10869945.57046  -8457322.62246  23432758.4694   23432753.0204
        40.7504         39.2504
  -8917095.53347  -7810903.17946  23176411.1254   23176403.4884
        43.7504         39.7504
 -20751826.82048 -16146747.46548  20985118.7894   20985114.3754
        48.0004         50.0004
  -5329042.04546  -3926705.51543  24256749.0234   24256742.4844
        39.2504         19.5004
 -22362748.84348 -17409829.53248  20927987.3754   20927982.5664
        49.0004         51.5004
 20  5  5  0  1  0.0000000  0  9G16G 6G 4G22G 9G31G26G14G 3
 -21724046.37747 -16701165.00646  20946533.1644   20946525.5904
        47.0004         37.5004
  -1453580.88546  -1136145.86743  25149747.1254   25149741.8364
        37.0004         19.0004
 -24435603.95947 -19018762.88946  20981181.9304   20981175.6454
        46.0004         37.5004
 -18290095.17447 -14241067.50245  22319736.3754   22319726.6454
        45.5004         34.7504
 -10959438.33747  -8527057.22946  23415728.6414   23415723.0394
        42.0004         39.7504
  -8824916.35647  -7739075.29046  23193952.6804   23193944.6134
        44.0004         39.0004
 -20730296.49847 -16129970.60248  20989215.8914   20989211.1914
        47.7504         50.0004
  -5247720.94746  -3863338.48543  24272224.8754   24272217.1134
        38.2504         19.5004
 -22315925.27148 -17373343.64348  20936897.5394   20936893.0274
        49.5004         51.2504
 20  5  5  0  1 30.0000000  0  9G16G 6G 4G22G 9G31G26G14G 3
 -21784177.99347 -16748020.81846  20935090.5084   20935082.2384
        47.5004         37.0004
  -1451987.12646  -1134904.00143  25150050.0394   25150045.0864
        37.0004         19.0004
 -24485785.14447 -19057865.11146  20971632.5234   20971626.3954
        46.7504         38.0004
 -18206385.78847 -14175839.43345  22335665.7274   22335655.6724
        46.5004         33.7504
 -11048865.05646  -8596740.39146  23398710.5004   23398706.0744
        41.2504         40.0004
  -8732673.67247  -7667197.90646  23211505.3754   23211497.8404
        42.7504         39.0004
 -20708168.01748 -16112727.64248  20993426.9304   20993422.4304
        48.5004         50.0004
  -5166255.25345  -3799858.71842  24287725.4454   24287719.5864
        35.2504         16.2504
 -22268557.46948 -17336433.67948  20945911.8674   20945906.6564
        49.0004         51.2504
 20  5  5  0  2  0.0000000  0  9G16G 6G 4G22G 9G31G26G14G 3
 -21843730.97547 -16794425.74546  20923757.5784   20923750.0124
        47.2504         37.2504
  -1449872.30246  -1133256.08643  25150452.1174   25150448.2384
        37.2504         20.0004
 -24535714.04347 -19096770.74946  20962132.1484   20962125.2894
        47.2504         37.5004
 -18122354.56847 -14110360.57345  22351656.1254   22351646.6024
        46.2504         33.7504
 -11138224.51447  -8666371.08846  23381706.9844   23381701.1914
        42.7504         40.2504
  -8640369.04947  -7595272.25546  23229069.9924   23229062.5234
        42.7504         40.0004
 -20685442.36548 -16095019.34848  20997751.4534   20997747.0474
        48.0004         50.0004
  -5084645.35046  -3736266.67543  24303256.4614   24303249.4654
        38.5004         19.0004
 -22220646.83348 -17299100.73748  20955029.3754   20955024.1374
        48.7504         51.2504
 20  5  5  0  2 30.0000000  0  9G16G 6G 4G22G 9G31G26G14G 3
 -21902703.03747 -16840378.00346  20912536.1644   20912528.0944
        47.5004         37.7504
  -1447236.92946  -1131202.59143  25150954.3054   25150949.0204
        36.5004         20.7504
 -24585389.11147 -19135478.59446  20952678.8204   20952672.0744
        47.0004         36.7504
 -18038003.86147 -14044632.77545  22367707.6644   22367697.9184
        45.7504         34.5004
 -11227515.27947  -8735948.28746  23364715.6804   23364709.7074
        42.7504         40.5004
  -8548003.77747  -7523299.35346  23246646.1254   23246639.5824
        43.0004         39.5004
 -20662120.46947 -16076846.45148  21002189.4844   21002185.1684
        47.7504         50.0004
  -5002891.56646  -3672562.47543  24318812.9064   24318807.0704
        36.7504         19.7504
 -22172194.74548 -17261345.86748  20964248.7504   20964243.9774
        48.2504         51.0004
 20  5  5  0  3  0.0000000  0  9G16G 6G 4G22G 9G31G26G14G 3
 -21961092.13947 -16885876.00346  20901424.9064   20901417.0434
        47.5004         37.2504
  -1444081.79346  -1128744.05943  25151554.2344   25151550.3204
        37.0004         21.0004
 -24634809.18247 -19173987.74846  20943274.9844   20943268.1334
        46.0004         38.0004
 -17953335.91947 -13978657.76745  22383819.5634   22383809.4884
        45.7504         33.7504
 -11316736.25947  -8805471.13346  23347737.2424   23347731.4574
        42.0004         40.0004
  -8455579.31547  -7451280.34046  23264235.1254   23264227.9104
        42.7504         39.5004
 -20638203.53948 -16058209.89448  21006741.0394   21006736.3094
        48.0004         50.0004
  -4920993.97345  -3608746.23443  24334397.6564   24334391.8634
        35.2504         19.2504
 -22123202.87448 -17223170.39748  20973571.6884   20973566.6604
        49.0004         51.0004
 20  5  5  0  3 30.0000000  0  9G16G 6G 4G22G 9G31G26G14G 3
 -22018896.22747 -16930918.15846  20890424.9694   20890417.3754
        47.0004         38.0004
  -1440408.04746  -1125881.43843  25152253.8914   25152249.5434
        37.5004         20.2504
 -24683973.33547 -19212297.47546  20933918.8054   20933912.0744
        46.5004         37.2504
 -17868353.69247 -13912437.86745  22399991.2664   22399981.4144
        46.5004         34.0004
 -11405886.75947  -8874939.04346  23330772.5004   23330766.5124
        42.0004         39.5004
  -8363097.63247  -7379216.74646  23281833.7504   23281826.2974
        43.0004         39.5004
 -20613693.14148 -16039110.89848  21011405.0864   21011400.5124
        48.7504         50.2504
  -4838953.85746  -3544819.07743  24350011.3914   24350004.2704
        38.5004         21.2504
 -22073673.19948 -17184575.85448  20982996.7734   20982992.3714
        48.5004         51.0004
 20  5  5  0  4  0.0000000  0  9G16G 6G 4G22G 9G31G26G14G 3
 -22076112.51247 -16975502.28546  20879536.8984   20879529.0984
        46.7504         37.7504
  -1436215.57046  -1122614.59143  25153051.2894   25153046.9024
        37.0004         19.7504
 -24732879.34747 -19250406.06146  20924612.5704   20924605.6024
        46.7504         38.0004
 -17783058.96447 -13845974.46245  22416222.6174   22416212.5314
        46.0004         33.7504
 -11494964.74647  -8944350.47346  23313821.4844   23313815.6054
        42.0004         40.0004
  -8270559.19547  -7307108.92746  23299443.0004   23299435.9144
        43.0004         39.5004
 -20588589.58148 -16019549.69148  21016181.7114   21016177.4414
        48.0004         50.2504
  -4756770.56146  -3480780.16243  24365650.7114   24365642.8674
        38.0004         19.7504
 -22023606.46448 -17145562.82748  20992524.6884   20992519.4494
        49.0004         51.0004
 20  5  5  0  4 30.0000000  0  9G16G 6G 4G22G 9G31G26G14G 3
 -22132739.73347 -17019627.39146  20868761.2584   20868753.3594
        46.7504         37.2504
  -1431505.71646  -1118944.59343  25153947.7114   25153943.0204
        37.0004         20.7504
 -24781526.52247 -19288312.95146  20915355.0864   20915348.4534
        47.0004         37.7504
 -17697454.41147 -13779269.63545  22432512.2894   22432502.8444
        46.0004         33.2504
 -11583969.37846  -9013704.72346  23296884.3834   23296878.6724
        41.7504         39.5004
  -8177966.09347  -7234958.51746  23317063.2814   23317055.6294
        43.0004         39.2504
 -20562894.64947 -15999527.67348  21021071.4694   21021067.3634
        47.5004         50.2504
  -4674445.13146  -3416630.48543  24381315.7584   24381308.6174
        38.7504         18.2504
 -21973004.87248 -17106133.02148  21002153.6024   21002148.4924
        49.0004         51.0004
 20  5  5  0  5  0.0000000  0  9G16G 6G 4G22G 9G31G26G14G 3
 -22188774.85747 -17063291.13246  20858098.5634   20858090.1564
        47.0004         37.5004
  -1426278.65246  -1114871.54443  25154941.7114   25154937.8674
        36.5004         20.2504
 -24829912.94447 -19326016.65946  20906147.5944   20906140.7814
        47.0004         37.0004
 -17611541.96447 -13712324.89245  22448860.7734   22448851.6054
        46.2504         34.5004
 -11672898.98346  -9083000.51446  23279961.4534   23279956.1174
        41.2504         39.5004
  -8085319.22247  -7162766.19546  23334692.9304   23334685.6254
        42.5004         39.5004
 -20536608.99948 -15979045.36548  21026073.9144   21026069.3244
        48.0004         50.2504
  -4591977.42846  -3352370.01443  24397008.8054   24397001.5124
        36.5004         18.5004
 -21921869.53048 -17066287.31148  21011884.1094   21011879.2384
        48.2504         50.7504
 20  5  5  0  5 30.0000000  0  9G16G 6G 4G22G 9G31G26G14G 3
 -22244215.77047 -17106491.84946  20847547.9304   20847540.4304
        46.7504         37.2504
  -1420534.98346  -1110396.00943  25156036.0164   25156030.6954
        36.5004         19.0004
 -24878036.99647 -19363515.92646  20896989.8134   20896983.2854
        46.5004         36.5004
 -17525323.95547 -13645142.05945  22465267.6334   22465257.9654
        45.7504         34.0004
 -11761752.12146  -9152236.70846  23263052.8134   23263047.6024
        41.5004         40.2504
  -7992619.97047  -7090533.06146  23352333.5634   23352325.8714
        43.0004         38.7504
 -20509733.61848 -15958103.51748  21031187.4844   21031183.3714
        48.5004         50.2504
  -4509367.50046  -3287998.78842  24412728.7504   24412722.4534
        36.0004         17.7504
 -21870201.81848 -17026026.78048  21021716.2274   21021711.5274
        48.5004         50.7504
 20  5  5  0  6  0.0000000  0  9G16G 6G 4G22G 9G31G26G14G 3
 -22299061.28647 -17149228.62546  20837111.5084   20837103.6374
        47.0004         37.5004
  -1414276.11646  -1105519.01443  25157226.7584   25157222.0124
        37.0004         19.5004
 -24925897.96747 -19400810.19446  20887882.2504   20887875.1334
        46.7504         37.2504
 -17438803.39047 -13577723.46145  22481731.8984   22481722.1524
        45.5004         34.0004
 -11850528.07746  -9221412.77046  23246158.7194   23246154.6884
        40.7504         40.5004
  -7899870.06847  -7018260.45546  23369982.9144   23369975.6484
        43.5004         39.0004
 -20482270.32147 -15936703.55248  21036414.0864   21036409.4304
        47.2504         50.0004
  -4426616.58646  -3223517.57943  24428475.5394   24428469.9024
        39.7504         18.5004
 -21818004.00548 -16985353.17548  21031649.2584   21031644.3204
        49.0004         50.7504
 20  5  5  0  6 30.0000000  0  9G16G 6G 4G22G 9G31G26G14G 3
 -22353309.14047 -17191499.68546  20826788.4844   20826780.5234
        46.5004         37.5004
  -1407502.82945  -1100241.12343  25158513.4384   25158510.5744
        35.2504         19.7504
 -24973494.36347 -19437898.29746  20878824.5394   20878818.1484
        47.0004         37.5004
 -17351982.76847 -13510071.03845  22498253.4534   22498243.0744
        45.7504         34.0004
 -11939225.54446  -9290527.67546  23229280.4454   23229275.5744
        41.5004         40.5004
  -7807070.98847  -6945949.53346  23387641.7114   23387634.6844
        43.0004         39.0004
 -20454220.30347 -15914846.40648  21041751.5394   21041747.3954
        47.2504         50.0004
  -4343724.94446  -3158926.61242  24444249.7504   24444243.0004
        38.7504         17.7504
 -21765277.69548 -16944267.74648  21041682.6724   21041677.5594
        48.5004         51.0004
 20  5  5  0  7  0.0000000  0  9G16G 6G 4G22G 9G31G26G14G 3
 -22406957.12547 -17233303.31446  20816579.3284   20816571.5704
        47.0004         38.0004
  -1400215.60446  -1094562.81743  25159902.7034   25159897.1764
        38.2504         20.7504
 -25020824.62647 -19474779.02846  20869818.0704   20869811.8444
        47.7504         37.2504
 -17264864.25547 -13442186.50145  22514831.3914   22514821.7154
        45.2504         33.2504
 -12027843.05747  -9359580.27846  23212417.6724   23212412.4104
        42.2504         41.0004
  -7714223.74147  -6873601.07546  23405310.2894   23405303.1684
        43.0004         39.2504
 -20425584.70647 -15892532.96348  21047200.6564   21047196.0824
        47.0004         50.0004
  -4260692.68946  -3094226.28843  24460049.5864   24460044.0124
        37.0004         21.5004
 -21712024.41548 -16902771.70148  21051816.9774   21051811.8554
        48.7504         51.0004
 20  5  5  0  7 30.0000000  0  9G16G 6G 4G22G 9G31G26G14G 3
 -22460002.83948 -17274637.64346  20806485.2894   20806477.3444
        48.2504         37.7504
  -1392415.20446  -1088484.61843  25161386.6174   25161382.2344
        37.0004         20.2504
 -25067887.04647 -19511451.04546  20860862.8054   20860856.1134
        47.7504         37.5004
 -17177449.95547 -13374071.48045  22531466.3054   22531456.0704
        45.5004         33.2504
 -12116378.95947  -9428569.28646  23195570.1884   23195564.5634
        42.0004         40.7504
  -7621329.41847  -6801215.94246  23422987.6564   23422980.2234
        42.7504         39.2504
 -20396364.39147 -15869763.89548  21052761.1884   21052756.6214
        47.0004         49.7504
  -4177519.95846  -3029416.52043  24475877.6954   24475872.1414
        39.5004         21.5004
 -21658245.48747 -16860866.05248  21062050.7894   21062045.3204
        47.5004         50.5004
 20  5  5  0  8  0.0000000  0  9G16G 6G 4G22G 9G31G26G14G 3
 -22512445.25248 -17315501.87146  20796505.6804   20796497.8984
        48.0004         38.5004
  -1384103.23546  -1082007.77443  25162966.9694   25162964.0044
        36.7504         19.5004
 -25114681.14048 -19547913.97446  20851958.0634   20851951.4344
        48.0004         37.5004
 -17089743.05847 -13305728.46945  22548156.6334   22548145.6914
        45.7504         32.7504
 -12204832.87847  -9497494.42346  23178736.9774   23178732.4924
        42.2504         41.0004
  -7528390.05347  -6728795.69746  23440673.2664   23440665.9184
        42.5004         39.2504
 -20366561.59247 -15846540.94848  21058432.2814   21058428.1524
        47.0004         49.7504
  -4094208.06546  -2964498.11743  24491731.0554   24491724.7194
        39.0004         19.0004
 -21603943.53048 -16818552.84948  21072383.5084   21072378.6134
        48.0004         50.5004
 20  5  5  0  8 30.0000000  0  9G16G 6G 4G22G 9G31G26G14G 3
 -22564280.74248 -17355893.17246  20786642.1414   20786634.3484
        48.2504         38.0004
  -1375279.05446  -1075131.77843  25164646.9694   25164642.6024
        36.7504         20.2504
 -25161203.78447 -19584165.39846  20843105.0084   20843098.1914
        47.5004         37.2504
 -17001744.68447 -13237158.31245  22564901.5944   22564891.5864
        45.5004         33.2504
 -12293201.71147  -9566353.22146  23161921.9844   23161916.6134
        42.5004         41.5004
  -7435405.43447  -6656340.19546  23458367.0474   23458360.8014
        42.7504         39.0004
 -20336175.95347 -15822863.83748  21064214.7194   21064210.3364
        47.0004         50.0004
  -4010755.93445  -2899470.54242  24507610.0004   24507605.0474
        31.5004         14.7504
 -21549118.57947 -16775832.12648  21082816.7894   21082811.6914
        47.7504         50.5004
 20  5  5  0  9  0.0000000  0  9G16G 6G 4G22G 9G31G26G14G 3
 -22615508.81447 -17395811.15946  20776893.4694   20776885.6954
        47.5004         37.7504
  -1365944.50246  -1067858.13843  25166423.1094   25166419.0354
        36.2504         20.2504
 -25207454.77948 -19620205.14446  20834303.5634   20834297.3164
        48.2504         37.5004
 -16913458.44347 -13168363.86445  22581702.0084   22581691.9454
        45.0004         33.0004
 -12381485.38047  -9635145.67346  23145122.3284   23145116.5744
        42.5004         41.2504
  -7342378.39347  -6583851.64846  23476070.3674   23476062.6214
        43.0004         39.0004
 -20305209.95447 -15798734.50148  21070107.5004   21070103.0474
        47.5004         49.7504
  -3927164.84945  -2834334.74242  24523517.7584   24523512.5234
        35.2504         17.2504
 -21493773.59647 -16732706.18148  21093348.3284   21093343.4734
        47.5004         50.5004
 20  5  5  0  9 30.0000000  0  9G16G 6G 4G22G 9G31G26G14G 3
 -22666127.86447 -17435254.57846  20767261.4144   20767253.6094
        47.0004         37.5004
  -1356101.17046  -1060188.02143  25168296.5944   25168292.9064
        36.5004         20.2504
 -25253433.22548 -19656032.51146  20825554.6174   20825548.0944
        48.0004         38.0004
 -16824887.11847 -13099347.25645  22598555.9614   22598546.6564
        45.0004         33.2504
 -12469683.04047  -9703871.11646  23128338.8674   23128333.0354
        42.2504         41.0004
  -7249310.33147  -6511331.13546  23493780.7584   23493773.4654
        42.7504         38.7504
 -20273665.53147 -15774154.43748  21076110.2974   21076105.7034
        47.0004         49.5004
  -3843435.86146  -2769091.45343  24539451.7814   24539445.8204
        38.7504         19.7504
 -21437910.83447 -16689176.77148  21103978.6724   21103973.6724
        47.5004         50.5004
 20  5  5  0 10  0.0000000  0  9G16G 6G 4G22G 9G31G26G14G 3
 -22716135.29847 -17474221.41446  20757744.9924   20757737.2074
        47.5004         37.5004
  -1345749.29246  -1052121.65043  25170267.1564   25170262.1644
        36.0004         19.0004
 -25299136.94747 -19691645.79946  20816857.5314   20816850.3164
        47.5004         37.5004
 -16736032.30247 -13030109.76445  22615465.0474   22615455.3244
        44.5004         33.5004
 -12557792.58446  -9772527.91946  23111570.2734   23111566.2814
        41.5004         41.0004
  -7156201.88147  -6438779.15446  23511499.2814   23511491.6094
        42.5004         38.5004
 -20241543.28047 -15749124.12348  21082222.7114   21082218.4494
        47.7504         49.5004
  -3759568.55046  -2703740.46542  24555410.6254   24555405.3634
        36.7504         17.7504
 -21381531.34747 -16645244.71648  21114707.4924   21114702.2544
        47.0004         50.5004
 20  5  5  0 10 30.0000000  0 10G16G 6G 4G22G 9G31G26G14G 7G 3
 -22765529.49748 -17512710.40846  20748345.9144   20748337.9844
        48.0004         38.7504
  -1334889.99346  -1043659.89443  25172333.1414   25172328.4024
        37.7504         19.2504
 -25344564.71247 -19727044.06746  20808212.7894   20808205.9614
        47.2504         38.0004
 -16646896.62047 -12960653.41245  22632427.0784   22632417.3794
        45.0004         33.5004
 -12645812.86447  -9841115.14746  23094821.9304   23094816.3834
        42.5004         41.0004
  -7063054.36247  -6366196.71446  23529224.1644   23529216.5394
        42.5004         38.2504
 -20208844.84747 -15723644.83848  21088444.9304   21088440.4494
        47.5004         49.5004
  -3675563.580 5                  24571396.008
        35.500
   -438051.89455   -269774.39053  25473589.7974   25473581.9844
        31.0004         20.0004
 -21324637.15747 -16600911.59248  21125533.8364   21125529.0784
        47.5004         50.7504
 20  5  5  0 11  0.0000000  0 10G16G 6G 4G22G 9G31G26G14G 7G 3
 -22814308.67947 -17550720.16346  20739062.8284   20739055.3524
        47.2504         38.0004
  -1323524.28246  -1034803.53543  25174496.2034   25174492.0234
        37.7504         21.0004
 -25389715.10147 -19762226.19646  20799620.8204   20799614.2584
        46.5004         37.5004
 -16557482.85547 -12890980.36745  22649442.1414   22649432.0004
        45.0004         32.0004
 -12733742.49847  -9909631.72946  23078089.5004   23078084.0394
        42.5004         40.5004
  -6969869.38447  -6293585.09846  23546957.2344   23546949.2034
        42.5004         38.0004
 -20175571.62247 -15697717.66048  21094777.1254   21094772.2194
        47.0004         49.5004
  -3591421.21846  -2619033.52553  24587409.2584   24587402.0004
        38.5004         19.0004
   -522004.25245   -335191.83743  25457613.8594   25457606.0554
        33.5004         20.0004
 -21267230.03947 -16556178.79648  21136458.4694   21136453.6374
        47.5004         50.7504
 20  5  5  0 11 30.0000000  0 10G16G 6G 4G22G 9G31G26G14G 7G 3
 -22862470.73547 -17588249.04346  20729898.2344   20729890.6174
        47.5004         37.5004
  -1311652.85445  -1025553.11143  25176755.2194   25176750.7384
        35.7504         20.2504
 -25434586.41447 -19797190.86246  20791082.1644   20791075.2704
        45.7504         37.5004
 -16467792.96747 -12821092.16345  22666509.0554   22666499.4574
        44.7504         32.5004
 -12821579.81147  -9978076.37046  23061374.8914   23061368.8094
        42.5004         41.2504
  -6876647.68347  -6220944.85446  23564696.7504   23564688.8134
        43.0004         38.5004
 -20141724.74047 -15671343.48448  21101217.4844   21101213.1374
        47.5004         49.5004
  -3507141.70645  -2553361.23943  24603445.8444   24603440.5634
        35.5004         20.7504
   -605875.72945   -400546.25443  25441654.0634   25441645.9774
        34.7504         23.7504
 -21209311.53347 -16511047.50748  21147479.8204   21147474.7934
        47.5004         50.7504
 20  5  5  0 12  0.0000000  0 10G16G 6G 4G22G 9G31G26G14G 7G 3
 -22910014.12748 -17625295.84746  20720850.9224   20720843.2074
        48.2504         38.0004
  -1299277.00646  -1015909.64143  25179110.8054   25179105.6884
        38.0004         18.2504
 -25479177.46347 -19831937.14746  20782596.7974   20782589.7894
        47.5004         37.7504
 -16377829.66247 -12750990.90645  22683629.1724   22683618.9384
        45.0004         32.5004
 -12909323.68846 -10046448.22647  23044677.4064   23044672.4614
        41.7504         42.0004
  -6783390.67547  -6148277.09844  23582442.2424   23582434.8954
        42.5004         29.7504
 -20107305.94847 -15644523.65348  21107767.3754   21107762.7234
        46.7504         49.5004
  -3422725.82145  -2487582.77642  24619510.1724   24619504.6844
        34.5004         16.7504
   -689666.52145   -465837.79444  25425708.9454   25425701.0314
        35.7504         28.0004
 -21150883.80547 -16465519.42848  21158598.3674   21158593.3794
        47.7504         50.5004
 20  5  5  0 12 30.0000000  0 10G16G 6G 4G22G 9G31G26G14G 7G 3
 -22956936.94647 -17661859.08846  20711921.8524   20711913.7854
        47.7504         38.0004
  -1286397.66746  -1005873.82444  25181560.9224   25181556.6484
        38.2504         27.0004
 -25523486.68747 -19866463.81546  20774164.7894   20774157.8364
        46.7504         37.5004
 -16287595.89947 -12680678.90745  22700799.8914   22700789.4924
        44.5004         32.7504
 -12996972.53247 -10114746.01547  23027998.5394   23027993.1484
        42.5004         42.7504
  -6690099.50547  -6075582.74744  23600195.2664   23600188.1644
        42.0004         28.5004
 -20072316.56447 -15617259.21648  21114425.6334   21114421.0474
        47.5004         49.5004
  -3338174.00545  -2421698.40642  24635599.7584   24635594.5594
        32.2504         13.7504
   -773376.34346   -531066.24544  25409779.7894   25409771.8674
        37.5004         28.7504
 -21091948.50147 -16419595.83348  21169813.5314   21169808.1684
        47.2504         50.2504
 20  5  5  0 13  0.0000000  0 10G16G 6G 4G22G 9G31G26G14G 7G 3
 -23003237.76748 -17697937.66246  20703111.6564   20703103.4614
        48.0004         38.5004
  -1273016.11546   -995446.66344  25184106.6174   25184103.7584
        36.2504         26.0004
 -25567512.87347 -19900769.94146  20765787.2734   20765780.6294
        46.7504         38.0004
 -16197094.21747 -12610158.15245  22718021.5474   22718011.9104
        45.0004         32.5004
 -13084525.19647 -10182968.87547  23011337.4384   23011332.4344
        42.7504         42.5004
  -6596775.74147  -6002862.98844  23617953.8524   23617947.0984
        42.0004         27.2504
 -20036758.34247 -15589551.52348  21121192.0634   21121187.6374
        47.0004         49.5004
  -3253486.93046  -2355708.42542  24651715.7194   24651710.4844
        36.7504         14.7504
   -857004.98446   -596231.43145  25393865.2584   25393857.8634
        38.5004         31.2504
 -21032507.78947 -16373278.39948  21181123.8754   21181119.3794
        47.5004         50.2504
 20  5  5  0 13 30.0000000  0 10G16G 6G 4G22G 9G31G26G14G 7G 3
 -23048915.26048 -17733530.52846  20694418.8444   20694411.3524
        48.5004         37.7504
  -1259133.86846   -984629.37845  25186749.7344   25186744.6604
        37.7504         30.2504
 -25611254.93847 -19934854.68046  20757463.4534   20757456.4884
        46.5004         37.7504
 -16106326.74947 -12539430.27245  22735293.8364   22735284.1724
        44.7504         32.7504
 -13171980.66046 -10251115.98346  22994694.7344   22994690.5784
        41.7504         41.7504
  -6503421.09547  -5930119.16344  23635719.4304   23635711.9454
        42.7504         28.2504
 -20000633.16347 -15561402.04448  21128066.2814   21128061.8094
        47.5004         49.5004
  -3168665.13745  -2289613.49543  24667856.2274   24667850.7304
        35.7504         18.5004
   -940552.49346   -661333.40845  25377966.6484   25377959.4804
        38.2504         31.7504
 -20972563.99547 -16326568.97348  21192531.0554   21192526.4494
        47.2504         50.0004
 20  5  5  0 14  0.0000000  0 10G16G 6G 4G22G 9G31G26G14G 7G 3
 -23093967.09248 -17768635.86046  20685846.0554   20685838.1484
        49.0004         38.0004
  -1244751.41446   -973422.27745  25189485.2274   25189481.4454
        37.5004         30.2504
 -25654710.82847 -19968716.42546  20749193.7734   20749186.8914
        47.5004         37.5004
 -16015295.52747 -12468496.88545  22752616.7114   22752606.8674
        44.5004         32.0004
 -13259336.85147 -10319185.72846  22978071.6564   22978066.6294
        42.0004         41.2504
  -6410035.80447  -5857351.45344  23653489.8134   23653482.3014
        42.5004         28.5004
 -19963941.91347 -15532811.47248  21135048.5704   21135044.4304
        47.7504         49.5004
  -3083708.15545  -2223413.42642  24684023.0314   24684017.9734
        34.2504         16.2504
  -1024017.64246   -726371.20545  25362083.5164   25362076.3554
        37.5004         31.2504
 -20912118.30247 -16279468.44648  21204034.1094   21204028.8164
        47.5004         50.0004
 20  5  5  0 14 30.0000000  0 10G16G 6G 4G22G 9G31G26G14G 7G 3
 -23138391.56548 -17803252.33946  20677392.1414   20677384.5554
        48.7504         39.0004
  -1229869.78546   -961826.26445  25192317.7974   25192314.0204
        37.5004         31.2504
 -25697879.12547 -20002354.05846  20740978.9694   20740972.2894
        47.0004         38.0004
 -15924003.46447 -12397360.25045  22769988.5314   22769979.1804
        44.7504         31.5004
 -13346592.36547 -10387177.01446  22961468.7974   22961461.9924
        43.0004         41.5004
  -6316621.25747  -5784560.95244  23671265.6024   23671258.8094
        42.0004         28.5004
 -19926686.18847 -15503781.04648  21142138.4694   21142134.1294
        47.5004         49.5004
  -2998617.14946  -2157108.85942  24700214.8594   24700210.2774
        36.0004         17.7504
  -1107400.21946   -791344.64244  25346216.8834   25346209.0704
        37.0004         29.2504
 -20851172.76247 -16231978.43748  21215631.5864   21215626.1994
        47.5004         50.0004
 20  5  5  0 15  0.0000000  0 10G16G 6G 4G22G 9G31G26G14G 7G 3
 -23182187.61347 -17837379.12746  20669058.1334   20669050.7384
        47.7504         38.0004
  -1214490.72646   -949842.60845  25195244.0394   25195240.0354
        36.5004         30.7504
 -25740758.79047 -20035766.79446  20732819.3674   20732812.7034
        47.2504         38.0004
 -15832453.37747 -12326022.53545  22787410.3914   22787400.7894
        45.0004         32.7504
 -13433746.12047 -10455089.03347  22944883.5784   22944877.2734
        43.0004         42.0004
  -6223179.08246  -5711748.91844  23689047.1804   23689040.1294
        41.7504         28.0004
 -19888867.93148 -15474312.28648  21149334.8834   21149330.1484
        48.7504         49.5004
  -2913392.60746  -2090700.22342  24716433.4614   24716427.8874
        38.0004         16.7504
  -1190700.52746   -856253.96444  25330365.1954   25330357.5824
        36.5004         27.7504
 -20789729.63347 -16184100.68648  21227323.6724   21227318.7624
        47.2504         50.0004
 20  5  5  0 15 30.0000000  0 10G16G 6G 4G22G 9G31G26G14G 7G 3
 -23225353.71448 -17871015.05546  20660844.0554   20660836.2344
        48.0004         38.7504
  -1198615.25246   -937472.13145  25198264.9844   25198261.0234
        36.5004         30.2504
 -25783348.33747 -20068953.46046  20724714.8984   20724708.2894
        46.7504         38.2504
 -15740647.86847 -12254485.80145  22804880.3134   22804870.6484
        45.0004         32.2504
 -13520796.69347 -10522920.64646  22928318.4534   22928312.3054
        43.0004         41.5004
  -6129710.68847  -5638916.48244  23706834.7424   23706826.1294
        42.0004         27.5004
 -19850488.76848 -15444406.45948  21156638.0554   21156633.5514
        48.7504         49.5004
  -2828035.04346  -2024187.78742  24732676.9774   24732671.0164
        38.5004         16.2504
  -1273917.55046   -921098.40644  25314529.7274   25314522.1524
        37.0004         29.2504
 -20727790.97147 -16135836.81148  21239110.0784   21239105.2734
        46.7504         50.0004
 20  5  5  0 16  0.0000000  0 10G16G 6G 4G22G 9G31G26G14G 7G 3
 -23267887.76448 -17904158.47346  20652750.1334   20652742.0274
        48.7504         38.7504
  -1182244.21645   -924715.56245  25201380.5704   25201376.7234
        35.7504         31.2504
 -25825645.98147 -20101912.67946  20716666.1254   20716659.5234
        47.2504         38.2504
 -15648589.03047 -12182751.67045  22822398.4924   22822388.8674
        44.2504         32.0004
 -13607742.29647 -10590670.46047  22911773.4304   22911766.9884
        43.7504         42.2504
  -6036216.53347  -5566063.92344  23724625.2974   23724618.2504
        42.7504         27.5004
 -19811549.97847 -15414064.55948  21164047.9304   21164043.3984
        47.0004         49.2504
  -2742544.68145  -1957571.89542  24748944.1484   24748938.6094
        35.0004         16.2504
  -1357050.89746   -985877.67945  25298710.6804   25298702.8094
        38.2504         30.0004
 -20665358.40047 -16087188.07348  21250990.5944   21250985.4844
        47.0004         50.0004
 20  5  5  0 16 30.0000000  0  9G16G 6G 4G22G 9G31G26G 7G 3
 -23309787.64548 -17936807.74346  20644776.6564   20644769.2154
        48.0004         38.7504
  -1165378.36245   -911573.37045  25204590.6254   25204585.9224
        35.7504         30.0004
 -25867649.71547 -20134642.87646  20708673.0004   20708666.3014
        47.5004         38.7504
 -15556278.80747 -12110821.65445  22839965.0314   22839955.1684
        45.0004         32.0004
 -13694580.84247 -10658336.85847  22895248.3594   22895242.6174
        43.7504         42.5004
  -5942697.18747  -5493191.74144  23742420.8054   23742413.7304
        42.0004         27.0004
 -19772052.61848 -15383287.41148  21171564.0234   21171559.3524
        48.2504         49.2504
  -1440099.80746  -1050591.14645  25282906.4534   25282898.4344
        37.7504         30.0004
 -20602433.31947 -16038155.55648  21262964.7194   21262960.3014
        47.0004         50.0004
 20  5  5  0 17  0.0000000  0 10G16G 6G 4G22G 9G31G26G14G 7G 3
 -23351055.32647 -17968964.38246  20636923.5394   20636916.0234
        47.5004         37.7504
  -1148022.39846   -898049.27745  25207893.0784   25207888.7584
        36.7504         31.0004
 -25909361.54347 -20167145.60146  20700735.3284   20700728.7814
        46.2504         38.2504
 -15463723.39247 -12038700.57945  22857577.1174   22857568.0824
        44.5004         32.2504
 -13781314.38647 -10725921.43347  22878742.9144   22878737.6414
        43.0004         42.5004
  -5849157.68847  -5420303.86744  23760221.5554   23760214.4184
        42.0004         26.5004
 -19732001.78747 -15352078.98148  21179185.2114   21179180.7344
        47.0004         49.0004
  28937231.27755  22628353.58153  24781556.7734   24781548.7034
        35.0004         20.2504
  -1523067.32946  -1115241.17244  25267118.2424   25267110.4224
        36.7504         29.7504
 -20539021.23447 -15988743.56348  21275031.7504   21275027.2074
        47.0004         50.0004
 20  5  5  0 17 30.0000000  0 10G16G 6G 4G22G 9G31G26G14G 7G 3
 -23391684.09948 -18000623.16546  20629192.5084   20629184.6454
        48.2504         38.7504
  -1130172.07346   -884139.98445  25211290.2194   25211285.4964
        36.7504         32.0004
 -25950774.61947 -20199415.54046  20692854.6954   20692848.0984
        47.0004         38.0004
 -15370919.60347 -11966385.97245  22875237.4774   22875227.5554
        44.2504         31.7504
 -13867935.98747 -10793418.77647  22862260.1484   22862254.0004
        43.7504         42.7504
  -5755593.37147  -5347396.67144  23778026.3834   23778018.7814
        42.7504         27.0004
 -19691393.75847 -15320436.38148  21186912.5944   21186908.1374
        47.5004         49.0004
  29023117.66846  22695277.95143  24797899.8134   24797894.0784
        37.0004         18.5004
  -1605947.47846  -1179823.11344  25251346.5314   25251338.7194
        37.0004         29.0004
 -20475118.79547 -15938949.46448  21287192.0084   21287187.3244
        47.0004         50.0004
 20  5  5  0 18  0.0000000  0 10G16G 6G 4G22G 9G31G26G14G 7G 3
 -23431675.79648 -18031785.53746  20621582.4534   20621574.3554
        48.0004         38.7504
  -1111832.08646   -869849.13245  25214779.4694   25214775.2704
        37.2504         31.2504
 -25991890.89447 -20231454.20246  20685030.4064   20685024.0514
        47.0004         38.5004
 -15277873.37547 -11893882.44445  22892944.0634   22892934.2304
        44.5004         31.5004
 -13954447.55947 -10860830.39747  22845797.4614   22845791.1374
        43.5004         42.2504
  -5662008.67847  -5274473.58544  23795834.7734   23795827.7504
        43.0004         26.7504
 -19650233.61447 -15288363.55648  21194745.3204   21194740.9494
        47.0004         48.7504
  29109134.46245  22762303.94242  24814267.7424   24814262.7584
        34.7504         16.7504
  -1688743.55546  -1244339.58344  25235591.1724   25235583.6524
        38.0004         28.0004
 -20410731.46047 -15888777.53848  21299445.0944   21299440.0234
        47.5004         50.0004
 20  5  5  0 18 30.0000000  0 10G16G 6G 4G22G 9G31G26G14G 7G 3
 -23471026.56547 -18062448.48446  20614093.7194   20614086.1604
        47.5004         38.7504
  -1093001.69946   -855176.12045  25218363.1094   25218359.2114
        37.5004         30.7504
 -26032706.57847 -20263258.64246  20677263.6564   20677256.8204
        47.5004         38.7504
 -15184585.01847 -11821190.24445  22910695.7034   22910686.3874
        44.2504         31.5004
 -14040845.31147 -10928153.31147  22829356.2584   22829350.4494
        43.0004         42.0004
  -5568402.63047  -5201533.85944  23813647.3364   23813640.2114
        42.5004         26.5004
 -19608520.78847 -15255860.07048  21202683.2584   21202678.4924
        47.5004         48.7504
                                  24830662.4694   24830657.8794
        33.2504         14.7504
  -1771452.70546  -1308788.31244  25219851.6024   25219844.2424
        37.2504         29.7504
 -20345859.00247 -15838227.59248  21311789.6414   21311784.5084
        47.0004         49.7504
 20  5  5  0 19  0.0000000  0 10G16G 6G 4G22G 9G31G26G14G 7G 3
 -23509739.65548 -18092614.53346  20606727.4614   20606719.4494
        48.2504         38.7504
  -1073686.19946   -840125.12945  25222038.7034   25222034.9224
        37.5004         30.7504
 -26073224.67247 -20294831.18546  20669553.4844   20669547.1644
        46.7504         38.5004
 -15091061.37147 -11748314.69445  22928493.1094   22928482.7664
        44.2504         31.0004
 -14127132.21947 -10995389.86847  22812936.1644   22812930.4144
        43.2504         42.0004
  -5474780.90646  -5128581.93244  23831463.2344   23831455.6844
        41.5004         25.7504
 -19566261.41247 -15222930.69448  21210724.6484   21210720.4804
        47.5004         48.7504
  29281559.14246  22825927.66653  24847080.4384   24847071.4654
        38.7504         19.2504
  -1854079.30946  -1373172.66645  25204128.3204   25204120.6484
        38.0004         30.5004
 -20280507.91247 -15787304.67848  21324225.6484   21324220.8954
        46.7504         50.0004
 20  5  5  0 19 30.0000000  0 10G16G 6G 4G22G 9G31G26G14G 7G 3
 -23547809.65647 -18122279.47546  20599482.8914   20599474.6484
        46.5004         38.5004
  -1053883.44646   -824694.45745  25225807.6334   25225803.1604
        37.0004         31.2504
 -26113439.87047 -20326167.71546  20661900.6884   20661893.7624
        45.5004         38.2504
 -14997301.39447 -11675254.99845  22946334.9694   22946325.0474
        44.5004         32.2504
 -14213302.82947 -11062535.80247  22796538.3914   22796532.7544
        43.2504         42.2504
  -5381140.70047  -5055615.55844  23849283.0784   23849274.9024
        42.2504         28.0004
 -19523453.37748 -15189573.80248  21218871.1094   21218866.3874
        48.5004         48.5004
  29367964.92046  22893256.88842  24863522.9144   24863516.9344
        38.7504         16.7504
  -1936618.70746  -1437489.10645  25188421.5084   25188414.5164
        38.5004         30.7504
 -20214676.49547 -15736007.49848  21336752.7894   21336748.1484
        47.2504         49.7504
 20  5  5  0 20  0.0000000  0 10G16G 6G 4G22G 9G31G26G14G 7G 3
 -23585236.32847 -18151443.12646  20592360.2974   20592352.5824
        47.5004         39.0004
  -1033595.72046   -808885.84945  25229667.4534   25229663.6214
        37.5004         31.0004
 -26153351.75847 -20357267.90346  20654305.3754   20654299.1804
        47.7504         38.5004
 -14903308.78847 -11602014.04245  22964221.0784   22964211.2734
        44.0004         31.2504
 -14299356.75047 -11129590.80547  22780163.0554   22780157.4064
        43.5004         42.5004
  -5287484.02247  -4982636.41344  23867105.0084   23867097.0274
        42.0004         27.0004
 -19480099.54447 -15155791.61448  21227120.7894   21227116.3484
        47.7504         48.5004
  29454499.49746  22960686.34942  24879989.2274   24879984.0354
        36.7504         17.2504
  -2019071.92446  -1501738.40445  25172731.7584   25172724.3054
        36.7504         30.0004
 -20148367.88647 -15684338.46448  21349370.9844   21349366.3014
        47.2504         49.5004
 20  5  5  0 20 30.0000000  0 10G16G 6G 4G22G 9G31G26G14G 7G 3
 -23622018.77047 -18180104.77446  20585360.6804   20585353.0984
        47.5004         39.0004
  -1012824.65545   -792700.64045  25233619.6254   25233615.9024
        35.7504         31.2504
 -26192959.09347 -20388130.76446  20646768.7424   20646761.9534
        47.5004         38.2504
 -14809086.17247 -11528593.85445  22982151.5164   22982141.1484
        44.0004         31.7504
 -14385292.63547 -11196553.83747  22763810.0554   22763804.3634
        43.7504         43.2504
  -5193812.34846  -4909645.52544  23884929.5164   23884922.6994
        41.2504         27.7504
 -19436201.90448 -15121585.67048  21235474.2814   21235469.8284
        48.2504         48.5004
  29541162.21845  23028215.69042  24896480.8524   24896475.9264
        34.5004         16.7504
  -2101438.98946  -1565920.53945  25157058.1024   25157050.4344
        38.7504         31.5004
 -20081584.47747 -15632299.47048  21362079.2504   21362074.3954
        47.5004         49.5004
 20  5  5  0 21  0.0000000  0 10G16G 6G 4G22G 9G31G26G14G 7G 3
 -23658155.04247 -18208262.91146  20578484.2974   20578476.8554
        47.0004         39.0004
   -991571.16345   -776139.49945  25237664.9694   25237660.9534
        35.5004         31.5004
 -26232260.01348 -20418754.87346  20639290.0164   20639283.3674
        48.0004         38.2504
 -14714635.47647 -11454995.93345  23000124.4534   23000114.7384
        44.5004         30.5004
 -14471108.49847 -11263423.35247  22747479.3134   22747474.0634
        43.7504         43.2504
  -5100126.19047  -4836643.39944  23902758.5394   23902750.0784
        42.0004         28.0004
 -19391761.77348 -15086957.01148  21243930.9844   21243926.4264
        48.5004         48.5004
  29627953.05845  23095844.84142  24912996.2814   24912992.3204
        33.2504         14.7504
  -2183718.83846  -1630034.71945  25141400.5704   25141392.8444
        38.2504         30.0004
 -20014327.96147 -15579891.81348  21374877.2734   21374872.6024
        47.5004         49.5004
 20  5  5  0 21 30.0000000  0 10G16G 6G 4G22G 9G31G26G14G 7G 3
 -23693642.51847 -18235915.48846  20571731.5004   20571724.2274
        47.5004         39.0004
   -969835.44146   -759202.65145  25241801.3364   25241797.2234
        36.5004         31.2504
 -26271251.68847 -20449137.99746  20631870.2664   20631863.1334
        46.7504         38.7504
 -14619958.05547 -11381221.35245  23018140.6094   23018130.9884
        43.7504         31.5004
 -14556801.52447 -11330197.13547  22731172.1254   22731167.3794
        43.7504         43.5004
  -5006425.46347  -4763629.89544  23920588.8524   23920581.3094
        42.2504         26.5004
 -19346779.68248 -15051906.04448  21252490.7974   21252486.3834
        48.2504         48.5004
                                  24929537.742
        30.750
  -2265909.63446  -1694079.52044  25125759.9304   25125751.9454
        37.5004         29.2504
 -19946599.20747 -15527116.18748  21387766.4144   21387760.8754
        46.7504         49.2504
 20  5  5  0 22  0.0000000  0 10G16G 6G 4G22G 9G31G26G14G 7G 3
 -23728485.64047 -18263065.98246  20565101.3204   20565093.3094
        47.2504         38.5004
   -947624.18246   -741895.22344  25246029.0554   25246023.7114
        38.5004         29.7504
 -26309938.02847 -20479283.21446  20624508.6644   20624501.5984
        47.2504         39.0004
 -14525061.94047 -11307276.35845  23036199.7194   23036189.3754
        44.5004         30.7504
 -14642375.45447 -11396878.11347  22714888.3054   22714883.3594
        43.0004         43.5004
  -4912716.46546  -4690609.92844  23938419.4774   23938413.5784
        41.2504         25.7504
 -19301262.77248 -15016438.33748  21261152.4304   21261148.0704
        49.0004         48.5004
  29801915.54415                  24946100.875
        33.000
  -2348016.81846  -1758059.18245  25110135.2894   25110128.2544
        39.5004         31.7504
 -19878405.70547 -15473978.40748  21400742.8914   21400737.8984
        47.7504         49.2504
 20  5  5  0 22 30.0000000  0 10G16G 6G 4G22G 9G31G26G14G 7G 3
 -23762677.38548 -18289708.90746  20558595.0784   20558587.1804
        48.0004         39.0004
   -924933.53046   -724214.19145  25250346.9224   25250341.5984
        37.5004         31.0004
 -26348312.11447 -20509185.11246  20617205.8054   20617199.2774
        47.2504         38.2504
 -14429943.97347 -11233158.48045  23054299.6254   23054289.8524
        44.5004         31.0004
 -14727823.25047 -11463460.80447  22698627.3674   22698623.5204
        43.0004         43.2504
  -4818994.83347  -4617580.14744  23956254.9774   23956248.4884
        42.0004         26.7504
 -19255207.45548 -14980551.09248  21269916.5164   21269911.8524
        48.5004         48.7504
  29889085.99845  23097328.88053  24962687.8914   24962682.5394
        34.7504         18.2504
  -2430034.59246  -1821969.10144  25094527.1954   25094520.2704
        37.5004         29.5004
 -19809744.20948 -15420475.96048  21413808.7734   21413803.6374
        48.0004         49.0004
 20  5  5  0 23  0.0000000  0 10G16G 6G 4G22G 9G31G26G14G 7G 3
 -23796218.53148 -18315844.87446  20552212.0554   20552204.2154
        48.7504         38.7504
   -901766.55646   -706162.04445  25254754.5164   25254750.4384
        36.5004         30.5004
 -26386374.22947 -20538843.91546  20609963.3594   20609956.3634
        47.5004         38.2504
 -14334608.68847 -11158871.26645  23072441.4304   23072431.4884
        43.5004         30.7504
 -14813145.21647 -11529945.42747  22682392.3284   22682386.6914
        44.5004         43.0004
  -4725263.20347  -4544542.56544  23974091.4224   23974085.0044
        42.0004         27.0004
 -19208617.41748 -14944247.17448  21278782.4694   21278777.9774
        48.2504         48.5004
  29976381.93446  23165351.63342  24979300.8204   24979295.3164
        37.0004         17.7504
  -2511964.64646  -1885810.78544  25078937.6884   25078929.9804
        39.0004         29.7504
 -19740618.77047 -15366612.00548  21426963.0394   21426958.3164
        47.5004         49.0004
 20  5  5  0 23 30.0000000  0 10G16G 6G 4G22G 9G31G26G14G 7G 3
 -23829107.80147 -18341472.87846  20545953.5704   20545945.6334
        47.5004         38.5004
   -878124.66546   -687739.85045  25259253.3594   25259249.4924
        36.7504         30.2504
 -26424122.77847 -20568258.37446  20602779.5784   20602773.1054
        47.5004         38.5004
 -14239058.64147 -11084416.72245  23090624.8524   23090614.4344
        44.0004         31.0004
 -14898339.50747 -11596330.58947  22666180.0554   22666174.6994
        43.7504         43.5004
  -4631522.55246  -4471497.97844  23991930.0164   23991923.1524
        41.0004         25.7504
 -19161494.32047 -14907527.88748  21287749.2584   21287744.8524
        47.7504         48.2504
  30063803.22946  23233472.06343  24995937.0554   24995930.4694
        37.5004         18.5004
  -2593806.05146  -1949583.28145  25063363.3594   25063356.4694
        38.2504         31.5004
 -19671031.34747 -15312388.05648  21440204.9384   21440200.3954
        47.7504         49.2504
 20  5  5  0 24  0.0000000  0 10G16G 6G 4G22G 9G31G26G14G 7G 3
 -23861344.40047 -18366592.31546  20539819.0554   20539811.2194
        47.7504         39.0004
   -854010.03945   -668949.23644  25263841.3754   25263838.3244
        34.2504         29.5004
 -26461556.82047 -20597427.76946  20595656.7034   20595649.5164
        47.5004         38.0004
 -14143296.84647 -11009797.17845  23108846.8914   23108837.6764
        44.0004         31.0004
 -14983405.12147 -11662615.47747  22649992.5634   22649987.0594
        44.2504         42.7504
  -4537774.37847  -4398447.51344  24009770.5084   24009762.4884
        42.0004         25.5004
 -19113840.59548 -14870395.13148  21296817.5394   21296813.1994
        48.0004         48.0004
  30151348.72945  23301689.26342  25012595.5944   25012590.5634
        34.2504         16.7504
  -2675558.49046  -2013286.53045  25047806.3914   25047798.6374
        39.0004         32.0004
 -19600984.80447 -15257806.35348  21453534.6484   21453529.9344
        47.7504         49.5004
 20  5  5  0 24 30.0000000  0 10G16G 6G 4G22G 9G31G26G14G 7G 3
 -23892926.77347 -18391201.96246  20533808.9384   20533800.9734
        46.5004         38.5004
   -829423.40045   -649790.86544  25268520.5084   25268517.2704
        34.7504         29.7504
 -26498674.29047 -20626350.49346  20588593.1254   20588586.4574
        47.5004         39.0004
 -14047325.22147 -10935014.12645  23127109.6484   23127100.2544
        44.5004         31.5004
 -15068339.84547 -11728798.38547  22633829.7894   22633824.5554
        44.5004         43.0004
  -4444019.36646  -4325391.73544  24027610.8754   24027603.8484
        41.0004         25.0004
 -19065657.57848 -14832849.94148  21305986.6884   21305982.2934
        48.0004         48.2504
  30239018.13445  23370002.96342  25029278.9694   25029274.2074
        32.0004         14.7504
  -2757221.96946  -2076920.44045  25032266.6174   25032259.0164
        38.5004         31.7504
 -19530480.73847 -15202868.14148  21466950.7664   21466946.4264
        47.7504         49.0004
 20  5  5  0 25  0.0000000  0 10G16G 6G 4G22G 9G31G26G14G 7G 3
 -23923854.41847 -18415301.43746  20527924.2194   20527915.8874
        47.7504         38.7504
   -804366.73146   -630266.25945  25273289.9844   25273285.2194
        37.7504         31.7504
 -26535474.00447 -20655025.60346  20581590.6024   20581583.5944
        46.7504         38.2504
 -13951146.50447 -10860069.70645  23145412.0314   23145402.1884
        44.0004         31.5004
 -15153142.36147 -11794878.27347  22617693.0004   22617687.0864
        44.5004         43.7504
  -4350258.55346  -4252331.39044  24045453.3984   24045445.7464
        41.2504         25.2504
 -19016947.46947 -14794894.02448  21315255.7344   21315251.2424
        47.7504         48.2504
  30326810.87245  23438412.88142  25045985.3054   25045980.8794
        34.5004         17.2504
  -2838796.56446  -2140485.09245  25016743.2424   25016735.5594
        38.5004         30.7504
 -19459521.73747 -15147575.44148  21480453.8984   21480449.3674
        46.5004         48.7504
 20  5  5  0 25 30.0000000  0 10G16G 6G 4G22G 9G31G26G14G 7G 3
 -23954125.81847 -18438889.54446  20522163.3914   20522155.2974
        47.5004         38.7504
   -778841.64646   -610376.59345  25278145.8984   25278143.2424
        36.5004         30.2504
 -26571954.56447 -20683452.02146  20574648.5394   20574641.7734
        47.0004         38.7504
 -13854763.38747 -10784966.01045  23163753.2664   23163743.2624
        43.5004         30.7504
 -15237811.15347 -11860853.95547  22601580.3204   22601575.5124
        43.7504         43.7504
  -4256493.12146  -4179267.48044  24063296.3284   24063288.6414
        41.5004         26.0004
 -18967712.28847 -14756528.97348  21324625.0234   21324620.3984
        47.5004         48.5004
  30414726.33445  23506918.33142  25062715.9144   25062710.3404
        34.7504         16.7504
  -2920281.42446  -2203979.83745  25001237.3134   25001229.9024
        38.7504         32.0004
 -19388110.13647 -15091930.06548  21494043.1564   21494038.3164
        47.0004         48.7504
 20  5  5  0 26  0.0000000  0 10G16G 6G 4G22G 9G31G26G14G 7G 3
 -23983740.20347 -18461965.69246  20516528.1024   20516520.3484
        47.2504         38.5004
   -752849.69545   -590123.15345  25283092.3444   25283088.2774
        35.7504         30.5004
 -26608114.46547 -20711628.59446  20567767.3984   20567760.7584
        46.5004         39.0004
 -13758178.46347 -10709705.06145  23182132.0704   23182122.7894
        43.7504         30.0004
 -15322344.57547 -11926724.13847  22585494.6174   22585489.6094
        44.0004         43.7504
  -4162724.17947  -4106200.81444  24081140.9614   24081131.9614
        42.5004         25.7504
 -18917953.96747 -14717756.26848  21334093.7814   21334089.1374
        47.7504         48.0004
  30502763.95145  23575519.07142  25079468.5704   25079463.7074
        34.0004         16.2504
  -3001676.93846  -2267404.92545  24985747.9694   24985740.9304
        37.2504         30.7504
 -19316248.23647 -15035933.79948  21507718.5164   21507713.6564
        47.7504         49.0004
 20  5  5  0 26 30.0000000  0 10G16G 6G 4G22G 9G31G26G14G 7G 3
 -24012693.73647 -18484526.89246  20511018.3204   20511010.4734
        47.7504         38.5004
   -726389.39945   -569504.76445  25288128.0394   25288123.5434
        35.7504         30.5004
 -26643949.19047 -20739551.77046  20560948.1724   20560941.6374
        46.2504         39.0004
 -13661391.48447 -10634286.66544  23200550.4384   23200540.4734
        43.7504         29.2504
 -15406737.85647 -11992485.12447  22569435.4224   22569429.9024
        44.0004         44.0004
  -4068949.37846  -4033129.59944  24098984.6174   24098977.0904
        41.5004         24.2504
 -18867671.35348 -14678575.03448  21343662.5084   21343657.8984
        48.0004         48.2504
                                  25096244.242
        27.250
  -3082979.12346  -2330757.31645  24970277.3914   24970269.3874
        38.5004         31.7504
 -19243935.20247 -14979586.00448  21521478.4384   21521473.8674
        47.7504         49.0004
 20  5  5  0 27  0.0000000  0 10G16G 6G 4G22G 9G31G26G14G 7G 3
 -24040994.27447 -18506579.27146  20505632.8134   20505625.1954
        47.2504         39.0004
   -699471.56346   -548529.85645  25293249.9774   25293245.5204
        36.7504         31.7504
 -26679466.35147 -20767227.49346  20554189.4534   20554183.0084
        46.7504         39.0004
 -13564413.96847 -10558719.79744  23219004.1484   23218994.8054
        43.5004         28.5004
 -15490998.52047 -12058142.77547  22553400.7814   22553396.0124
        44.2504         44.2504
  -3975178.69746  -3960061.57643  24116828.8524   24116821.8714
        41.2504         23.7504
 -18816875.60847 -14638993.95548  21353328.5234   21353324.1134
        47.7504         48.0004
  30679204.47915                  25113045.023
        30.250
  -3164196.70546  -2394043.73345  24954821.4694   24954814.3054
        37.2504         30.7504
 -19171182.51847 -14922895.62748  21535323.2814   21535318.1604
        47.7504         48.7504
 20  5  5  0 27 30.0000000  0 10G16G 6G 4G22G 9G31G26G14G 7G 3
 -24068632.11347 -18528115.25246  20500373.7894   20500365.7974
        47.0004         39.0004
   -672088.89146   -527192.73845  25298461.0084   25298456.7934
        37.5004         31.2504
 -26714655.68047 -20794647.76846  20547493.4144   20547486.6644
        46.0004         39.2504
 -13467239.75447 -10482999.67245  23237496.1954   23237486.6764
        43.7504         30.0004
 -15575116.11747 -12123688.96647  22537393.9614   22537388.5904
        44.2504         44.7504
  -3881404.38746  -3886990.73544  24134672.8594   24134666.1914
        41.2504         24.0004
 -18765559.89347 -14599007.70648  21363093.2274   21363088.9534
        47.0004         48.2504
  30767605.31215                  25129867.039
        34.250
  -3245321.04246  -2457257.54845  24939383.9144   24939376.5634
        38.7504         31.0004
 -19097983.70547 -14865857.61948  21549252.3204   21549247.7034
        47.2504         48.5004
 20  5  5  0 28  0.0000000  0 11G16G 6G27G 4G22G 9G31G26G14G 7G 3
 -24095609.29047 -18549136.42946  20495239.9534   20495232.1764
        47.0004         38.7504
   -644246.11245   -505497.07745  25303758.2814   25303755.3404
        35.2504         30.0004
    -73306.03955    -35808.79854  25104203.6484   25104199.3484
        35.0004         26.0004
 -26749518.64547 -20821813.72746  20540859.1724   20540852.3834
        46.2504         38.7504
 -13369874.07847 -10407130.34545  23256024.7664   23256014.6414
        43.5004         30.0004
 -15659091.91247 -12189124.65847  22521414.4224   22521408.2194
        45.0004         44.2504
  -3787630.56546  -3813920.29344  24152518.5864   24152510.7854
        41.5004         26.0004
 -18713729.11947 -14558620.10548  21372956.6254   21372952.0664
        47.7504         48.2504
  30856125.90345  23543624.84953  25146710.4454   25146704.2814
        33.5004         19.7504
  -3326354.25346  -2520400.30445  24923964.0164   24923956.9774
        38.2504         32.2504
 -19024344.01148 -14808476.05948  21563265.8134   21563260.8284
        48.0004         48.5004
 20  5  5  0 28 30.0000000  0 11G16G 6G27G 4G22G 9G31G26G14G 7G 3
 -24121925.60347 -18569642.66146  20490231.9614   20490224.3094
        46.5004         39.0004
   -615945.29746   -483444.53545  25309144.4924   25309140.8324
        37.0004         31.7504
   -169107.25446   -110459.10445  25085973.6174   25085969.2504
        37.5004         30.5004
 -26784054.23347 -20848724.58646  20534286.8134   20534280.5234
        46.0004         39.2504
 -13272320.15147 -10331114.32844  23274588.7034   23274578.8134
        44.0004         29.5004
 -15742924.71147 -12254448.91747  22505461.0474   22505455.6914
        44.5004         44.2504
  -3693858.47446  -3740851.19244  24170362.6094   24170355.3554
        41.5004         24.0004
 -18661385.85647 -14517833.16948  21382916.8674   21382912.4534
        47.7504         48.0004
  30944765.22146  23612694.36442  25163578.0634   25163572.3794
        36.2504         16.7504
  -3407296.91746  -2583472.54645  24908560.6334   24908554.2304
        38.0004         31.0004
 -18950266.30947 -14750753.19348  21577362.1804   21577357.5944
        47.2504         48.5004
 20  5  5  0 29  0.0000000  0 10G16G 6G27G 4G22G 9G31G26G 7G 3
 -24147577.01347 -18589630.77046  20485350.7424   20485343.0824
        46.7504         39.0004
   -587185.03646   -461033.95545  25314617.1094   25314613.7894
        37.0004         31.0004
   -264942.27746   -185135.83844  25067735.7974   25067731.4024
        37.0004         27.0004
 -26818257.82247 -20875376.75146  20527778.3054   20527771.7464
        46.2504         39.5004
 -13174577.53347 -10254951.28144  23293188.7344   23293178.7544
        44.0004         29.0004
 -15826609.73347 -12319658.03447  22489536.2664   22489530.8244
        44.0004         44.5004
  -3600085.82047  -3667781.64844  24188207.3134   24188199.7734
        42.2504         26.5004
 -18608528.92847 -14476645.96548  21392975.4454   21392971.2114
        47.5004         48.0004
  -3488145.85946  -2646471.74745  24893176.5864   24893169.3204
        39.0004         32.7504
 -18875749.81447 -14692688.41348  21591542.0784   21591537.5904
        47.5004         48.5004
 20  5  5  0 29 30.0000000  0 10G16G 6G27G 4G22G 9G31G26G 7G 3
 -24172567.63047 -18609103.99446  20480595.0784   20480587.9144
        46.5004         39.0004
   -557972.02246   -438270.59645  25320176.2504   25320172.7154
        37.5004         32.2504
   -360812.71346   -259840.18445  25049493.3674   25049489.0204
        39.7504         31.2504
 -26852132.88147 -20901772.91846  20521332.0164   20521325.9494
        46.2504         39.2504
 -13076653.72547 -10178647.06444  23311822.3284   23311812.9574
        43.2504         29.7504
