     2.11           OBSERVATION DATA    G (GPS)             RINEX VERSION / TYPE
teqc  2008Oct2                          20220511 04:14:55UTCPGM / RUN BY / DATE
MSXP|IAx86-PII|bcc32 5.0|MSWin95->XP|486/DX+                COMMENT
BIT 2 OF LLI FLAGS DATA COLLECTED UNDER A/S CONDITION       COMMENT
NtRSkaza                                                    MARKER NAME
kaza                                                        MARKER NUMBER
-Unknown-           -Unknown-                               OBSERVER / AGENCY
4752143407          TRIMBLE NETRS       NP 1.32 / SP 0.00   REC # / TYPE / VERS
30895097            TRM55971.00                             ANT # / TYPE
  1325807.2570  4606495.8222  4195524.6386                  APPROX POSITION XYZ
        0.1705        0.0000        0.0000                  ANTENNA: DELTA H/E/N
     1     1                                                WAVELENGTH FACT L1/2
     7    L1    L2    C1    P2    P1    S1    S2            # / TYPES OF OBSERV
 SNR is mapped to RINEX snr flag value [0-9]                COMMENT
  L1 & L2: min(max(int(snr_dBHz/6), 0), 9)                  COMMENT
  2020     5     3     0     0    0.0000000     GPS         TIME OF FIRST OBS
                                                            END OF HEADER
 20  5  3  0  0  0.0000000  0  9G16G 6G22G 9G 4G26G 3G14G31
 -20214624.75947 -16044135.54646  21172842.7894   21172835.2854
        47.0004         37.0004
  -1689912.76146  -1318227.00045  25166000.7814   25165996.7344
        38.0004         30.0004
 -20118518.55947 -15656156.38546  22030507.8914   22030498.4774
        47.5004         36.2504
  -9625599.64346  -7479609.32346  23723416.4924   23723411.9734
        40.2504         38.2504
 -23706245.28147 -18458460.92946  21162988.7034   21162982.4224
        46.5004         36.5004
 -21086980.25048 -16544609.32348  20930684.8524   20930680.2854
        49.0004         50.0004
 -23341038.33547 -18172145.19248  20788122.4844   20788117.9184
        47.5004         51.7504
  -6867975.26546  -5156129.21843  23990576.1884   23990569.9924
        38.2504         20.0004
 -12048593.56547  -9238047.48546  22864792.9454   22864785.2234
        45.0004         41.7504
 20  5  3  0  0 30.0000000  0  9G16G 6G22G 9G 4G26G 3G14G31
 -20284823.54347 -16098835.88946  21159484.4774   21159476.7034
        47.5004         36.2504
  -1698146.69346  -1324643.08744  25164434.4224   25164429.9884
        37.5004         29.7504
 -20041374.26947 -15596043.96246  22045187.9224   22045178.3634
        46.7504         36.0004
  -9716026.07946  -7550071.43646  23706209.2814   23706204.2384
        40.7504         38.5004
 -23760791.05247 -18500964.12246  21152609.2584   21152602.5434
        45.5004         37.0004
 -21076139.09848 -16536161.67748  20932747.8984   20932743.2194
        48.7504         50.2504
 -23304118.61947 -18143376.59648  20795148.1484   20795143.6294
        47.7504         52.0004
  -6789214.93246  -5094757.58843  24005564.0084   24005557.7074
        37.5004         19.0004
 -11957835.49547  -9167326.96147  22882063.6884   22882055.7114
        44.7504         42.0004
 20  5  3  0  1  0.0000000  0  9G16G 6G22G 9G 4G26G 3G14G31
 -20354486.36547 -16153118.60846  21146228.0394   21146220.1374
        46.5004         36.5004
  -1705851.36946  -1330646.76545  25162967.9064   25162963.7304
        38.0004         30.0004
 -19963863.89747 -15535646.29746  22059937.6724   22059928.4104
        46.5004         36.0004
  -9806405.01646  -7620496.58446  23689008.9384   23689005.4144
        39.7504         38.2504
 -23815107.76847 -18543288.82946  21142273.1484   21142266.1174
        46.2504         36.5004
 -21064684.62047 -16527236.11448  20934927.8054   20934922.9264
        47.2504         50.0004
 -23266631.08948 -18114165.54348  20802281.8914   20802277.1214
        48.0004         51.5004
  -6710303.55946  -5033268.20243  24020581.3444   24020573.5164
        38.7504         21.0004
 -11866985.95247  -9096535.15647  22899351.5084   22899344.1214
        45.2504         42.0004
 20  5  3  0  1 30.0000000  0  9G16G 6G22G 9G 4G26G 3G14G31
 -20423611.66547 -16206982.47346  21133073.9224   21133066.0744
        47.5004         37.0004
  -1713028.05046  -1336239.03044  25161602.6094   25161597.1914
        37.5004         29.5004
 -19885990.65447 -15474965.87245  22074756.3834   22074747.0984
        47.2504         35.5004
  -9896736.41546  -7690884.66046  23671820.9064   23671816.2894
        40.7504         38.7504
 -23869195.27147 -18585434.93246  21131980.4304   21131973.6334
        46.0004         37.0004
 -21052618.47548 -16517833.93148  20937223.7034   20937219.2934
        48.7504         50.0004
 -23228577.91548 -18084513.73148  20809522.7344   20809518.3794
        48.0004         51.5004
  -6631242.52846  -4971662.23943  24035625.7114   24035619.1254
        39.7504         22.2504
 -11776047.45447  -9025674.02646  22916656.3204   22916648.6804
        44.2504         41.2504
 20  5  3  0  2  0.0000000  0  9G16G 6G22G 9G 4G26G 3G14G31
 -20492196.77547 -16260425.42446  21120022.3524   21120015.0904
        47.5004         36.2504
  -1719677.22946  -1341420.23245  25160337.3204   25160332.2194
        36.7504         30.2504
 -19807757.21147 -15414004.76146  22089643.8594   22089634.2234
        47.0004         36.0004
  -9987019.42346  -7761235.05346  23654640.0474   23654635.2424
        40.7504         38.5004
 -23923052.44447 -18627401.55046  21121731.7894   21121725.0634
        46.0004         36.7504
 -21039941.51548 -16507955.79448  20939635.6414   20939631.5594
        48.5004         50.0004
 -23189960.39648 -18054422.17648  20816871.6724   20816867.0784
        48.0004         51.5004
  -6552032.27646  -4909940.03443  24050699.4614   24050692.5634
        39.7504         22.5004
 -11685021.84547  -8954745.02946  22933978.2974   22933970.7034
        44.2504         41.2504
 20  5  3  0  2 30.0000000  0  9G16G 6G22G 9G 4G26G 3G14G31
 -20560239.34147 -16313445.60846  21107074.6644   21107066.9224
        47.5004         37.2504
  -1725798.82546  -1346190.34745  25159172.3284   25159167.5864
        36.7504         30.0004
 -19729165.28247 -15352764.31145  22104599.8524   22104590.1054
        46.5004         35.2504
 -10077252.60946  -7831546.60846  23637470.5164   23637464.3874
        41.2504         38.0004
 -23976677.70247 -18669187.46146  21111527.2894   21111520.8364
        46.0004         36.2504
 -21026654.09748 -16497601.96848  20942164.5004   20942159.5864
        48.7504         50.0004
 -23150779.36748 -18023891.51448  20824327.7344   20824322.8794
        48.0004         51.5004
  -6472672.84446  -4848101.54343  24065800.5004   24065793.8324
        38.5004         22.5004
 -11593910.43847  -8883749.14746  22951316.3444   22951308.4774
        44.0004         41.5004
 20  5  3  0  3  0.0000000  0  9G16G 6G22G 9G 4G26G 3G14G31
 -20627736.58247 -16366040.85746  21094230.0634   21094222.6884
        47.5004         36.5004
  -1731392.85046  -1350549.36345  25158108.5314   25158103.0984
        37.0004         30.0004
 -19650216.54847 -15291245.83345  22119622.8524   22119613.3444
        46.7504         35.5004
 -10167434.74546  -7901818.38646  23620309.4534   23620303.1214
        41.7504         38.0004
 -24030069.55747 -18710791.49946  21101366.8754   21101360.7854
        45.7504         37.0004
 -21012756.66248 -16486772.80548  20944809.1804   20944804.5084
        48.2504         50.2504
 -23111035.78748 -17992922.50348  20831890.4224   20831885.9144
        48.0004         51.5004
  -6393164.56546  -4786147.12643  24080930.8674   24080924.4574
        38.2504         21.0004
 -11502714.57147  -8812687.48446  22968670.4454   22968662.0164
        44.2504         41.0004
 20  5  3  0  3 30.0000000  0  9G16G 6G22G 9G 4G26G 3G14G31
 -20694685.89548 -16418209.15946  21081490.0004   21081482.7774
        48.0004         36.7504
  -1736459.54946  -1354497.48045  25157143.2974   25157139.1024
        36.0004         30.2504
 -19570913.46147 -15229451.24145  22134713.7114   22134704.0664
        46.7504         35.5004
 -10257564.55246  -7972049.42946  23603157.0164   23603151.9804
        40.0004         37.5004
 -24083226.61447 -18752212.58046  21091251.7814   21091245.0634
        46.7504         36.5004
 -20998249.84248 -16475468.79448  20947569.5864   20947564.9574
        49.2504         50.0004
 -23070730.74847 -17961515.99548  20839560.4224   20839555.6914
        47.7504         51.5004
  -6313507.25746  -4724076.56343  24096089.6484   24096082.4804
        37.5004         19.7504
 -11411435.71447  -8741561.12946  22986039.9064   22986031.9304
        45.0004         40.7504
 20  5  3  0  4  0.0000000  0  9G16G 6G22G 9G 4G26G 3G14G31
 -20761085.26847 -16469948.92346  21068854.6884   21068846.9654
        47.2504         37.0004
  -1740999.81646  -1358035.39045  25156279.7194   25156274.8634
        37.5004         30.2504
 -19491258.90047 -15167382.77145  22149871.7194   22149862.1914
        47.0004         35.5004
 -10347641.56846  -8042239.28246  23586016.5784   23586011.7624
        41.0004         38.2504
 -24136148.10047 -18793450.09146  21081180.9454   21081174.2854
        46.5004         37.2504
 -20983134.94748 -16463690.96248  20950445.7504   20950441.8404
        48.5004         50.0004
 -23029866.04248 -17929673.37848  20847336.9144   20847332.2304
        48.7504         51.5004
  -6233701.83846  -4661890.63543  24111276.0084   24111268.9224
        37.7504         19.5004
 -11320075.96547  -8670371.75546  23003425.7734   23003417.1134
        45.0004         41.5004
 20  5  3  0  4 30.0000000  0  9G16G 6G22G 9G 4G26G 3G14G31
 -20826932.15747 -16521258.19746  21056324.4454   21056316.8014
        47.0004         37.0004
  -1745013.99646  -1361163.35645  25155515.5704   25155511.5944
        38.5004         30.2504
 -19411255.04947 -15105042.12345  22165095.5944   22165086.2584
        47.2504         35.2504
 -10437664.62346  -8112387.09046  23568885.2424   23568881.1524
        41.2504         39.2504
 -24188832.77247 -18834503.07746  21071155.3914   21071148.9304
        46.5004         36.7504
 -20967412.74948 -16451439.90248  20953438.0394   20953433.2384
        48.2504         50.0004
 -22988442.88748 -17897395.60648  20855219.2894   20855214.4304
        48.5004         51.5004
  -6153748.71646  -4599589.54843  24126490.7344   24126483.3054
        39.0004         21.2504
 -11228637.21247  -8599120.79846  23020825.6884   23020817.6024
        44.5004         40.7504
 20  5  3  0  5  0.0000000  0  9G16G 6G22G 9G 4G26G 3G14G31
 -20892224.20947 -16572135.12346  21043899.6564   21043892.0594
        47.7504         37.5004
  -1748502.29346  -1363881.55745  25154851.2194   25154847.9104
        37.2504         30.0004
 -19330904.05747 -15042430.98445  22180386.0394   22180376.7464
        47.0004         34.5004
 -10527632.38946  -8182491.83346  23551764.9534   23551760.5164
        40.7504         39.5004
 -24241279.07747 -18875370.32246  21061175.1094   21061168.5634
        47.0004         37.0004
 -20951083.87948 -16438716.12248  20956545.0164   20956540.4064
        48.5004         50.0004
 -22946462.37248 -17864683.53848  20863207.7344   20863203.3094
        49.2504         51.5004
  -6073648.27746  -4537173.60743  24141732.4384   24141725.9264
        38.7504         19.7504
 -11137120.40147  -8527809.03246  23038240.1414   23038232.8244
        43.5004         40.5004
 20  5  3  0  5 30.0000000  0  9G16G 6G22G 9G 4G26G 3G14G31
 -20956958.58247 -16622577.49246  21031581.5164   21031573.7194
        47.7504         37.5004
  -1751464.70046  -1366189.96345  25154288.8054   25154284.0554
        37.2504         30.5004
 -19250208.04647 -14979550.99045  22195742.1094   22195732.3014
        46.7504         34.7504
 -10617543.44346  -8252552.34346  23534656.7734   23534651.0944
        41.7504         40.0004
 -24293485.40447 -18916050.58446  21051240.6564   21051233.9454
        46.7504         36.7504
 -20934148.76048 -16425519.93548  20959767.7734   20959763.2384
        49.0004         50.0004
 -22903925.45948 -17831537.89748  20871302.2114   20871297.4844
        48.7504         51.5004
  -5993400.08246  -4474642.58543  24157004.2274   24156996.6524
        39.2504         20.7504
 -11045526.97447  -8456437.57046  23055669.5554   23055662.2274
        43.7504         40.0004
 20  5  3  0  6  0.0000000  0  9G16G 6G22G 9G 4G26G 3G14G31
 -21021132.78547 -16672583.36046  21019369.4384   21019361.2854
        47.0004         37.7504
  -1753901.72946  -1368089.00545  25153824.4304   25153820.5204
        36.5004         30.5004
 -19169169.01447 -14916403.71545  22211163.4614   22211153.9924
        46.5004         34.7504
 -10707396.71346  -8322567.86146  23517557.1954   23517552.6024
        41.5004         39.5004
 -24345450.50547 -18956542.85746  21041351.9304   21041345.5434
        47.5004         36.7504
 -20916608.33348 -16411852.07448  20963105.5234   20963101.2774
        48.0004         50.0004
 -22860833.49248 -17797959.75148  20879502.8834   20879497.7934
        49.2504         51.5004
  -5913004.79146  -4411996.96543  24172302.4454   24172295.3364
        37.7504         19.7504
 -10953858.66247  -8385007.75646  23073114.5164   23073106.2774
        44.0004         40.2504
 20  5  3  0  6 30.0000000  0  9G16G 6G22G 9G 4G26G 3G14G31
 -21084744.75847 -16722151.13446  21007264.5084   21007256.4144
        46.5004         37.2504
  -1755813.77146  -1369578.95345  25153461.3984   25153456.3364
        37.0004         30.2504
 -19087789.29547 -14852990.96345  22226649.8054   22226640.0314
        47.2504         34.5004
 -10797191.01546  -8392537.42646  23500470.1884   23500464.4534
        41.5004         38.5004
 -24397172.99447 -18996846.09946  21031509.3594   21031502.9064
        47.2504         36.5004
 -20898463.36748 -16397713.15548  20966558.5164   20966553.9384
        49.2504         50.0004
 -22817187.70248 -17763950.05848  20887807.6484   20887803.4384
        49.2504         51.5004
  -5832462.79046  -4349237.03843  24187628.7034   24187622.7154
        37.2504         20.0004
 -10862116.64147  -8313520.49746  23090572.2424   23090564.6724
        44.2504         40.5004
 20  5  3  0  7  0.0000000  0  9G16G 6G22G 9G 4G26G 3G14G31
 -21147791.78547 -16771278.68946  20995267.1884   20995259.1884
        47.0004         37.5004
  -1757201.34146  -1370660.19745  25153196.4384   25153192.7734
        37.2504         30.7504
 -19006071.41647 -14789314.71645  22242199.9774   22242190.1644
        47.0004         34.0004
 -10886925.18646  -8462460.13246  23483394.1724   23483389.4304
        40.7504         38.5004
 -24448651.60147 -19036959.30346  21021713.7344   21021706.8714
        46.2504         36.7504
 -20879714.85947 -16383103.93848  20970126.2344   20970121.6644
        47.7504         50.0004
 -22772989.52948 -17729509.93548  20896218.6174   20896213.9844
        49.2504         51.5004
  -5751774.22846  -4286362.95843  24202984.0394   24202976.9694
        38.2504         21.5004
 -10770302.63247  -8241977.15646  23108043.1484   23108035.9614
        43.5004         40.5004
 20  5  3  0  7 30.0000000  0  9G16G 6G22G 9G 4G26G 3G14G31
 -21210271.88447 -16819964.49146  20983377.2504   20983369.8364
        47.0004         37.0004
  -1758065.13146  -1371333.34445  25153032.7114   25153028.3364
        37.5004         31.7504
 -18924017.88747 -14725376.92145  22257813.6644   22257804.4774
        46.2504         35.5004
 -10976598.30846  -8532335.27346  23466329.7974   23466324.7664
        40.7504         38.0004
 -24499885.20647 -19076881.58846  21011964.0704   21011957.8444
        46.7504         36.7504
 -20860363.85248 -16368025.24548  20973808.4534   20973803.7734
        49.0004         50.0004
 -22728240.51448 -17694640.58248  20904733.9694   20904729.2934
        50.0004         51.2504
  -5670939.82846  -4223375.16843  24218365.5234   24218359.3404
        37.5004         20.2504
 -10678418.36447  -8170379.05846  23125528.9144   23125521.0164
        44.0004         40.5004
 20  5  3  0  8  0.0000000  0  9G16G 6G22G 9G 4G26G 3G14G31
 -21272182.27947 -16868206.35146  20971596.6564   20971588.6564
        46.5004         37.7504
  -1758405.35346  -1371598.49245  25152967.9534   25152964.0514
        37.5004         31.5004
 -18841630.70947 -14661179.14845  22273491.9384   22273482.2234
        46.2504         34.7504
 -11066208.91446  -8602161.70346  23449276.9844   23449272.3714
        41.2504         38.7504
 -24550872.15747 -19116611.68046  21002261.5704   21002255.0084
        46.2504         37.0004
 -20840411.02048 -16352477.59148  20977605.4844   20977601.0164
        48.0004         50.0004
 -22682941.75248 -17659342.87048  20913354.4304   20913349.4534
        49.0004         51.2504
  -5589959.52946  -4160273.72643  24233776.4224   24233769.5784
        40.0004         20.0004
 -10586465.02547  -8098727.15346  23143026.3594   23143018.5744
        43.5004         39.7504
 20  5  3  0  8 30.0000000  0  9G16G 6G22G 9G 4G26G 3G14G31
 -21333521.46047 -16916003.12746  20959923.7034   20959915.7814
        47.0004         37.5004
  -1758223.25246  -1371456.66745  25153002.8984   25152997.8554
        37.5004         30.5004
 -18758913.15347 -14596723.92545  22289232.5784   22289222.8674
        45.7504         34.7504
 -11155756.51546  -8671939.04946  23432236.2974   23432231.9774
        41.0004         39.7504
 -24601611.91947 -19156149.15146  20992605.7974   20992599.3954
        46.7504         37.2504
 -20819858.11847 -16336462.34948  20981516.2034   20981512.1724
        47.5004         50.0004
 -22637095.40948 -17623618.45648  20922078.1644   20922073.7974
        48.2504         51.2504
  -5508834.27446  -4097059.28243  24249214.0784   24249207.5314
        40.2504         20.2504
 -10494444.73447  -8027023.05746  23160537.3984   23160529.8554
        43.0004         40.0004
 20  5  3  0  9  0.0000000  0  9G16G 6G22G 9G 4G26G 3G14G31
 -21394286.37647 -16963352.40846  20948360.7664   20948352.9654
        47.0004         37.7504
  -1757518.28846  -1370907.37645  25153136.6174   25153132.2304
        38.0004         30.5004
 -18675866.16047 -14532012.01045  22305036.1414   22305026.4884
        46.0004         35.2504
 -11245238.87847  -8741665.53546  23415209.4064   23415204.3404
        42.2504         40.5004
 -24652101.97947 -19195492.04746  20982997.9064   20982991.5784
        46.0004         37.5004
 -20798704.91248 -16319979.34248  20985541.7194   20985537.4344
        48.5004         50.0004
 -22590701.76948 -17587467.57448  20930906.7734   20930902.3164
        49.7504         51.2504
  -5427563.42746  -4033731.39543  24264680.0474   24264672.7304
        40.2504         19.2504
 -10402357.97247  -7955267.18346  23178061.5864   23178053.7194
        43.7504         40.0004
 20  5  3  0  9 30.0000000  0  9G16G 6G22G 9G 4G26G 3G14G31
 -21454475.13447 -17010252.74946  20936907.2664   20936899.5824
        47.5004         37.0004
  -1756291.57646  -1369951.50845  25153370.1484   25153365.4734
        36.7504         30.2504
 -18592492.97147 -14467045.90145  22320900.9694   22320891.7154
        46.5004         34.5004
 -11334655.31446  -8811340.66646  23398193.3284   23398189.1804
        41.2504         40.5004
 -24702341.54147 -19234639.76046  20973437.8674   20973431.4694
        47.0004         37.2504
 -20776952.97048 -16303029.79048  20989681.1414   20989676.9104
        48.2504         50.0004
 -22543762.84648 -17550891.80448  20939838.9224   20939834.4574
        49.5004         51.2504
  -5346148.22846  -3970291.00943  24280171.7034   24280165.2504
        37.2504         18.5004
 -10310206.68647  -7883461.01046  23195596.7974   23195589.4304
        43.5004         40.0004
 20  5  3  0 10  0.0000000  0  9G16G 6G22G 9G 4G26G 3G14G31
 -21514084.78847 -17056701.82846  20925563.9614   20925555.8634
        46.7504         37.5004
  -1754543.05446  -1368589.05845  25153702.7664   25153698.4104
        37.2504         31.5004
 -18508794.95947 -14401826.68745  22336828.5634   22336818.8134
        45.7504         34.0004
 -11424004.04546  -8880963.01346  23381191.2424   23381186.2854
        41.7504         40.0004
 -24752328.68047 -19273590.77546  20963925.8914   20963919.1644
        46.2504         37.5004
 -20754602.81048 -16285614.08948  20993934.1414   20993929.7344
        48.0004         50.0004
 -22496279.51548 -17513891.82348  20948874.8914   20948870.3444
        49.2504         51.2504
  -5264587.79246  -3906737.48042  24295693.0864   24295685.8874
        37.5004         17.2504
 -10217991.75047  -7811605.25546  23213144.9614   23213137.4574
        43.0004         40.0004
 20  5  3  0 10 30.0000000  0  9G16G 6G22G 9G 4G26G 3G14G31
 -21573114.44247 -17102698.96346  20914330.6024   20914322.8834
        47.5004         37.7504
  -1752274.52046  -1366821.39845  25154134.7274   25154130.6094
        37.2504         31.0004
 -18424775.37847 -14336356.90045  22352816.3284   22352807.0274
        46.5004         34.0004
 -11513284.95046  -8950532.53446  23364201.4924   23364196.5904
        41.2504         39.5004
 -24802063.12047 -19312344.88146  20954461.5314   20954455.0274
        47.2504         38.0004
 -20731656.49548 -16267733.85448  20998301.0784   20998296.6094
        48.2504         50.0004
 -22448254.32548 -17476469.60848  20958013.9454   20958008.8594
        49.0004         51.0004
  -5182884.04446  -3843072.28443  24311240.6954   24311233.7034
        37.7504         19.2504
 -10125715.64747  -7739701.83546  23230704.5084   23230697.1254
        43.0004         39.7504
 20  5  3  0 11  0.0000000  0  9G16G 6G22G 9G 4G26G 3G14G31
 -21631563.09347 -17148243.36546  20903208.5634   20903200.8874
        47.2504         37.5004
  -1749487.83946  -1364649.98645  25154665.4924   25154660.8634
        36.0004         31.5004
 -18340438.50547 -14270639.87645  22368865.9144   22368856.1094
        45.5004         34.0004
 -11602498.04847  -9020049.20946  23347225.2114   23347219.2934
        42.0004         39.5004
 -24851544.75747 -19350902.00146  20945045.7344   20945038.6334
        46.2504         38.2504
 -20708116.35647 -16249390.90248  21002780.0474   21002775.6954
        47.7504         50.0004
 -22399690.13248 -17438627.39948  20967255.3914   20967250.6644
        48.0004         51.0004
  -5101038.36545  -3779296.50143  24326813.7814   24326808.4184
        34.7504         20.7504
 -10033381.35447  -7667753.09646  23248275.5704   23248267.4924
        43.5004         39.2504
 20  5  3  0 11 30.0000000  0  9G16G 6G22G 9G 4G26G 3G14G31
 -21689424.25347 -17193329.99046  20892197.6644   20892190.0704
        46.7504         37.7504
  -1746179.42446  -1362072.02745  25155294.0164   25155290.5394
        37.0004         32.0004
 -18255782.28647 -14204674.00945  22384975.2504   22384965.5664
        46.5004         33.5004
 -11691637.89746  -9089508.84246  23330261.1884   23330256.4844
        41.0004         39.5004
 -24900768.07947 -19389257.83646  20935678.2274   20935671.7234
        47.0004         37.7504
 -20683979.33947 -16230582.84548  21007373.8364   21007369.0944
        47.7504         50.0004
 -22350584.15048 -17400363.00648  20976600.2584   20976595.3754
        48.7504         51.0004
  -5019047.46946  -3715407.62043  24342418.4614   24342410.4844
        37.5004         19.5004
  -9940985.97347  -7595756.73646  23265857.2114   23265850.1644
        43.0004         40.0004
 20  5  3  0 12  0.0000000  0  9G16G 6G22G 9G 4G26G 3G14G31
 -21746698.37847 -17237959.18546  20881298.5474   20881290.7734
        47.2504         37.5004
  -1742352.48646  -1359090.00645  25156023.1334   25156018.5164
        37.0004         32.5004
 -18170811.81647 -14138463.26745  22401144.0314   22401134.4414
        45.2504         34.0004
 -11780705.82146  -9158912.41346  23313313.1644   23313307.5704
        41.0004         39.2504
 -24949734.19047 -19427413.24546  20926360.5234   20926353.9144
        46.5004         37.5004
 -20659249.02948 -16211312.47948  21012079.6174   21012075.0514
        48.0004         50.2504
 -22300940.51648 -17361679.67248  20986046.4774   20986042.2384
        48.7504         51.0004
  -4936913.60046  -3651407.33343  24358048.4924   24358041.3754
        38.7504         21.0004
  -9848533.13247  -7523715.60046  23283450.7274   23283443.6024
        43.0004         39.5004
 20  5  3  0 12 30.0000000  0  9G16G 6G22G 9G 4G26G 3G14G31
 -21803383.06647 -17282129.06546  20870511.8914   20870504.4344
        47.2504         37.2504
  -1738007.50246  -1355704.32645  25156850.0864   25156845.5124
        37.2504         31.7504
 -18085528.88847 -14072009.05945  22417373.0004   22417363.7544
        46.2504         34.0004
 -11869700.15346  -9228258.62646  23296377.7894   23296372.8284
        41.2504         39.5004
 -24998441.40947 -19465366.91946  20917092.0164   20917085.3054
        46.5004         37.0004
 -20633926.24448 -16191580.44648  21016898.2734   21016893.7344
        48.0004         50.0004
 -22250760.40748 -17322578.30048  20995595.7584   20995591.1214
        48.5004         51.0004
  -4854636.55346  -3587295.39343  24373704.8594   24373697.3914
        38.5004         18.5004
  -9756024.24947  -7451630.81046  23301055.2504   23301047.2154
        43.2504         39.5004
 20  5  3  0 13  0.0000000  0  9G16G 6G22G 9G 4G26G 3G14G31
 -21859476.27747 -17325838.07046  20859838.2504   20859830.0084
        46.5004         37.2504
  -1733145.17446  -1351915.51745  25157775.0554   25157770.6334
        36.7504         31.5004
 -17999935.92047 -14005313.26145  22433661.3204   22433651.5984
        45.5004         33.7504
 -11958619.76346  -9297546.63046  23279456.6644   23279452.2814
        40.7504         39.7504
 -25046888.41647 -19503117.84246  20907872.8834   20907866.1054
        47.0004         37.7504
 -20608012.25547 -16171387.73048  21021829.4774   21021825.1914
        47.5004         50.0004
 -22200045.55148 -17283060.25348  21005246.3834   21005241.8524
        48.5004         51.0004
  -4772217.55046  -3523072.78943  24389388.6954   24389381.2664
        38.2504         18.5004
  -9663460.62147  -7379503.34846  23318668.9064   23318661.5904
        42.5004         39.5004
 20  5  3  0 13 30.0000000  0  9G16G 6G22G 9G 4G26G 3G14G31
 -21914975.57447 -17369084.27346  20849276.6804   20849268.5944
        46.7504         37.5004
  -1727766.03746  -1347723.98045  25158798.1564   25158794.2974
        37.0004         31.5004
 -17914035.16847 -13938377.62545  22450007.2814   22449997.9024
        45.7504         34.0004
 -12047463.13946  -9366775.18746  23262551.0784   23262545.8484
        41.2504         40.5004
 -25095073.60047 -19540664.73346  20898703.5394   20898696.8244
        47.2504         38.0004
 -20581507.94947 -16150735.03248  21026873.5234   21026868.9264
        47.0004         50.0004
 -22148797.23548 -17243126.50148  21014998.6414   21014993.7854
        48.0004         50.7504
  -4689656.71145  -3458739.76942  24405097.6334   24405091.8364
        35.5004         17.2504
  -9570843.45847  -7307334.17446  23336293.7894   23336286.0744
        43.5004         39.5004
 20  5  3  0 14  0.0000000  0  9G16G 6G22G 9G 4G26G 3G14G31
 -21969878.23747 -17411865.57046  20838829.1804   20838821.1174
        47.2504         37.7504
  -1721870.22846  -1343129.87145  25159920.0164   25159916.0474
        36.7504         31.7504
 -17827828.59147 -13871203.69545  22466412.4454   22466402.3244
        45.7504         33.5004
 -12136228.44546  -9435942.94546  23245659.2734   23245654.2894
        41.5004         40.0004
 -25142995.03747 -19578006.12246  20889584.3594   20889577.5864
        47.5004         37.7504
 -20554414.02547 -16129622.89048  21032028.2894   21032024.4654
        47.7504         50.0004
 -22097016.56248 -17202777.94548  21024852.0554   21024847.3244
        49.0004         51.0004
  -4606953.44246  -3394295.85443  24420836.8054   24420830.1414
        37.7504         19.0004
  -9478173.67147  -7235123.99546  23353927.9844   23353920.1414
        42.5004         39.0004
 20  5  3  0 14 30.0000000  0  9G16G 6G22G 9G 4G26G 3G14G31
 -22024184.60547 -17454182.22346  20828494.7274   20828486.8054
        47.0004         38.2504
  -1715460.65946  -1338135.38245  25161140.4924   25161136.2774
        38.0004         30.7504
 -17741320.52847 -13803794.83545  22482873.7114   22482864.4264
        45.2504         33.7504
 -12224916.33547  -9505050.38346  23228781.9844   23228777.5554
        42.0004         40.5004
 -25190653.24947 -19615142.39446  20880515.0554   20880508.5594
        47.0004         38.0004
 -20526733.58847 -16108053.72048  21037296.2584   21037291.8794
        47.0004         50.0004
 -22044707.14548 -17162017.37448  21034806.0634   21034802.0474
        48.0004         50.7504
  -4524110.14446  -3329742.50142  24436602.0004   24436594.3954
        40.2504         17.2504
  -9385454.53147  -7162875.34446  23371572.1254   23371564.5044
        43.2504         39.0004
 20  5  3  0 15  0.0000000  0  9G16G 6G22G 9G 4G26G 3G14G31
 -22077890.87247 -17496031.26346  20818275.1334   20818267.2774
        47.0004         38.0004
  -1708536.38446  -1332739.86745  25162457.7344   25162453.4734
        36.7504         30.0004
 -17654511.88747 -13736151.76945  22499393.4614   22499383.9024
        45.5004         33.0004
 -12313523.98947  -9574095.29546  23211921.3204   23211915.9924
        42.0004         40.7504
 -25238045.31547 -19652071.28046  20871496.8444   20871490.3164
        47.7504         37.2504
 -20498466.41647 -16086027.35548  21042675.2814   21042670.9144
        47.0004         49.7504
 -21991869.07248 -17120844.86248  21044860.9064   21044856.4804
        48.5004         51.0004
  -4441125.66946  -3265079.38743  24452392.0314   24452386.8554
        38.2504         19.7504
  -9292685.63447  -7090587.92446  23389224.7664   23389217.9224
        43.0004         39.0004
 20  5  3  0 15 30.0000000  0  9G16G 6G22G 9G 4G26G 3G14G31
 -22130994.82847 -17537410.96646  20808169.5784   20808161.9734
        47.7504         38.0004
  -1701098.46646  -1326944.11145  25163873.9774   25163869.5234
        38.2504         31.7504
 -17567405.35147 -13668276.56445  22515969.1954   22515959.6804
        45.5004         33.5004
 -12402050.13347  -9643076.70546  23195075.1954   23195070.0434
        42.0004         40.2504
 -25285169.92247 -19688791.75446  20862529.3364   20862523.0314
        47.0004         38.0004
 -20469613.73547 -16063544.75848  21048166.1094   21048161.3754
        47.0004         49.7504
 -21938504.09948 -17079261.78648  21055016.0704   21055011.3484
        48.0004         50.7504
  -4358000.41046  -3200306.55343  24468210.8834   24468204.2894
        38.5004         20.2504
  -9199868.68547  -7018263.08946  23406887.6564   23406880.0044
        42.5004         38.7504
 20  5  3  0 16  0.0000000  0  9G16G 6G22G 9G 4G26G 3G14G31
 -22183495.79248 -17578320.81246  20798179.2894   20798171.5904
        48.0004         38.0004
  -1693148.38846  -1320749.26545  25165386.8134   25165382.1214
        39.0004         32.0004
 -17480003.66747 -13600171.37945  22532600.8914   22532591.3674
        45.0004         33.5004
 -12490494.14947  -9711994.10446  23178244.8054   23178240.2504
        42.0004         40.5004
 -25332026.41247 -19725303.30246  20853612.9144   20853606.4184
        47.7504         37.5004
 -20440177.69147 -16040607.58248  21053767.5164   21053762.7074
        47.0004         49.7504
 -21884614.65348 -17037270.01748  21065270.9144   21065266.0864
        48.2504         50.7504
  -4274735.87146  -3135425.21943  24484056.5314   24484050.2464
        40.5004         21.7504
  -9107005.53047  -6945902.23046  23424559.1414   23424551.5204
        43.0004         38.7504
 20  5  3  0 16 30.0000000  0  9G16G 6G22G 9G 4G26G 3G14G31
 -22235390.88948 -17618758.55046  20788303.8834   20788296.1994
        48.0004         38.2504
  -1684686.48246  -1314155.56545  25166994.7814   25166992.1414
        36.2504         30.7504
 -17392308.72147 -13531837.67245  22549289.3984   22549279.5394
        45.5004         33.2504
 -12578854.16347  -9780846.02846  23161430.7424   23161425.6524
        42.2504         40.5004
 -25378612.65747 -19761604.27046  20844747.8444   20844741.0394
        47.7504         37.0004
 -20410158.85447 -16017216.27948  21059480.0784   21059475.4884
        47.0004         49.7504
 -21830201.78247 -16994870.39948  21075625.2424   21075620.8634
        47.5004         50.5004
  -4191331.75146  -3070435.06242  24499926.3524   24499920.5904
        36.2504         17.7504
  -9014097.03647  -6873506.04146  23442238.7974   23442231.8244
        42.5004         39.0004
 20  5  3  0 17  0.0000000  0  9G16G 6G22G 9G 4G26G 3G14G31
 -22286677.38748 -17658722.05946  20778544.4774   20778536.5664
        48.5004         38.0004
  -1675712.75946  -1307163.09445  25168704.7424   25168699.9064
        37.7504         32.2504
 -17304322.54847 -13463277.03745  22566032.2274   22566022.8284
        45.0004         33.0004
 -12667128.08547  -9849630.88146  23144632.5394   23144627.5514
        42.0004         41.2504
 -25424926.60347 -19797693.06446  20835934.5314   20835928.2624
        47.2504         38.0004
 -20379557.85847 -15993371.34848  21065302.9384   21065298.6484
        47.0004         49.7504
 -21775266.51548 -16952063.70848  21086079.2584   21086074.8984
        48.5004         51.0004
  25825192.63255  20319064.46352  24515823.9924   24515819.2234
        32.7504         15.5004
  -8921143.80347  -6801074.99646  23459927.7114   23459920.8364
        42.7504         39.0004
 20  5  3  0 17 30.0000000  0  9G16G 6G22G 9G 4G26G 3G14G31
 -22337355.17647 -17698211.24846  20768900.6954   20768893.2584
        47.7504         38.0004
  -1666229.96446  -1299773.91545  25170509.2734   25170503.7584
        39.0004         31.7504
 -17216049.23447 -13394492.65345  22582829.7894   22582820.1414
        45.2504         32.5004
 -12755316.16747  -9918348.85046  23127851.0084   23127846.5274
        42.0004         41.2504
 -25470968.50648 -19833569.87446  20827172.8364   20827166.7734
        48.0004         37.5004
 -20348377.73347 -15969075.15248  21071236.3364   21071232.0314
        47.2504         49.5004
 -21719812.28247 -16908852.63548  21096631.7504   21096626.9614
        47.2504         50.5004
  25908874.97646  20384271.33943  24531749.1334   24531744.1334
        37.2504         20.2504
  -8828148.62947  -6728611.27046  23477623.8054   23477616.3554
        42.5004         38.2504
 20  5  3  0 18  0.0000000  0  9G16G 6G22G 9G 4G26G 3G14G31
 -22387421.96047 -17737224.32046  20759373.5234   20759365.6024
        47.0004         38.0004
  -1656238.42546  -1291988.30845  25172409.9454   25172405.9654
        37.5004         31.5004
 -17127490.34447 -13325485.75845  22599682.0784   22599672.6844
        44.5004         33.0004
 -12843416.56547  -9986998.51046  23111086.2504   23111080.9264
        43.0004         41.7504
 -25516736.39347 -19869233.16646  20818463.6954   20818457.1844
        47.7504         38.0004
 -20316619.32947 -15944328.34748  21077279.5234   21077275.5744
        47.0004         49.7504
 -21663840.32947 -16865238.13748  21107282.6954   21107278.6524
        47.0004         50.5004
  25992695.43146  20449585.89443  24547701.0084   24547693.6524
        38.5004         19.5004
  -8735112.12547  -6656115.33746  23495328.3364   23495320.5704
        42.5004         38.5004
 20  5  3  0 18 30.0000000  0  9G16G 6G22G 9G 4G26G 3G14G31
 -22436875.52347 -17775759.56646  20749962.5084   20749954.9304
        47.7504         37.5004
  -1645738.72446  -1283806.77245  25174407.7584   25174403.7504
        37.5004         31.7504
 -17038648.07747 -13256258.04545  22616588.3914   22616578.9414
        45.2504         32.7504
 -12931427.60947 -10055578.53446  23094338.6414   23094332.4614
        42.7504         40.5004
 -25562228.48347 -19904681.55346  20809807.0394   20809800.4184
        47.7504         37.2504
 -20284283.63047 -15919131.70448  21083432.9774   21083428.6884
        47.5004         49.5004
 -21607352.03347 -16821221.29648  21118032.1724   21118027.8244
        47.0004         50.5004
  26076654.036 5                  24563676.000
        35.000
  -8642035.35847  -6583588.03746  23513040.3364   23513032.6254
        42.7504         38.2504
 20  5  3  0 19  0.0000000  0 10G16G 6G22G 9G 4G26G 7G 3G14G31
 -22485714.03947 -17813815.55146  20740669.0944   20740661.1414
        47.5004         38.0004
  -1634731.93746  -1275230.06645  25176502.5864   25176498.3054
        37.0004         31.5004
 -16949525.22247 -13186811.68945  22633548.2734   22633538.4654
        45.0004         32.7504
 -13019348.03847 -10124087.94746  23077607.4064   23077601.8954
        42.0004         40.5004
 -25607443.46647 -19939914.01346  20801202.8364   20801196.3164
        46.7504         38.0004
 -20251372.21247 -15893486.45348  21089695.8444   21089691.4734
        47.2504         49.5004
   -772026.20555   -545084.95453  25463551.9924   25463543.9964
        32.2504         20.0004
 -21550349.36747 -16776803.65248  21128879.5314   21128874.8444
        47.5004         50.5004
  26160750.05046  20468989.49353  24579679.8444   24579672.7664
        38.0004         20.7504
  -8548919.74547  -6511030.45546  23530759.8674   23530752.1524
        43.2504         38.2504
 20  5  3  0 19 30.0000000  0 10G16G 6G22G 9G 4G26G 7G 3G14G31
 -22533936.70947 -17851391.66046  20731492.4844   20731484.8634
        47.2504         38.5004
  -1623220.26246  -1266259.94245  25178693.4454   25178688.5314
        36.0004         30.5004
 -16860125.20547 -13117149.36845  22650560.2194   22650550.7424
        45.0004         32.7504
 -13107177.54746 -10192526.50446  23060893.6254   23060888.5784
        41.5004         41.0004
 -25652381.02647 -19974930.29246  20792651.2114   20792644.9264
        46.2504         38.0004
 -20217887.52348 -15867394.48648  21096068.1094   21096063.5514
        48.0004         49.5004
   -855936.28245   -610469.42743  25447584.0234   25447576.0594
        34.0004         22.5004
 -21492835.20747 -16731987.43748  21139824.2814   21139819.4574
        47.5004         50.5004
  26244981.95946  20534624.67343  24595709.2664   24595702.7584
        38.2504         19.2504
  -8455768.07647  -6438444.77546  23548485.6564   23548478.2934
        42.5004         38.0004
 20  5  3  0 20  0.0000000  0 10G16G 6G22G 9G 4G26G 7G 3G14G31
 -22581539.88547 -17888485.04846  20722433.9304   20722425.8524
        47.7504         37.5004
  -1611202.54646  -1256895.51445  25180979.8444   25180974.9384
        37.5004         30.5004
 -16770448.41647 -13047271.36945  22667625.0234   22667615.5824
        44.5004         32.0004
 -13194912.64947 -10260891.50446  23044198.2344   23044193.2704
        42.0004         41.2504
 -25697037.68147 -20009727.68646  20784153.4064   20784147.3594
        47.0004         37.5004
 -20183829.05447 -15840855.43148  21102549.3054   21102544.6254
        47.2504         49.5004
   -939764.67746   -675790.30044  25431631.5944   25431624.5084
        36.0004         27.0004
 -21434809.37347 -16686772.51748  21150866.2274   21150861.6484
        47.2504         50.5004
  26329351.84345  20600367.35943  24611764.3204   24611757.8754
        35.0004         18.5004
  -8362578.98447  -6365829.92946  23566218.9694   23566211.8404
        42.7504         38.7504
 20  5  3  0 20 30.0000000  0 10G16G 6G22G 9G 4G26G 7G 3G14G31
 -22628522.41848 -17925094.81446  20713493.7034   20713485.5704
        48.0004         38.5004
  -1598680.48546  -1247138.07745  25183362.1644   25183359.0354
        37.5004         31.2504
 -16680497.88147 -12977180.06845  22684742.2114   22684732.4734
        45.0004         32.5004
 -13282552.59047 -10329182.36846  23027520.2814   23027515.8324
        42.5004         41.7504
 -25741412.53047 -20044305.50946  20775709.6174   20775703.0004
        46.7504         37.5004
 -20149198.77547 -15813870.80448  21109138.7974   21109134.2304
        47.7504         49.5004
  -1023512.15146   -741048.09944  25415696.1254   25415688.2934
        37.0004         28.0004
 -21376274.26047 -16641160.75548  21162005.3284   21162000.6804
        47.0004         50.2504
  26413858.25545  20666216.36542  24627844.5394   24627839.7114
        33.2504         16.2504
  -8269354.51647  -6293187.52746  23583959.2344   23583951.7704
        42.0004         38.2504
 20  5  3  0 21  0.0000000  0 10G16G 6G22G 9G 4G26G 7G 3G14G31
 -22674882.85448 -17961219.82446  20704671.1644   20704663.5234
        48.0004         38.0004
  -1585655.43946  -1236988.73045  25185842.0084   25185837.7154
        37.7504         31.2504
 -16590276.92347 -12906878.03945  22701910.9844   22701901.1054
        45.0004         33.0004
 -13370096.31347 -10397398.23447  23010861.9844   23010856.8554
        42.7504         42.2504
 -25785504.64947 -20078662.99846  20767319.0004   20767312.5004
        46.2504         37.2504
 -20113998.62447 -15786442.12148  21115837.3984   21115832.6054
        47.0004         49.5004
  -1107178.40246   -806242.61545  25399773.9614   25399766.8554
        38.0004         30.2504
 -21317232.19047 -16595153.95848  21173240.2734   21173235.2974
        46.7504         50.2504
  26498500.35545  20732171.22042  24643952.2894   24643947.0004
        33.5004         14.7504
  -8176096.43546  -6220518.95046  23601705.2034   23601698.5944
        41.7504         38.0004
 20  5  3  0 21 30.0000000  0 10G16G 6G22G 9G 4G26G 7G 3G14G31
 -22720619.68348 -17996858.91746  20695967.8594   20695959.9264
        48.7504         38.7504
  -1572128.72946  -1226448.45044  25188415.3284   25188411.1524
        38.0004         29.5004
 -16499787.61447 -12836366.92045  22719130.6954   22719121.0554
        45.0004         32.5004
 -13457542.52647 -10465538.12446  22994221.4304   22994216.5394
        43.0004         41.5004
 -25829312.60447 -20112799.06346  20758982.1954   20758976.1134
        47.2504         38.0004
 -20078230.20247 -15758570.63448  21122643.7034   21122639.5394
        47.2504         49.5004
  -1190763.54246   -871373.93245  25383868.6254   25383861.1414
        38.7504         30.2504
 -21257685.15547 -16548753.68248  21184571.7274   21184567.0274
        47.0004         50.2504
  26583277.70046  20798231.37142  24660084.2034   24660079.3834
        37.0004         15.5004
  -8082805.59346  -6147824.83146  23619458.1644   23619450.8714
        41.5004         38.2504
 20  5  3  0 22  0.0000000  0 10G16G 6G22G 9G 4G26G 7G 3G14G31
 -22765731.42648 -18032010.92746  20687383.5084   20687375.5744
        49.0004         38.7504
  -1558101.38946  -1215518.09945  25191084.8594   25191080.5904
        37.5004         31.2504
 -16409032.68447 -12765648.82545  22736400.5164   22736390.8364
        45.0004         33.5004
 -13544889.91847 -10533601.01346  22977599.9534   22977594.9304
        42.5004         41.5004
 -25872835.06047 -20146712.67046  20750699.9844   20750693.5984
        47.2504         37.5004
 -20041894.97947 -15730257.47748  21129558.2814   21129553.8484
        47.0004         49.5004
  -1274266.74746   -936441.39245  25367977.9774   25367971.4144
        38.0004         31.5004
 -21197635.11947 -16501961.46448  21195998.9924   21195993.9884
        47.2504         50.0004
  26668189.42545  20864396.30043  24676243.4454   24676237.3594
        35.0004         18.2504
  -7989483.57947  -6075106.42346  23637217.2424   23637209.5274
        42.2504         37.5004
 20  5  3  0 22 30.0000000  0 10G16G 6G22G 9G 4G26G 7G 3G14G31
 -22810215.83348 -18066674.10046  20678918.1804   20678910.5554
        48.0004         38.7504
  -1543574.34245  -1204198.33745  25193848.8674   25193845.4344
        35.0004         31.0004
 -16318014.29047 -12694725.42045  22753720.0394   22753711.1484
        44.5004         32.0004
 -13632136.48847 -10601585.34746  22960997.2664   22960991.9884
        42.7504         41.2504
 -25916070.25047 -20180402.44046  20742472.9304   20742466.2114
        47.0004         37.7504
 -20004994.36848 -15701503.76848  21136580.1094   21136575.6994
        48.2504         49.5004
  -1357687.70046  -1001444.77145  25352103.8054   25352096.8444
        37.5004         31.2504
 -21137083.59947 -16454778.48648  21207521.7894   21207517.3324
        47.7504         50.0004
  26753236.12545  20930666.32442  24692426.7504   24692421.3134
        33.5004         16.2504
  -7896131.40247  -6002364.51446  23654981.1334   23654974.0664
        42.5004         37.7504
 20  5  3  0 23  0.0000000  0 10G16G 6G22G 9G 4G26G 7G 3G14G31
 -22854071.70548 -18100847.51546  20670573.2344   20670565.1174
        48.2504         38.0004
  -1528548.97646  -1192490.32845  25196708.7894   25196704.0004
        36.5004         31.5004
 -16226735.51447 -12623599.12945  22771090.5164   22771081.2344
        44.0004         32.0004
 -13719281.51547 -10669490.55546  22944414.1024   22944408.4064
        43.0004         41.7504
 -25959017.05147 -20213867.47646  20734300.8204   20734293.5354
        46.7504         38.5004
 -19967530.24748 -15672310.95048  21143709.4304   21143704.8204
        48.0004         49.5004
  -1441026.50246  -1066384.10944  25336245.6334   25336237.6054
        36.0004         28.5004
 -21076033.05347 -16407206.64548  21219139.1954   21219134.0314
        47.0004         50.0004
  26838416.50046  20997040.55142  24708635.6644   24708630.7274
        37.2504         15.5004
  -7802750.33647  -5929600.09446  23672750.7664   23672743.7234
        42.0004         37.2504
 20  5  3  0 23 30.0000000  0 10G16G 6G22G 9G 4G26G 7G 3G14G31
 -22897297.50148 -18134529.94946  20662347.3364   20662339.6094
        48.0004         38.5004
  -1513026.54146  -1180394.93645  25199661.4534   25199658.0594
        36.0004         30.7504
 -16135199.05647 -12552272.04045  22788509.6414   22788499.8554
        44.7504         31.7504
 -13806323.48347 -10737315.47146  22927850.6564   22927844.9454
        42.7504         41.5004
 -26001674.10047 -20247106.73046  20726183.3134   20726176.4534
        47.0004         37.7504
 -19929504.17148 -15642680.24848  21150945.5234   21150941.1844
        48.0004         49.5004
  -1524282.04546  -1131258.59744  25320402.3444   25320395.0864
        36.5004         28.5004
 -21014485.37147 -16359247.42448  21230851.4534   21230846.8484
        47.0004         50.0004
  26923730.38846  21063518.97342  24724870.7584   24724865.4064
        37.7504         14.7504
  -7709341.74547  -5856814.22546  23690526.8204   23690518.8714
        43.2504         38.0004
 20  5  3  0 24  0.0000000  0 10G16G 6G22G 9G 4G26G 7G 3G14G31
 -22939891.57348 -18167720.13746  20654241.7034   20654233.9414
        48.0004         38.5004
  -1497008.05045  -1167913.02145  25202709.9304   25202706.2274
        35.5004         30.7504
 -16043406.53547 -12480745.42145  22805977.0314   22805967.2384
        44.5004         31.5004
 -13893260.66947 -10805058.73346  22911306.7894   22911301.6644
        42.0004         41.5004
 -26044039.72247 -20280118.90346  20718121.3444   20718114.5904
        46.5004         37.2504
 -19890917.60548 -15612612.80948  21158288.1954   21158283.6174
        48.0004         49.2504
  -1607454.62246  -1196068.45344  25304574.7034   25304567.8054
        38.0004         28.2504
 -20952442.37647 -16310902.25148  21242657.2734   21242652.9844
        47.5004         50.0004
  27009177.01546  21130100.75342  24741131.2664   24741124.9964
        37.2504         14.7504
  -7615906.85347  -5784007.88446  23708306.6884   23708298.6994
        42.7504         37.5004
 20  5  3  0 24 30.0000000  0 10G16G 6G22G 9G 4G26G 7G 3G14G31
 -22981852.54948 -18200417.00246  20646256.9614   20646249.4884
        48.2504         38.0004
  -1480494.91746  -1155045.68645  25205852.2034   25205848.1174
        37.0004         31.0004
 -15951361.20047 -12409021.79945  22823492.5554   22823482.9924
        44.5004         32.2504
 -13980091.84647 -10872719.37047  22894784.6254   22894778.5314
        43.0004         42.0004
 -26086112.81647 -20312903.14446  20710115.1484   20710108.8204
        47.5004         38.0004
 -19851772.45147 -15582110.10048  21165737.4384   21165732.8834
        47.2504         49.0004
  -1690543.45246  -1260813.08045  25288763.7114   25288756.5984
        37.7504         30.5004
 -20889906.33347 -16262172.88448  21254557.9694   21254553.3484
        46.5004         50.0004
  27094756.07645  21196785.70042  24757416.6094   24757410.2114
        32.7504         16.2504
  -7522446.85946  -5711181.95946  23726091.0234   23726083.8484
        41.5004         37.2504
 20  5  3  0 25  0.0000000  0  9G16G 6G22G 9G 4G26G 7G 3G31
 -23023177.29447 -18232618.09646  20638392.7664   20638385.0634
        47.5004         38.0004
  -1463486.68946  -1141792.53645  25209088.8594   25209085.0434
        36.7504         30.7504
 -15859063.88447 -12337101.84945  22841056.1254   22841046.6844
        44.5004         32.0004
 -14066813.87447 -10940294.97147  22878281.3054   22878276.0514
        43.5004         42.5004
 -26127890.06947 -20345456.84946  20702164.9614   20702158.6914
        46.5004         38.0004
 -19812068.53547 -15551171.99248  21173292.6094   21173288.2734
        47.2504         49.0004
  -1773547.08746  -1325491.26945  25272968.0234   25272961.5274
        37.2504         30.0004
 -20826877.48347 -16213059.51948  21266552.0164   21266547.3874
        47.0004         50.0004
  -7428961.11047  -5638335.94346  23743879.9844   23743873.5514
        42.0004         36.7504
 20  5  3  0 25 30.0000000  0 10G16G 6G22G 9G 4G26G 7G 3G14G31
 -23063868.75048 -18264325.72646  20630650.0314   20630641.9774
        48.2504         38.0004
  -1445988.97046  -1128157.99845  25212419.2814   25212415.6254
        36.7504         31.2504
 -15766521.49547 -12264990.91145  22858665.9534   22858656.8134
        44.5004         32.0004
 -14153429.69347 -11007787.80947  22861798.8914   22861793.4964
        43.5004         42.5004
 -26169374.53847 -20377782.40346  20694270.9144   20694264.0784
        47.0004         38.0004
 -19771812.01748 -15519803.28848  21180952.8834   21180948.6914
        48.0004         49.0004
  -1856469.58246  -1390106.21044  25257189.1724   25257181.9614
        37.0004         28.2504
 -20763362.29947 -16163567.17948  21278638.6254   21278633.8634
        47.5004         50.0004
  28841724.58656  22438597.51153  24790061.8984   24790056.3014
        37.0004         18.5004
  -7335455.22647  -5565474.26946  23761675.1254   23761667.1804
        42.0004         36.7504
 20  5  3  0 26  0.0000000  0 10G16G 6G22G 9G 4G26G 7G 3G14G31
 -23103920.72448 -18295535.05446  20623028.0164   20623020.1254
        48.0004         38.5004
  -1427998.51546  -1114139.48145  25215842.8284   25215838.1334
        37.5004         31.2504
 -15673731.96147 -12192687.40745  22876323.4144   22876314.3204
        44.7504         32.2504
 -14239933.18747 -11075193.12247  22845337.5084   22845332.0984
        43.2504         42.2504
 -26210560.18647 -20409875.11646  20686433.2034   20686427.2034
        47.2504         38.5004
 -19730999.94047 -15488001.68048  21188719.5314   21188715.1764
        47.0004         49.0004
  -1939305.08546  -1454653.39244  25241426.3284   25241418.6994
        39.0004         29.2504
 -20699358.28947 -16113693.93648  21290817.9844   21290813.6174
        47.0004         50.0004
  28927698.32746  22505589.97443  24806422.4454   24806415.9534
        38.0004         19.2504
  -7241925.92746  -5492594.32946  23779471.8674   23779464.9574
        41.7504         36.5004
 20  5  3  0 26 30.0000000  0 10G16G 6G22G 9G 4G26G 7G 3G14G31
 -23143333.59147 -18326246.37746  20615528.3284   20615520.0434
        47.7504         38.0004
  -1409518.43846  -1099739.40145  25219359.6884   25219355.3524
        37.0004         31.0004
 -15580699.41847 -12120194.55045  22894026.8054   22894017.4774
        45.0004         32.0004
 -14326324.67647 -11142511.16247  22828897.6564   22828892.2544
        43.0004         42.5004
 -26251447.35647 -20441735.24646  20678652.9844   20678646.7344
        46.7504         38.2504
 -19689635.84948 -15455769.92648  21196590.9534   21196586.4024
        48.0004         48.7504
  -2022055.65646  -1519134.44144  25225679.3364   25225672.2734
        38.0004         29.0004
 -20634869.23047 -16063442.74648  21303090.4614   21303085.2704
        47.0004         49.7504
  29013802.69745  22572684.22242  24822807.4384   24822801.9414
        33.0004         16.2504
  -7148375.89747  -5419698.25146  23797275.4534   23797267.6174
        43.0004         37.0004
 20  5  3  0 27  0.0000000  0 10G16G 6G22G 9G 4G26G 7G 3G14G31
 -23182105.85448 -18356458.53146  20608150.0394   20608142.2704
        48.0004         38.7504
  -1390549.54646  -1084958.48845  25222968.8594   25222964.9804
        38.2504         31.0004
 -15487426.41647 -12047514.30245  22911776.3754   22911767.0044
        44.5004         31.7504
 -14412602.25747 -11209740.42046  22812479.4224   22812474.1254
        42.5004         41.7504
 -26292034.15047 -20473361.31846  20670929.3674   20670923.4344
        47.5004         38.2504
 -19647721.05747 -15423109.06348  21204566.7344   21204562.7154
        47.7504         48.7504
  -2104720.66146  -1583548.77144  25209948.7114   25209941.3834
        36.2504         28.5004
 -20569896.88947 -16012814.95848  21315453.5704   21315449.1804
        47.5004         49.7504
  29100037.39845  22639879.95842  24839217.0704   24839213.3834
        34.0004         14.7504
  -7054805.98347  -5346786.65046  23815081.1804   23815073.2274
        42.0004         37.5004
 20  5  3  0 27 30.0000000  0 10G16G 6G22G 9G 4G26G 7G 3G14G31
 -23220237.02147 -18386171.12346  20600893.9924   20600885.9384
        46.7504         38.5004
  -1371094.40246  -1069798.66245  25226671.0554   25226667.3554
        36.5004         31.0004
 -15393916.09947 -11974649.13645  22929571.1724   22929561.1804
        44.5004         32.5004
 -14498765.64547 -11276880.70247  22796083.2114   22796077.8244
        43.0004         42.2504
 -26332320.33947 -20504753.15546  20663263.3364   20663256.8794
        45.7504         38.5004
 -19605258.48147 -15390021.34848  21212647.0634   21212642.8714
        47.5004         48.7504
  -2187301.14346  -1647897.23845  25194234.1644   25194226.8834
        38.2504         31.2504
 -20504444.47547 -15961813.09248  21327909.2814   21327904.6644
        47.2504         49.5004
  29186400.80346  22670135.13652  24855650.8054   24855644.4104
        36.5004         16.7504
  -6961218.28746  -5273861.21045  23832889.5394   23832881.4964
        41.5004         35.7504
 20  5  3  0 28  0.0000000  0 10G16G 6G22G 9G 4G26G 7G 3G14G31
 -23257724.62447 -18415382.24546  20593760.1644   20593752.3094
        47.7504         38.5004
  -1351153.10346  -1054260.01445  25230465.6884   25230461.8714
        36.2504         31.5004
 -15300170.20047 -11901600.41645  22947410.5004   22947400.5784
        45.0004         31.0004
 -14584812.03647 -11343929.82047  22779708.9694   22779703.9064
        43.0004         43.0004
 -26372303.18047 -20535908.61746  20655654.9694   20655647.9884
        47.7504         38.5004
 -19562248.57647 -15356507.14748  21220831.6414   21220827.3634
        47.5004         48.7504
  -2269795.08646  -1712178.29144  25178536.1954   25178529.2194
        37.0004         29.2504
 -20438512.86347 -15910437.82748  21340455.2344   21340450.8054
        47.0004         49.5004
  29272893.59346  22737532.12642  24872110.7274   24872103.7894
        37.2504         17.7504
  -6867613.12046  -5200922.14546  23850701.6644   23850695.0824
        41.2504         36.7504
 20  5  3  0 28 30.0000000  0 10G16G 6G22G 9G 4G26G 7G 3G14G31
 -23294567.20447 -18444090.74546  20586749.7344   20586741.3324
        47.5004         38.7504
  -1330727.09246  -1038343.67045  25234352.4614   25234348.7504
        36.5004         31.0004
 -15206191.38047 -11828370.18745  22965293.8134   22965284.4304
        44.5004         31.5004
 -14670739.97647 -11410886.64047  22763357.5864   22763351.9734
        43.5004         43.0004
 -26411981.33947 -20566826.66446  20648104.3134   20648098.0394
        47.5004         38.7504
 -19518693.28148 -15322567.96148  21229120.7034   21229115.9614
        48.2504         48.7504
  -2352202.23446  -1776391.70744  25162854.3754   25162847.3914
        37.2504         29.7504
 -20372104.33647 -15858690.93548  21353092.3914   21353087.8954
        46.7504         49.5004
  29359515.31345  22805029.46442  24888594.2344   24888588.5044
        34.5004         15.5004
  -6773991.31946  -5127970.15446  23868517.6174   23868510.2664
        41.5004         36.0004
 20  5  3  0 29  0.0000000  0 10G16G 6G22G 9G 4G26G 7G 3G14G31
 -23330764.47447 -18472296.41146  20579861.1564   20579853.2894
        47.5004         38.5004
  -1309818.59446  -1022051.33644  25238330.9534   25238327.8094
        36.0004         29.5004
 -15111982.77047 -11754960.90545  22983220.9694   22983211.4184
        44.5004         30.7504
 -14756548.68947 -11477750.55747  22747028.4694   22747023.5084
        43.5004         43.0004
 -26451354.07947 -20597506.72546  20640611.7894   20640605.4024
        47.5004         39.0004
 -19474595.06248 -15288205.72748  21237511.8364   21237507.2544
        48.7504         48.5004
  -2434523.14346  -1840537.89945  25147189.7424   25147182.7034
        39.0004         32.0004
 -20305221.69747 -15806574.61248  21365819.9694   21365814.9304
        47.2504         49.5004
  29446264.58245  22872626.14442  24905101.2584   24905097.0164
        34.2504         14.7504
  -6680354.72046  -5055006.60346  23886335.9224   23886329.2194
        41.0004         36.2504
 20  5  3  0 29 30.0000000  0 10G16G 6G22G 9G 4G26G 7G 3G14G31
 -23366314.66147 -18499997.84846  20573096.6484   20573088.7464
        47.5004         38.5004
  -1288428.39645  -1005383.66845  25242401.1024   25242399.0044
        35.2504         30.5004
 -15017546.47147 -11681374.20845  23001191.3054   23001182.0164
        44.5004         31.0004
 -14842236.14347 -11544519.98847  22730723.2814   22730717.3594
        44.5004         43.0004
 -26490419.44347 -20627947.27746  20633177.9614   20633171.5944
        47.2504         38.7504
 -19429955.20248 -15253421.43648  21246006.2894   21246001.9264
        48.5004         48.5004
  -2516756.80146  -1904616.09744  25131540.2584   25131533.5474
        36.7504         28.2504
 -20237866.59247 -15754090.12848  21378636.8444   21378632.2304
        47.5004         49.5004
  29533141.398 5                  24921635.227
        32.500
  -6586703.83246  -4982031.92546  23904157.1564   23904150.2274
        41.0004         37.2504
 20  5  3  0 30  0.0000000  0 10G16G 6G22G 9G 4G26G 7G 3G14G31
 -23401214.63147 -18527192.62546  20566454.7344   20566447.4734
        46.7504         39.5004
  -1266556.09146   -988340.35245  25246563.6334   25246560.5044
        37.7504         31.0004
 -14922883.46147 -11607610.82945  23019204.9614   23019196.0434
        44.0004         30.2504
 -14927798.95547 -11611192.29147  22714440.8754   22714435.6334
        43.0004         43.2504
 -26529174.14147 -20658145.74846  20625803.2584   20625796.4414
        47.2504         38.7504
 -19384773.80948 -15218215.16548  21254604.2584   21254600.0124
        48.0004         48.5004
  -2598901.42046  -1968624.96145  25115909.3754   25115902.1564
        38.0004         30.7504
 -20170039.45947 -15701237.83548  21391544.3754   21391539.5474
        47.2504         49.2504
                                  24938190.641
        31.500
  -6493038.24846  -4909045.82346  23921980.4304   23921974.3594
        41.2504         36.7504
 20  5  3  0 30 30.0000000  0 10G16G 6G22G 9G 4G26G 7G 3G14G31
 -23435468.87247 -18553884.24146  20559936.7734   20559928.7814
        47.0004         38.7504
  -1244209.04346   -970927.11445  25250816.7894   25250813.0234
        36.0004         30.0004
