     2.11           OBSERVATION DATA    G (GPS)             RINEX VERSION / TYPE
teqc  2018Jun8                          20200219 01:12:02UTCPGM / RUN BY / DATE
Linux 2.4.20-8|x86|gcc -static|Linux 32|=+                  COMMENT
BIT 2 OF LLI FLAGS DATA COLLECTED UNDER A/S CONDITION       COMMENT
POL2                                                        MARKER NAME
GGN                 JPL                                     OBSERVER / AGENCY
02563                 Javad Delta-3             1s jps      REC # / TYPE / VERS
383-1030            TPSCR.G3                                ANT # / TYPE
  1239971.4511  4530790.0876  4302578.7950                  APPROX POSITION XYZ
        0.0780        0.0000        0.0000                  ANTENNA: DELTA H/E/N
     1     1                                                WAVELENGTH FACT L1/2
     8    L1    L2    C1    P1    C2    P2    S1    S2      # / TYPES OF OBSERV
    30.0000                                                 INTERVAL
Forced Modulo Decimation to 30 seconds                      COMMENT
 SNR is mapped to RINEX snr flag value [0-9]                COMMENT
  L1 & L2: min(max(int(snr_dBHz/6), 0), 9)                  COMMENT
teqc edited: all GLONASS satellites excluded                COMMENT
teqc edited: all SBAS satellites excluded                   COMMENT
teqc edited: all Galileo satellites excluded                COMMENT
teqc edited: all Beidou satellites excluded                 COMMENT
teqc edited: all QZSS satellites excluded                   COMMENT
teqc edited: all IRNSS satellites excluded                  COMMENT
pseudorange smoothing corrections not applied               COMMENT
  2020     2    19     0     0    0.0000000     GPS         TIME OF FIRST OBS
                                                            END OF HEADER
 20  2 19  0  0  0.0000000  0 10G08G20G27G10G14G32G24G18G21G11
 123129009.800 7  95944684.320 7  23430672.021    23430671.657    23430676.664
  23430676.314          42.250          43.750
 111302076.787 8  86728893.57446  21180077.340    21180076.880
  21180078.261          49.000          41.5004
 123897441.305 6  96543458.836 7  23576899.923    23576899.474    23576903.601
  23576903.586          40.000          43.250
 107808461.101 8  84006598.541 9  20515263.659    20515263.606    20515266.923
  20515267.377          53.250          54.750
 116276753.445 7  90605264.42846  22126730.000    22126729.648
  22126731.010          46.750          37.2504
 108256887.852 8  84356019.237 9  20600598.525    20600598.739    20600602.258
  20600602.049          53.500          54.000
 118336699.037 7  92210417.000 7  22518723.636    22518723.574    22518726.761
  22518726.912          43.750          45.500
 121964365.162 6  95037162.35744  23209046.121    23209045.879
  23209047.965          41.750          28.5004
 122646222.139 7  95568491.37545  23338797.658    23338796.452
  23338797.519          42.250          30.2504
 120837099.926 6  94158779.72944  22994535.446    22994534.698
  22994535.452          41.000          27.0004
 20  2 19  0  0 30.0000000  0 10G08G20G27G10G14G32G24G18G21G11
 123159393.684 6  95968360.077 7  23436453.207    23436453.491    23436458.794
  23436458.338          41.000          43.750
 111359740.347 8  86773826.22146  21191050.495    21191049.898
  21191051.030          48.750          41.5004
 123976092.439 6  96604745.423 7  23591866.846    23591866.600    23591870.316
  23591870.472          41.000          43.250
 107813465.520 8  84010498.097 9  20516216.185    20516215.889    20516219.195
  20516219.715          53.750          54.750
 116203022.757 7  90547811.94446  22112699.580    22112699.546
  22112700.723          46.750          37.5004
 108217906.668 8  84325644.298 9  20593180.394    20593180.726    20593184.189
  20593184.233          53.750          54.000
 118383897.464 7  92247195.007 7  22527704.954    22527704.933    22527708.174
  22527708.548          43.250          45.500
 121863953.140 6  94958919.21944  23189938.588    23189937.580
  23189940.353          41.750          28.2504
 122737910.262 6  95639936.66445  23356245.329    23356244.309
  23356245.018          41.750          30.0004
 120765050.666 6  94102637.45944  22980824.274    22980824.007
  22980825.215          40.250          27.0004
 20  2 19  0  1  0.0000000  0 10G08G20G27G10G14G32G24G18G21G11
 123190281.479 6  95992428.474 7  23442331.547    23442331.523    23442336.311
  23442335.913          41.250          43.500
 111417688.004 8  86818980.23246  21202077.701    21202076.982
  21202078.174          48.750          41.5004
 124055030.798 6  96666255.814 7  23606888.624    23606888.596    23606891.724
  23606891.814          41.750          43.000
 107818766.324 8  84014628.595 9  20517224.635    20517224.640    20517227.979
  20517228.512          53.250          54.750
 116129606.804 7  90490604.71246  22098729.022    22098728.837
  22098730.349          46.500          37.5004
 108179348.245 9  84295598.785 9  20585843.189    20585843.507    20585847.023
  20585846.833          54.000          54.750
 118431662.886 7  92284414.808 7  22536794.236    22536794.440    22536798.106
  22536798.168          43.250          45.750
 121763832.054 6  94880902.80644  23170886.064    23170885.968
  23170887.766          40.750          28.7504
 122829817.163 6  95711552.41744  23373734.415    23373733.703
  23373734.459          41.500          29.5004
 120693495.612 6  94046880.26944  22967208.305    22967208.092
  22967208.964          40.750          28.0004
 20  2 19  0  1 30.0000000  0 10G08G20G27G10G14G32G24G18G21G11
 123221670.107 6  96016887.147 7  23448305.018    23448304.707    23448309.648
  23448309.193          41.750          44.250
 111475918.373 8  86864354.53146  21213158.221    21213157.597
  21213159.310          48.250          41.5004
 124134252.194 6  96727986.772 7  23621963.875    23621963.348    23621967.505
  23621967.497          41.250          43.500
 107824362.846 8  84018989.520 9  20518289.746    20518289.563    20518292.966
  20518293.414          53.750          54.500
 116056505.369 7  90433642.57046  22084818.623    22084818.196
  22084819.560          47.250          37.5004
 108141211.595 8  84265881.917 9  20578586.032    20578586.153    20578589.794
  20578589.654          53.750          54.500
 118479992.447 7  92322074.216 7  22545991.312    22545991.153    22545994.643
  22545995.079          42.750          45.750
 121664003.811 6  94803114.58344  23151888.739    23151888.576
  23151891.326          41.250          28.0004
 122921939.873 7  95783336.34344  23391264.771    23391264.089
  23391264.970          42.000          29.7504
 120622435.983 7  93991509.11844  22953686.473    22953686.178
  22953686.279          42.250          28.0004
 20  2 19  0  2  0.0000000  0 10G08G20G27G10G14G32G24G18G21G11
 123253558.903 6  96041735.550 7  23454373.107    23454372.562    23454377.210
  23454376.841          41.500          43.000
 111534431.993 8  86909949.57346  21224293.057    21224292.443
  21224294.004          48.500          41.2504
 124213754.425 6  96789936.542 7  23637092.480    23637092.489    23637096.263
  23637096.337          41.250          43.250
 107830256.336 9  84023581.851 9  20519411.358    20519411.102    20519414.370
  20519414.898          54.000          54.500
 115983720.137 7  90376926.79746  22070967.607    22070967.343
  22070968.892          47.000          37.5004
 108103497.661 8  84236494.451 9  20571409.360    20571409.539    20571413.053
  20571413.000          53.750          54.500
 118528884.685 7  92360172.064 7  22555295.313    22555294.988    22555298.757
  22555298.929          42.750          45.500
 121564472.256 6  94725557.52644  23132948.994    23132948.527
  23132950.572          41.500          28.5004
 123014277.528 7  95855287.75644  23408835.933    23408835.434
  23408836.217          42.000          29.7504
 120551874.998 7  93936526.54644  22940259.575    22940258.667
  22940259.314          42.250          28.0004
 20  2 19  0  2 30.0000000  0 10G08G20G27G10G14G32G24G18G21G11
 123285945.428 6  96066971.826 7  23460535.871    23460535.321    23460540.596
  23460540.065          41.750          43.500
 111593227.628 8  86955764.35246  21235481.589    21235481.042
  21235482.318          48.500          41.2504
 124293533.580 6  96852102.113 7  23652274.780    23652274.248    23652277.260
  23652277.553          41.750          43.250
 107836446.467 8  84028405.332 9  20520589.170    20520589.045    20520592.275
  20520592.840          53.750          55.000
 115911251.296 7  90320457.58646  22057177.392    22057177.212
  22057178.351          47.750          37.7504
 108066205.752 8  84207435.830 9  20564312.688    20564312.984    20564316.690
  20564316.515          53.250          54.500
 118578338.286 7  92398707.335 7  22564705.958    22564705.660    22564709.400
  22564709.758          42.750          45.500
 121465239.307 6  94648233.16444  23114065.515    23114065.645
  23114067.482          41.250          28.5004
 123106827.608 7  95927404.69644  23426447.748    23426447.213
  23426447.909          42.250          29.7504
 120481814.128 7  93881933.65744  22926926.983    22926926.953
  22926927.159          42.500          28.2504
 20  2 19  0  3  0.0000000  0 10G08G20G27G10G14G32G24G18G21G11
 123318828.448 6  96092594.947 7  23466792.869    23466792.990    23466798.437
  23466797.905          41.000          44.000
 111652305.773 8  87001799.25946  21246724.000    21246723.145
  21246724.534          48.500          41.0004
 124373587.413 6  96914481.720 7  23667507.873    23667507.907    23667511.225
  23667511.425          41.500          43.500
 107842934.411 8  84033460.876 9  20521823.959    20521823.721    20521826.786
  20521827.433          53.750          54.750
 115839100.381 7  90264236.10446  22043447.646    22043447.303
  22043448.597          47.250          38.2504
 108029336.785 8  84178706.777 9  20557297.059    20557297.238    20557300.620
  20557300.550          53.750          54.500
 118628351.484 7  92437678.660 7  22574223.152    22574222.937    22574226.868
  22574226.875          43.250          45.750
 121366308.932 6  94571144.55244  23095239.474    23095239.881
  23095240.872          41.250          28.2504
 123199588.917 7  95999686.23644  23444099.154    23444098.825
  23444100.548          42.000          29.7504
 120412256.697 7  93827733.06244  22913690.713    22913690.076
  22913690.737          42.000          28.2504
 20  2 19  0  3 30.0000000  0 10G08G20G27G10G14G32G24G18G21G11
 123352207.171 6  96118604.326 7  23473144.758    23473144.730    23473149.512
  23473149.360          41.250          43.250
 111711667.099 8  87048054.82746  21258019.862    21258019.154
  21258020.312          48.500          41.0004
 124453913.576 6  96977073.540 7  23682793.311    23682793.214    23682796.850
  23682796.990          41.750          43.500
 107849721.413 9  84038749.452 9  20523115.500    20523115.182    20523118.332
  20523118.972          54.000          54.750
 115767268.994 8  90208263.59546  22029778.257    22029778.082
  22029779.694          48.000          38.0004
 107992891.572 8  84150307.929 9  20550361.639    20550361.730    20550365.454
  20550365.315          53.500          54.750
 118678923.635 7  92477085.539 7  22583845.880    22583846.525    22583850.581
  22583850.344          42.250          45.500
 121267684.669 6  94494294.50444  23076471.949    23076472.658
  23076473.555          41.500          29.0004
 123292560.710 7  96072131.78844  23461791.663    23461790.770
  23461791.797          42.500          29.7504
 120343205.931 6  93773927.27444  22900550.461    22900550.019
  22900551.171          41.750          28.7504
 20  2 19  0  4  0.0000000  0 10G08G20G27G10G14G32G24G18G21G11
 123386077.998 6  96144997.164 7  23479590.730    23479590.661    23479595.213
  23479594.751          41.750          43.500
 111771309.577 8  87094529.47946  21269370.213    21269368.863
  21269370.094          48.500          40.7504
 124534507.384 6  97039873.897 7  23698129.730    23698129.748    23698133.703
  23698133.765          41.500          43.750
 107856806.247 9  84044270.103 9  20524463.701    20524463.424    20524466.641
  20524467.229          54.000          54.750
 115695756.377 7  90152539.48346  22016169.881    22016169.854
  22016171.246          47.500          38.0004
 107956868.550 8  84122238.050 9  20543506.868    20543506.946    20543510.584
  20543510.319          53.750          54.750
 118730051.494 7  92516925.436 7  22593575.363    22593576.072    22593579.244
  22593579.776          42.750          45.500
 121169367.601 6  94417683.79244  23057763.052    23057763.100
  23057765.359          41.250          29.0004
 123385739.395 6  96144738.57344  23479523.105    23479522.076
  23479523.006          41.750          29.5004
 120274662.522 6  93720516.84044  22887507.413    22887507.081
  22887507.825          41.750          28.7504
 20  2 19  0  4 30.0000000  0 10G08G20G27G10G14G32G24G18G21G11
 123420439.725 6  96171772.540 7  23486129.340    23486129.045    23486134.347
  23486133.675          41.750          43.500
 111831233.146 8  87141223.17446  21280773.114    21280771.956
  21280773.139          48.750          40.7504
 124615366.297 6  97102880.842 7  23713516.624    23713516.471    23713520.839
  23713520.439          41.000          42.750
 107864189.948 9  84050023.642 9  20525868.451    20525868.525    20525871.646
  20525872.224          54.000          54.500
 115624563.917 7  90097064.85146  22002622.340    22002622.204
  22002623.775          47.250          38.0004
 107921268.387 8  84094497.672 9  20536732.127    20536732.293    20536735.880
  20536735.795          53.500          54.750
 118781734.010 7  92557197.529 7  22603410.024    22603410.786    22603413.929
  22603414.393          42.250          45.250
 121071361.603 6  94341315.45844  23039113.145    23039112.592
  23039114.781          41.250          28.7504
 123479123.878 6  96217505.69244  23497293.570    23497292.574
  23497293.868          41.750          28.7504
 120206629.130 7  93667503.78544  22874561.003    22874560.659
  22874560.779          42.000          28.5004
 20  2 19  0  5  0.0000000  0 10G08G20G27G10G14G32G24G18G21G11
 123455290.543 7  96198929.005 7  23492761.734    23492761.404    23492765.690
  23492765.539          42.500          43.500
 111891437.554 8  87188135.69046  21292229.264    21292228.572
  21292229.650          48.750          40.7504
 124696487.186 6  97166091.920 7  23728953.605    23728953.528    23728956.648
  23728956.875          41.000          42.500
 107871872.855 9  84056010.323 9  20527330.846    20527330.572    20527333.572
  20527334.264          54.000          54.750
 115553692.575 7  90041840.43146  21989136.249    21989135.506
  21989137.606          47.500          38.0004
 107886091.030 8  84067086.755 9  20530038.063    20530038.205    20530041.701
  20530041.799          53.500          54.750
 118833968.568 7  92597899.774 7  22613350.134    22613350.893    22613354.475
  22613354.490          42.250          45.750
 120973669.314 7  94265191.63244  23020523.469    23020522.813
  23020524.911          42.250          28.7504
 123572712.334 6  96290431.76444  23515102.076    23515101.812
  23515102.708          41.000          28.2504
 120139108.257 6  93614890.12544  22861712.455    22861711.662
  22861712.696          41.750          28.7504
 20  2 19  0  5 30.0000000  0 10G08G20G27G10G14G32G24G18G21G11
 123490629.266 7  96226465.680 7  23499485.481    23499485.695    23499490.524
  23499489.982          42.000          43.000
 111951923.198 8  87235267.36346  21303738.912    21303738.454
  21303739.950          48.000          40.5004
 124777867.378 6  97229505.036 7  23744439.534    23744439.270    23744443.482
  23744443.453          41.000          43.500
 107879855.904 9  84062230.885 9  20528849.716    20528849.644    20528852.864
  20528853.398          54.000          54.750
 115483143.648 7  89986867.24246  21975710.799    21975710.717
  21975712.425          47.750          38.2504
 107851337.030 8  84040005.729 9  20523424.649    20523424.890    20523428.436
  20523428.248          53.500          54.750
 118886754.395 7  92639031.605 7  22623395.397    22623395.686    22623399.005
  22623399.052          42.500          45.250
 120876294.174 7  94189314.89644  23001993.248    23001993.052
  23001995.032          42.000          29.0004
 123666503.242 6  96363515.57744  23532949.880    23532949.091
  23532950.615          40.750          28.2504
 120072102.815 6  93562678.10344  22848961.195    22848961.245
  22848961.619          41.750          28.5004
 20  2 19  0  6  0.0000000  0 10G08G20G27G10G14G32G24G18G21G11
 123526452.693 6  96254380.038 7  23506302.956    23506302.609    23506307.915
  23506307.010          41.250          42.750
 112012688.211 8  87282616.72546  21315302.483    21315301.510
  21315303.084          48.250          40.7504
 124859502.641 6  97293116.910 7  23759974.312    23759974.114    23759978.088
  23759977.770          41.500          42.750
 107888138.314 9  84068684.707 9  20530425.975    20530425.810    20530428.886
  20530429.484          54.250          54.250
 115412916.491 7  89932144.78946  21962347.464    21962346.878
  21962348.466          47.750          38.2504
 107817005.140 8  84013253.616 9  20516891.569    20516891.687    20516895.338
  20516895.129          53.500          54.500
 118940088.732 7  92680590.823 7  22633544.553    22633544.879    22633547.725
  22633548.157          42.750          44.750
 120779237.972 6  94113686.68844  22983524.167    22983523.776
  22983526.114          41.500          28.7504
 123760493.725 6  96436754.90244  23550835.706    23550834.968
  23550836.366          40.000          28.0004
 120005614.007 6  93510868.63444  22836308.437    22836308.493
  22836309.817          41.500          28.5004
 20  2 19  0  6 30.0000000  0 10G08G20G27G10G14G32G24G18G21G11
 123562759.595 6  96282671.122 7  23513211.716    23513211.456    23513216.215
  23513216.105          41.750          43.500
 112073733.226 8  87330184.25046  21326918.974    21326918.100
  21326919.538          48.500          41.0004
 124941390.558 7  97356925.678 7  23775557.240    23775557.322    23775560.671
  23775560.603          42.000          42.500
 107896721.246 9  84075372.708 9  20532059.067    20532059.062    20532062.333
  20532062.757          54.000          54.750
 115343012.659 8  89877674.27546  21949045.327    21949044.762
  21949046.115          48.000          38.5004
 107783096.158 8  83986831.046 9  20510438.932    20510439.154    20510442.594
  20510442.432          53.500          54.750
 118993970.199 7  92722576.382 7  22643797.331    22643798.171    22643801.078
  22643801.657          42.000          44.750
 120682504.282 6  94038309.79044  22965115.205    22965115.314
  22965118.764          41.000          28.7504
 123854682.649 6  96510148.86744  23568759.298    23568759.036
  23568760.667          40.750          27.5004
 119939644.659 7  93459463.96644  22823755.466    22823754.797
  22823755.790          42.250          29.5004
 20  2 19  0  7  0.0000000  0 10G08G20G27G10G14G32G24G18G21G11
 123599548.943 6  96311338.126 7  23520212.627    23520212.591    23520216.878
  23520216.740          41.750          42.750
 112135058.689 8  87377970.31446  21338588.599    21338587.935
  21338589.566          48.250          40.7504
 125023528.861 6  97420929.564 7  23791187.956    23791187.623    23791191.651
  23791191.280          41.750          43.250
 107905605.955 9  84082295.859 9  20533749.888    20533749.748    20533752.793
  20533753.420          54.250          54.500
 115273433.787 7  89823456.97546  21935804.295    21935804.173
  21935805.497          47.750          38.0004
 107749610.888 8  83960738.636 9  20504066.668    20504066.906    20504070.443
  20504070.392          52.750          54.750
 119048397.931 7  92764987.619 7  22654155.664    22654155.445    22654158.651
  22654158.929          42.000          45.500
 120586096.809 6  93963187.10744  22946770.244    22946770.096
  22946772.400          41.000          29.5004
 123949068.977 6  96583696.66044  23586720.495    23586719.418
  23586720.014          40.250          27.0004
 119874197.970 7  93408466.51244  22811301.060    22811301.501
  22811301.664          42.250          29.0004
 20  2 19  0  7 30.0000000  0 10G08G20G27G10G14G32G24G18G21G11
 123636816.794 6  96340378.023 7  23527304.182    23527303.897    23527308.675
  23527308.699          41.250          42.500
 112196662.926 8  87425973.62046  21350311.260    21350310.696
  21350312.371          48.250          40.5004
 125105912.803 6  97485124.835 7  23806865.096    23806864.665    23806868.030
  23806868.454          41.750          43.250
 107914791.255 9  84089453.242 9  20535497.720    20535497.636    20535500.729
  20535501.330          54.000          54.750
 115204179.051 8  89769492.24846  21922626.016    21922625.521
  21922626.775          48.000          38.5004
 107716547.676 8  83934975.106 9  20497774.993    20497775.155    20497778.888
  20497778.656          52.750          54.750
 119103367.796 7  92807821.287 7  22664615.860    22664615.603    22664618.870
  22664619.275          42.500          45.000
 120490016.831 7  93888319.59444  22928487.460    22928486.580
  22928489.161          42.000          29.2504
 124043649.264 6  96657395.58244  23604717.676    23604717.308
  23604719.676          40.250          26.7504
 119809274.454 7  93357876.78144  22798946.757    22798946.698
  22798947.636          43.000          29.0004
 20  2 19  0  8  0.0000000  0 10G08G20G27G10G14G32G24G18G21G11
 123674562.227 6  96369790.035 7  23534486.601    23534486.731    23534492.472
  23534491.492          41.250          43.250
 112258545.901 7  87474194.11346  21362087.266    21362086.744
  21362088.043          47.750          40.5004
 125188539.987 7  97549509.629 7  23822588.372    23822588.095    23822592.079
  23822591.574          42.000          42.750
 107924278.238 9  84096845.691 9  20537303.032    20537302.904    20537305.955
  20537306.684          54.250          54.750
 115135250.052 8  89715781.33746  21909509.464    21909509.041
  21909510.341          48.500          38.5004
 107683907.194 8  83909540.971 9  20491563.668    20491563.931    20491567.420
  20491567.299          52.750          54.500
 119158879.426 7  92851077.113 7  22675178.674    22675179.215    22675182.521
  22675182.817          42.500          45.250
 120394268.025 7  93813710.14944  22910266.971    22910266.314
  22910267.953          42.250          29.0004
 124138422.210 6  96731244.65044  23622753.109    23622752.352
  23622754.883          41.250          27.7504
 119744876.842 7  93307696.78744  22786692.494    22786692.292
  22786692.414          42.500          29.2504
 20  2 19  0  8 30.0000000  0 10G08G20G27G10G14G32G24G18G21G11
 123712784.230 6  96399573.407 7  23541760.206    23541760.238    23541765.086
  23541764.733          40.750          42.750
 112320708.438 8  87522632.46246  21373916.865    21373916.027
  21373917.281          48.500          40.5004
 125271408.374 6  97614082.396 7  23838357.494    23838357.621    23838360.886
  23838361.022          41.500          42.000
 107934068.450 9  84104474.430 9  20539166.270    20539166.045    20539169.058
  20539169.630          54.250          54.500
 115066648.399 7  89662325.50946  21896454.889    21896454.469
  21896455.965          47.750          38.7504
 107651690.511 8  83884437.073 9  20485433.052    20485433.191    20485436.850
  20485436.733          53.000          54.750
 119214931.377 7  92894753.970 7  22685845.901    22685845.644    22685849.409
  22685849.179          42.500          45.500
 120298854.505 7  93739361.95644  22892110.416    22892110.224
  22892112.008          42.750          29.5004
 124233387.404 6  96805243.52244  23640823.998    23640824.466
  23640825.686          41.500          28.5004
 119681008.948 6  93257929.60744  22774538.330    22774537.912
  22774539.245          41.750          29.2504
 20  2 19  0  9  0.0000000  0 10G08G20G27G10G14G32G24G18G21G11
 123751479.051 6  96429725.215 7  23549124.150    23549123.626    23549128.476
  23549128.275          41.250          42.750
 112383147.995 8  87571286.64846  21385798.516    21385797.867
  21385798.868          48.000          40.0004
 125354512.811 6  97678839.082 7  23854171.720    23854171.735    23854174.873
  23854175.323          41.500          42.500
 107944160.230 9  84112338.161 9  20541086.519    20541086.457    20541089.410
  20541090.051          54.000          54.500
 114998373.045 8  89609123.95446  21883462.445    21883461.898
  21883463.751          48.000          38.7504
 107619895.445 8  83859661.706 9  20479382.866    20479382.861    20479386.499
  20479386.344          52.750          55.000
 119271519.987 7  92938848.974 7  22696613.594    22696613.914    22696617.483
  22696617.772          42.000          45.250
 120203777.154 7  93665275.72544  22874017.177    22874016.873
  22874018.868          42.500          28.7504
 124328540.946 6  96879389.12044  23658931.964    23658931.258
  23658932.757          41.250          28.5004
 119617670.497 7  93208574.97644  22762485.987    22762485.616
  22762486.309          42.250          29.2504
 20  2 19  0  9 30.0000000  0 10G08G20G27G10G14G32G24G18G21G11
 123790645.624 6  96460244.618 7  23556577.054    23556577.166    23556581.752
  23556581.442          41.500          43.000
 112445865.372 7  87620157.32546  21397733.035    21397732.610
  21397733.622          47.750          40.0004
 125437851.283 6  97743778.142 7  23870030.168    23870029.940    23870034.600
  23870034.553          41.000          43.250
 107954555.146 9  84120438.096 9  20543064.672    20543064.536    20543067.404
  20543068.207          54.500          54.500
 114930425.624 8  89556177.89946  21870532.447    21870532.314
  21870533.280          48.750          39.0004
 107588523.138 8  83835215.764 9  20473412.681    20473412.857    20473416.431
  20473416.382          52.750          55.000
 119328644.401 6  92983361.508 7  22707484.353    22707484.456    22707487.831
  22707488.064          41.500          45.000
 120109039.887 7  93591454.48044  22855989.352    22855989.675
  22855991.013          42.500          29.0004
 124423881.764 6  96953680.66344  23677074.007    23677073.555
  23677074.985          40.500          28.2504
 119554865.065 7  93159635.68044  22750534.776    22750534.022
  22750534.844          43.250          29.5004
 20  2 19  0 10  0.0000000  0 10G08G20G27G10G14G32G24G18G21G11
 123830281.658 6  96491129.825 7  23564119.258    23564119.274    23564123.985
  23564123.493          41.000          42.500
 112508860.162 8  87669244.17046  21409720.920    21409720.048
  21409721.138          48.500          39.7504
 125521420.483 6  97808896.981 7  23885933.513    23885932.931    23885936.520
  23885936.497          41.500          42.000
 107965253.457 9  84128774.438 9  20545100.371    20545100.302    20545103.414
  20545103.978          54.250          54.500
 114862806.745 7  89503487.87446  21857664.828    21857664.456
  21857665.905          47.750          38.7504
 107557573.299 8  83811099.018 9  20467523.217    20467523.388    20467526.787
  20467526.766          52.750          55.000
 119386302.487 7  93028289.889 7  22718455.986    22718456.395    22718459.574
  22718460.210          42.000          45.000
 120014645.516 7  93517900.41244  22838027.031    22838026.562
  22838028.601          42.750          29.5004
 124519407.956 6  97028116.65944  23695251.763    23695251.201
  23695253.669          40.000          26.7504
 119492594.635 6  93111113.27444  22738684.629    22738684.160
  22738684.771          41.750          29.2504
 20  2 19  0 10 30.0000000  0 10G08G20G27G10G14G32G24G18G21G11
 123870385.390 6  96522379.475 7  23571750.966    23571750.968    23571755.878
  23571755.161          41.500          42.750
 112572132.288 8  87718547.12646  21421761.013    21421760.289
  21421761.613          48.000          39.7504
 125605217.360 7  97874193.280 7  23901879.747    23901879.571    23901883.145
  23901882.954          42.500          42.750
 107976255.648 9  84137347.579 9  20547194.203    20547194.024    20547197.150
  20547197.671          54.750          54.750
 114795517.246 8  89451054.49846  21844860.090    21844859.717
  21844861.383          48.250          38.7504
 107527045.922 8  83787311.461 9  20461714.177    20461714.218    20461717.818
  20461717.701          52.750          55.000
 119444492.347 6  93073632.649 7  22729529.353    22729529.621    22729532.765
  22729533.248          41.000          44.750
 119920596.964 7  93444615.84044  22820129.739    22820129.516
  22820132.500          42.750          29.7504
 124615117.823 6  97102695.77244  23713465.482    23713464.222
  23713466.499          40.250          27.0004
 119430861.486 7  93063009.50345  22726937.011    22726936.743
  22726937.794          42.250          30.0004
 20  2 19  0 11  0.0000000  0 10G08G20G27G10G14G32G24G18G21G11
 123910954.445 6  96553991.736 7  23579470.983    23579470.651    23579475.921
  23579475.357          40.500          42.750
 112635680.885 8  87768065.51346  21433854.043    21433853.187
  21433854.505          48.250          39.7504
 125689238.696 6  97939664.428 7  23917868.036    23917867.664    23917871.966
  23917871.610          40.750          42.750
 107987562.002 9  84146157.720 9  20549345.688    20549345.505    20549348.702
  20549349.255          54.500          54.500
 114728557.774 8  89398878.29446  21832118.191    21832117.801
  21832119.306          48.000          38.7504
 107496940.769 8  83763852.916 9  20455985.267    20455985.340    20455988.805
  20455988.747          52.500          55.000
 119503211.905 6  93119388.147 7  22740703.259    22740703.463    22740707.199
  22740707.273          41.000          45.000
 119826897.033 7  93371602.90845  22802299.154    22802299.270
  22802301.166          43.000          30.0004
 124711009.003 6  97177416.15544  23731712.335    23731711.614
  23731713.722          41.000          27.5004
 119369667.604 7  93015325.95945  22715292.307    22715292.375
  22715292.871          42.000          30.2504
 20  2 19  0 11 30.0000000  0 10G08G20G27G10G14G32G24G18G21G11
 123951986.315 6  96585964.607 7  23587279.019    23587279.144    23587283.463
  23587283.604          40.500          43.000
 112699505.191 7  87817798.73046  21445999.466    21445998.577
  21446000.047          47.500          40.0004
 125773480.765 6  98005307.594 7  23933899.094    23933898.614    23933902.097
  23933902.125          40.500          42.250
 107999172.419 9  84155204.794 9  20551555.011    20551554.983    20551558.039
  20551558.570          54.000          54.750
 114661928.362 8  89346959.27446  21819439.386    21819438.793
  21819440.144          48.250          39.2504
 107467257.120 8  83740722.808 9  20450336.606    20450336.795    20450340.335
  20450340.175          52.750          55.000
 119562458.312 6  93165554.198 7  22751977.969    22751977.736    22751980.795
  22751981.361          41.250          44.750
 119733548.123 7  93298863.51344  22784536.140    22784535.747
  22784537.297          43.250          29.7504
 124807079.219 6  97252276.07344  23749994.723    23749993.574
  23749995.740          41.250          27.7504
 119309014.546 7  92968063.84545  22703750.486    22703750.260
  22703751.175          42.500          30.2504
 20  2 19  0 12  0.0000000  0 10G08G20G27G10G14G32G24G18G21G11
 123993480.184 7  96618297.481 7  23595175.868    23595175.360    23595179.453
  23595179.557          42.250          42.500
 112763606.281 7  87867747.61346  21458197.014    21458196.471
  21458198.097          47.750          40.0004
 125857942.042 6  98071121.550 7  23949971.017    23949970.937    23949974.781
  23949974.796          40.750          42.250
 108011088.836 9  84164490.316 9  20553822.751    20553822.451    20553825.600
  20553826.224          54.250          54.500
 114595631.300 7  89295299.23446  21806823.142    21806822.711
  21806824.465          47.500          39.2504
 107437996.521 8  83717922.352 9  20444768.456    20444768.681    20444772.360
  20444772.069          52.750          55.250
 119622231.035 6  93212130.341 7  22763352.155    22763352.000    22763355.150
  22763355.477          41.250          44.500
 119640554.694 7  93226401.10145  22766839.877    22766840.109
  22766841.582          43.000          30.0004
 124903328.093 6  97327275.19944  23768310.302    23768309.566
  23768310.498          41.250          28.0004
 119248905.944 7  92921225.98845  22692312.096    22692311.981
  22692312.727          42.750          30.7504
 20  2 19  0 12 30.0000000  0 10G08G20G27G10G14G32G24G18G21G11
 124035432.213 6  96650987.388 7  23603158.397    23603158.498    23603163.223
  23603162.881          41.000          43.250
 112827981.475 8  87917910.10046  21470447.544    21470446.685
  21470448.052          48.000          40.0004
 125942617.059 7  98137102.082 7  23966084.462    23966084.571    23966088.191
  23966087.843          42.250          42.500
 108023309.405 9  84174012.837 9  20556148.172    20556147.971    20556151.184
  20556151.728          54.250          55.000
 114529664.962 8  89243896.88946  21794270.144    21794270.102
  21794271.015          48.250          39.2504
 107409156.504 8  83695449.622 9  20439280.425    20439280.577    20439283.869
  20439283.917          52.750          55.000
 119682526.042 6  93259113.476 7  22774826.052    22774825.698    22774829.424
  22774829.432          41.750          44.250
 119547917.368 7  93154216.17645  22749211.422    22749211.539
  22749213.197          43.250          30.0004
 124999751.719 6  97402410.48244  23786658.412    23786657.757
  23786660.053          40.500          27.7504
 119189341.585 7  92874812.20445  22680977.447    22680976.526
  22680978.121          42.500          30.2504
 20  2 19  0 13  0.0000000  0 10G08G20G27G10G14G32G24G18G21G11
 124077841.220 6  96684033.334 7  23611227.892    23611228.215    23611232.822
  23611233.082          41.500          43.500
 112892632.161 8  87968287.26246  21482750.036    21482749.409
  21482750.556          48.250          39.7504
 126027504.391 6  98203248.046 7  23982237.960    23982237.666    23982241.605
  23982241.587          41.500          42.750
 108035836.202 9  84183773.977 9  20558531.862    20558531.703    20558535.028
  20558535.435          54.000          54.750
 114464031.539 8  89192753.96546  21781780.425    21781780.173
  21781781.239          48.500          39.2504
 107380738.607 8  83673305.824 9  20433872.514    20433872.749    20433876.313
  20433876.168          52.750          54.750
 119743342.860 7  93306503.216 7  22786398.782    22786398.766    22786402.102
  22786402.318          42.000          44.250
 119455640.806 7  93082312.37845  22731651.414    22731652.115
  22731653.396          43.250          30.2504
 125096349.752 6  97477681.64944  23805039.927    23805040.126
  23805042.134          40.750          27.0004
 119130325.135 7  92828825.36345  22669746.904    22669746.560
  22669747.625          42.000          30.5004
 20  2 19  0 13 30.0000000  0 10G08G20G27G10G14G32G24G18G21G11
 124120705.465 6  96717434.036 7  23619385.341    23619385.071    23619389.653
  23619389.766          39.750          43.000
 112957557.366 8  88018878.32746  21495105.051    21495104.224
  21495105.622          48.000          39.0004
 126112600.435 6  98269556.650 7  23998430.701    23998430.572    23998434.530
  23998434.658          40.500          42.500
 108048669.201 8  84193773.715 9  20560973.944    20560973.826    20560976.938
  20560977.515          53.750          55.000
 114398731.266 8  89141870.64046  21769354.200    21769353.767
  21769355.293          48.250          39.2504
 107352742.210 8  83651490.451 9  20428545.184    20428545.194    20428548.710
  20428548.592          52.750          55.000
 119804679.153 6  93354297.733 7  22798070.556    22798070.784    22798074.155
  22798074.417          41.000          44.750
 119363727.507 7  93010691.60744  22714160.890    22714161.854
  22714162.622          43.250          29.7504
 125193119.783 6  97553086.89044  23823456.101    23823455.020
  23823456.068          41.500          27.0004
 119071858.314 7  92783266.78845  22658621.070    22658620.782
  22658621.231          42.500          30.7504
 20  2 19  0 14  0.0000000  0 10G08G20G27G10G14G32G24G18G21G11
 124164022.830 6  96751187.831 7  23627628.965    23627628.205    23627633.136
  23627632.987          41.500          43.250
 113022757.505 7  88069683.61346  21507512.499    21507511.480
  21507512.719          47.500          39.2504
 126197902.663 6  98336025.913 7  24014662.989    24014662.750    24014666.872
  24014667.314          39.750          42.250
 108061809.413 9  84204012.839 9  20563474.355    20563474.266    20563477.346
  20563477.981          54.250          54.250
 114333765.322 7  89091247.83446  21756991.505    21756991.198
  21756992.909          47.750          39.2504
 107325167.727 8  83630003.860 9  20423297.685    20423298.016    20423301.357
  20423301.360          52.750          54.750
 119866533.314 6  93402495.780 7  22809840.788    22809840.931    22809844.869
  22809844.874          40.500          45.000
 119272180.722 7  92939356.45845  22696739.875    22696739.659
  22696742.105          43.500          30.2504
 125290060.311 6  97628624.96144  23841902.984    23841903.019
  23841903.557          40.750          25.7504
 119013944.001 7  92738138.76145  22647600.536    22647600.587
  22647600.483          43.250          30.7504
 20  2 19  0 14 30.0000000  0 10G08G20G27G10G14G32G24G18G21G11
 124207789.797 6  96785291.943 7  23635957.147    23635956.865    23635961.797
  23635961.315          41.500          43.000
 113088230.766 7  88120701.72646  21519971.426    21519970.505
  21519971.741          46.000          39.5004
 126283406.644 6  98402652.367 7  24030933.493    24030933.519    24030938.447
  24030937.961          39.250          42.250
 108075255.902 9  84214490.623 9  20566033.193    20566033.119    20566036.330
  20566036.749          54.750          54.750
 114269133.263 8  89040885.19846  21744692.630    21744692.386
  21744694.072          48.250          40.0004
 107298013.632 8  83608844.837 9  20418130.556    20418130.693    20418134.186
  20418134.076          52.750          55.000
 119928901.426 6  93451094.322 7  22821709.234    22821709.308    22821712.758
  22821713.179          40.250          44.500
 119181002.200 7  92868308.28145  22679389.970    22679389.739
  22679392.017          43.500          30.7504
 125387168.213 6  97704293.47144  23860382.089    23860380.932
  23860383.062          40.250          25.7504
 118956582.659 7  92693441.61745  22636685.463    22636684.718
  22636685.326          43.250          31.2504
 20  2 19  0 15  0.0000000  0 10G08G20G27G10G14G32G24G18G21G11
 124252005.427 6  96819745.681 7  23644371.251    23644370.810    23644376.115
  23644375.260          40.750          43.000
 113153978.099 7  88171933.41746  21532481.860    21532481.902
  21532482.925          46.250          39.2504
 126369110.397 6  98469434.528 7  24047242.674    24047242.600    24047247.094
  24047247.001          39.750          42.250
 108089010.373 8  84225208.390 9  20568650.564    20568650.521    20568653.487
  20568654.103          53.750          54.500
 114204837.060 7  88990784.27046  21732457.344    21732457.136
  21732458.393          47.750          39.7504
 107271281.019 8  83588014.243 9  20413043.492    20413043.591    20413047.215
  20413047.003          52.750          55.000
 119991782.974 6  93500092.925 7  22833674.695    22833675.131    22833678.711
  22833679.002          40.000          44.500
 119090196.126 7  92797550.31845  22662109.634    22662109.963
  22662111.594          43.750          30.5004
 125484442.936 6  97780091.94244  23878891.831    23878891.772
  23878893.028          39.750          25.7504
 118899777.338 7  92649177.72545  22625875.087    22625875.021
  22625875.918          43.250          31.0004
 20  2 19  0 15 30.0000000  0 10G08G20G27G10G14G32G24G18G21G11
 124296666.894 6  96854546.794 7  23652869.368    23652869.417    23652874.499
  23652874.137          40.500          43.250
 113219998.012 7  88223377.50746  21545045.787    21545045.147
  21545046.325          47.250          39.5004
 126455010.026 6  98536369.302 7  24063589.850    24063588.871    24063593.209
  24063593.006          40.000          42.000
 108103072.325 8  84236165.756 9  20571326.548    20571326.422    20571329.511
  20571329.995          53.750          54.500
 114140876.143 8  88940944.60446  21720286.450    21720286.079
  21720287.194          48.750          40.2504
 107244968.788 8  83567511.213 9  20408036.285    20408036.440    20408040.241
  20408039.992          52.250          55.250
 120055175.162 6  93549489.431 7  22845738.091    22845738.368    22845741.792
  22845742.130          40.250          44.750
 118999764.577 7  92727084.17845  22644901.422    22644901.437
  22644902.867          44.500          30.7504
 125581881.490 6  97856018.10444  23897434.047    23897434.038
  23897435.446          40.250          26.0004
 118843529.443 7  92605348.19845  22615171.923    22615171.472
  22615171.836          43.250          31.5004
 20  2 19  0 16  0.0000000  0 10G08G20G27G10G14G32G24G18G21G11
 124341772.986 6  96889694.411 7  23661453.079    23661453.098    23661457.873
  23661457.212          41.000          42.750
 113286291.032 7  88275034.41746  21557660.471    21557660.339
  21557661.564          46.500          39.5004
 126541103.394 6  98603455.032 7  24079972.803    24079972.518    24079976.402
  24079976.062          40.750          42.500
 108117443.282 8  84247363.900 9  20574061.319    20574061.000    20574064.203
  20574064.726          53.750          54.500
 114077252.175 8  88891367.48646  21708179.025    21708178.553
  21708180.021          48.000          39.7504
 107219077.802 8  83547336.433 9  20403109.571    20403109.665    20403113.155
  20403113.045          52.500          55.000
 120119077.010 6  93599283.087 7  22857898.617    22857898.444    22857902.537
  22857902.553          39.000          45.000
 118909711.412 7  92656912.88145  22627764.533    22627764.904
  22627766.569          44.000          31.0004
 125679483.187 6  97932071.36244  23916007.646    23916006.699
  23916008.231          39.500          26.0004
 118787842.147 7  92561955.48845  22604574.780    22604574.825
  22604574.819          43.000          31.7504
 20  2 19  0 16 30.0000000  0 10G08G20G27G10G14G32G24G18G21G11
 124387318.809 6  96925184.640 7  23670120.226    23670120.295    23670124.808
  23670124.493          41.000          43.000
 113352854.651 7  88326902.16846  21570328.224    21570327.049
  21570328.447          47.000          39.2504
 126627384.794 6  98670687.285 7  24096391.126    24096391.286    24096394.877
  24096394.924          40.500          42.000
 108132121.009 9  84258801.086 9  20576854.172    20576854.077    20576857.375
  20576857.870          54.000          54.500
 114013963.501 8  88842051.63946  21696135.242    21696135.201
  21696136.602          48.250          39.7504
 107193605.258 8  83527487.712 9  20398262.249    20398262.428    20398265.824
  20398265.790          53.000          55.000
 120183483.457 6  93649469.920 7  22870154.820    22870154.877    22870158.410
  22870158.572          40.500          45.000
 118820036.982 7  92587036.71045  22610700.074    22610700.001
  22610702.075          43.500          31.0004
 125777243.566 6  98008248.29644  23934610.760    23934610.404
  23934611.339          40.000          26.5004
 118732714.340 7  92518998.78545  22594084.552    22594084.296
  22594084.430          43.250          31.5004
 20  2 19  0 17  0.0000000  0 10G08G20G27G10G14G32G24G18G21G11
 124433303.869 6  96961017.166 7  23678871.301    23678871.206    23678875.416
  23678875.376          41.750          43.250
 113419689.737 7  88378981.42646  21583046.011    21583044.961
  21583046.684          46.500          39.2504
 126713852.797 6  98738064.933 7  24112845.741    24112845.562    24112849.219
  24112849.250          39.250          42.000
 108147107.597 8  84270478.947 9  20579705.935    20579705.918    20579709.103
  20579709.686          53.750          54.500
 113951012.004 8  88792998.53646  21684156.090    21684155.696
  21684157.114          48.000          40.0004
 107168552.549 8  83507966.130 9  20393494.918    20393495.056    20393498.370
  20393498.379          53.000          55.000
 120248393.907 7  93700049.498 7  22882506.082    22882506.836    22882510.425
  22882510.684          42.500          45.250
 118730745.940 7  92517459.28145  22593708.848    22593708.975
  22593711.171          44.750          32.0004
 125875162.228 6  98084548.53844  23953243.967    23953243.325
  23953244.594          39.500          26.2504
 118678149.810 7  92476480.96345  22583701.413    22583700.734
  22583700.931          43.500          32.0004
 20  2 19  0 17 30.0000000  0 10G08G20G27G10G14G32G24G18G21G11
 124479726.917 6  96997190.953 7  23687705.201    23687704.879    23687709.978
  23687709.496          41.250          43.250
 113486797.199 7  88431272.95246  21595815.679    21595815.157
  21595816.729          46.750          39.0004
 126800505.359 6  98805586.399 6  24129334.686    24129334.506    24129338.694
  24129338.352          39.500          41.500
 108162404.626 8  84282398.703 9  20582616.813    20582616.814    20582620.045
  20582620.620          53.500          54.250
 113888399.464 8  88744209.54746  21672240.986    21672240.877
  21672242.828          48.000          40.0004
 107143920.654 8  83488772.461 9  20388807.501    20388807.682    20388811.217
  20388811.060          53.250          55.250
 120313807.267 6  93751020.942 7  22894954.292    22894954.548    22894958.273
  22894958.345          41.500          45.250
 118641842.261 7  92448183.69145  22576791.378    22576790.259
  22576792.811          45.000          31.5004
 125973238.375 6  98160971.46444  23971908.037    23971906.583
  23971908.299          39.250          26.5004
 118624151.773 7  92434404.56345  22573425.761    22573425.368
  22573425.720          44.000          31.7504
 20  2 19  0 18  0.0000000  0 10G08G20G27G10G14G32G24G18G21G11
 124526584.963 6  97033703.718 7  23696622.050    23696621.606    23696626.919
  23696626.086          41.500          42.750
 113554175.687 7  88483775.65646  21608637.832    21608637.106
  21608638.425          46.750          38.7504
 126887338.736 6  98873248.754 6  24145858.836    24145858.937    24145862.433
  24145862.793          40.500          41.750
 108178011.826 9  84294560.155 9  20585587.059    20585586.809    20585590.036
  20585590.552          54.000          54.250
 113826125.833 7  88695684.65446  21660390.811    21660390.622
  21660392.079          47.500          40.0004
 107119708.583 8  83469905.926 9  20384200.185    20384200.367    20384203.799
  20384203.673          52.750          55.000
 120379720.838 6  93802382.169 7  22907498.043    22907497.687    22907501.591
  22907501.197          41.750          44.750
 118553328.087 7  92379211.60645  22559947.466    22559946.982
  22559948.928          44.250          31.2504
 126071469.257 6  98237515.01644  23990599.990    23990599.975
  23990600.311          38.250          25.5004
 118570721.368 7  92392770.48945  22563258.314    22563257.725
  22563258.326          43.250          32.2504
 20  2 19  0 18 30.0000000  0 10G08G20G27G10G14G32G24G18G21G11
 124573873.922 6  97070552.247 7  23705620.559    23705620.358    23705625.639
  23705624.982          41.000          42.750
 113621823.121 7  88536487.94746  21621510.809    21621510.123
  21621511.145          47.000          38.5004
 126974347.892 6  98941048.098 7  24162416.125    24162416.036    24162419.473
  24162419.933          40.000          42.000
 108193927.778 8  84306962.202 9  20588615.506    20588615.449    20588618.719
  20588619.267          53.750          54.500
 113764189.909 8  88647422.89646  21648605.126    21648604.905
  21648606.160          48.000          40.2504
 107095914.263 8  83451364.907 9  20379672.195    20379672.442    20379675.933
  20379675.754          53.000          55.250
 120446130.106 6  93854129.661 7  22920134.777    22920134.961    22920138.490
  22920138.690          41.500          44.750
 118465204.657 7  92310544.01445  22543177.918    22543177.245
  22543179.904          44.750          31.0004
 126169851.157 6  98314176.24044  24009321.320    24009321.351
  24009322.374          39.750          26.2504
 118517858.602 7  92351578.72445  22553198.322    22553198.369
  22553198.788          43.500          31.7504
 20  2 19  0 19  0.0000000  0 10G08G20G27G10G14G32G24G18G21G11
 124621594.145 6  97107736.831 7  23714701.459    23714701.197    23714706.365
  23714706.023          41.250          43.250
 113689741.700 7  88589411.52346  21634435.038    21634434.422
  21634435.597          46.750          38.5004
 127061532.453 6  99008984.137 6  24179006.922    24179006.660    24179010.060
  24179010.435          40.000          41.500
 108210155.528 9  84319607.202 9  20591703.766    20591703.525    20591706.817
  20591707.379          54.250          54.250
 113702594.784 7  88599426.70446  21636883.706    21636883.310
  21636884.907          47.750          40.0004
 107072540.091 8  83433151.276 9  20375224.228    20375224.517    20375228.029
  20375227.802          53.000          55.250
 120513036.052 7  93906264.158 7  22932866.969    22932866.692    22932870.279
  22932870.403          42.000          44.750
 118377477.497 7  92242185.19345  22526483.468    22526483.718
  22526485.569          44.500          31.7504
 126268384.828 6  98390955.71144  24028072.480    24028071.453
  24028072.939          39.250          26.0004
 118465567.701 7  92310832.56145  22543247.857    22543247.735
  22543248.562          44.000          32.0004
 20  2 19  0 19 30.0000000  0 10G08G20G27G10G14G32G24G18G21G11
 124669741.234 6  97145254.031 7  23723863.920    23723863.369    23723868.223
  23723867.892          41.500          42.750
 113757929.118 7  88642544.56346  21647410.698    21647410.095
  21647411.192          46.500          38.7504
 127148887.242 6  99077052.802 7  24195630.070    24195629.560    24195633.675
  24195633.699          40.000          42.250
 108226693.553 9  84332493.970 9  20594850.760    20594850.631    20594853.641
  20594854.366          54.000          54.000
 113641339.403 8  88551695.24746  21625227.303    21625226.819
  21625228.313          48.000          40.0004
 107049583.813 8  83415263.285 9  20370855.722    20370856.009    20370859.432
  20370859.338          53.000          55.000
 120580434.100 7  93958782.130 7  22945692.198    22945692.002    22945695.475
  22945695.656          42.000          44.500
 118290147.223 7  92174135.62545  22509865.248    22509865.229
  22509867.724          44.500          31.5004
 126367066.233 6  98467850.30544  24046849.899    24046850.056
  24046850.545          38.500          24.7504
 118413848.959 7  92270532.24245  22533406.027    22533405.766
  22533406.306          43.500          32.0004
 20  2 19  0 20  0.0000000  0 10G08G20G27G10G14G32G24G18G21G11
 124718313.954 6  97183102.888 7  23733106.982    23733107.017    23733111.361
  23733110.739          41.500          43.000
 113826385.705 7  88695887.35046  21660437.473    21660437.160
  21660437.890          46.250          38.7504
 127236410.033 6  99145252.350 6  24212284.978    24212284.766    24212289.020
  24212288.641          40.250          41.750
 108243543.080 8  84345623.466 9  20598057.108    20598056.986    20598060.131
  20598060.732          53.750          54.250
 113580424.519 7  88504229.10646  21613635.473    21613635.322
  21613636.815          47.750          40.2504
 107027045.964 8  83397701.334 9  20366566.844    20366567.208    20366570.774
  20366570.497          52.750          55.250
 120648323.376 6  94011682.865 7  22958610.851    22958610.998    22958614.097
  22958614.444          41.500          44.500
 118203217.985 7  92106398.56045  22493323.570    22493323.275
  22493325.017          44.500          31.7504
 126465894.407 6  98544859.22444  24065656.989    24065656.129
  24065656.666          38.500          24.5004
 118362704.872 7  92230679.70145  22523673.571    22523673.443
  22523673.968          43.000          32.0004
 20  2 19  0 20 30.0000000  0 10G08G20G27G10G14G32G24G18G21G11
 124767309.534 6  97221281.283 7  23742430.411    23742430.064    23742434.420
  23742434.426          41.250          42.500
 113895110.663 7  88749439.25646  21673515.652    21673514.936
  21673516.049          46.250          38.7504
 127324097.342 6  99213580.126 6  24228971.081    24228971.411    24228974.555
  24228974.404          40.000          40.500
 108260704.143 9  84358995.719 9  20601322.812    20601322.647    20601326.001
  20601326.417          54.250          54.250
 113519850.821 8  88457028.83446  21602108.976    21602108.502
  21602109.918          48.250          40.5004
 107004925.899 8  83380464.935 9  20362357.858    20362357.897    20362361.329
  20362361.241          53.000          55.500
 120716700.773 6  94064963.961 7  22971622.514    22971622.663    22971625.886
  22971626.440          41.250          44.500
 118116692.111 7  92038975.81145  22476858.494    22476858.106
  22476859.840          45.500          32.2504
 126564867.051 6  98621980.77243  24084490.576    24084490.223
  24084490.236          38.250          23.0004
 118312136.868 7  92191276.07145  22514051.015    22514050.771
  22514051.431          42.750          32.7504
 20  2 19  0 21  0.0000000  0 10G08G20G27G10G14G32G24G18G21G11
 124816725.905 6  97259787.519 7  23751834.316    23751833.952    23751838.578
  23751838.457          41.000          43.250
 113964103.893 7  88803200.23346  21686644.055    21686643.704
  21686645.151          45.500          38.2504
 127411946.251 6  99282033.807 6  24245688.477    24245688.385    24245692.156
  24245692.498          40.000          41.500
 108278177.396 9  84372611.244 9  20604647.850    20604647.694    20604650.953
  20604651.428          54.000          54.250
 113459618.755 7  88410094.76946  21590646.845    21590646.823
  21590648.268          47.750          40.2504
 106983223.530 8  83363554.009 9  20358227.921    20358228.124    20358231.626
  20358231.378          53.000          55.500
 120785564.207 6  94118623.784 7  22984726.657    22984726.887    22984730.786
  22984730.527          40.500          44.000
 118030572.638 7  91971869.74545  22460470.190    22460470.210
  22460471.686          45.250          32.7504
 126663982.270 6  98699213.38343  24103352.014    24103351.815
  24103352.004          38.250          23.0004
 118262146.973 7  92152322.89145  22504538.169    22504537.831
  22504538.987          44.000          32.2504
 20  2 19  0 21 30.0000000  0 10G08G20G27G10G14G32G24G18G21G11
 124866559.958 6  97298619.263 7  23761317.153    23761316.961    23761321.949
  23761321.178          41.500          42.750
 114033364.179 7  88857169.26646  21699824.276    21699823.646
  21699825.002          45.750          38.2504
 127499952.939 6  99350610.433 6  24262435.691    24262435.602    24262438.725
  24262438.798          40.250          40.750
 108295962.507 8  84386469.776 9  20608032.296    20608032.088    20608035.516
  20608035.908          53.750          54.250
 113399728.412 7  88363426.98946  21579250.069    21579249.856
  21579251.383          47.750          40.0004
 106961937.821 8  83346967.755 9  20354177.488    20354177.636    20354180.952
  20354180.819          53.000          55.250
 120854910.807 6  94172660.097 7  22997922.524    22997923.084    22997926.744
  22997926.527          40.500          44.000
 117944861.820 7  91905082.10045  22444159.526    22444159.985
  22444161.281          45.750          32.2504
 126763237.434 6  98776555.08043  24122239.812    24122239.164
  24122238.651          37.500          22.7504
 118212736.429 7  92113821.17645  22495135.821    22495135.429
  22495136.754          44.250          32.5004
 20  2 19  0 22  0.0000000  0 11G08G20G27G31G10G14G32G24G18G21G11
 124916810.190 6  97337775.265 7  23770879.548    23770878.844    23770883.850
  23770883.414          41.250          42.250
 114102892.224 7  88911346.96746  21713055.159    21713054.741
  21713055.656          46.750          38.2504
 127588115.558 6  99419308.583 6  24279212.038    24279212.272    24279216.120
  24279215.877          40.500          41.000
 129784158.050 6 101130512.833 6  24697104.147    24697104.263    24697104.680
  24697104.950          37.500          38.500
 108314061.149 9  84400572.608 9  20611476.385    20611476.175    20611479.257
  20611479.969          54.000          54.250
 113340181.125 7  88317026.51646  21567918.587    21567918.269
  21567919.927          47.500          39.7504
 106941069.718 8  83330706.910 9  20350206.161    20350206.443    20350209.851
  20350209.729          52.750          55.250
 120924739.272 6  94227071.895 7  23011211.420    23011211.153    23011214.830
  23011214.432          41.250          44.000
 117859563.808 7  91838616.11645  22427928.159    22427928.232
  22427929.909          45.500          32.5004
 126862631.879 6  98854005.29643  24141153.955    24141152.898
  24141152.147          38.000          22.7504
 118163907.921 7  92075772.98145  22485843.766    22485843.186
  22485844.529          43.500          32.7504
 20  2 19  0 22 30.0000000  0 11G08G20G27G31G10G14G32G24G18G21G11
 124967473.331 6  97377253.022 7  23780519.876    23780520.214    23780524.854
  23780524.566          41.750          42.750
 114172686.522 7  88965732.14246  21726336.177    21726335.639
  21726337.085          46.000          38.2504
 127676429.815 6  99488124.876 6  24296017.613    24296017.676    24296021.665
  24296021.044          39.250          40.750
 129665433.465 6 101038000.208 6  24674511.427    24674511.582    24674512.638
  24674512.904          38.000          38.250
 108332472.579 9  84414919.174 9  20614979.766    20614979.673    20614982.823
  20614983.413          54.000          54.250
 113280976.486 7  88270893.03346  21556652.502    21556652.257
  21556653.708          47.750          40.2504
 106920617.718 8  83314770.292 9  20346314.270    20346314.433    20346317.979
  20346317.839          53.250          55.500
 120995046.442 7  94281856.711 7  23024590.599    23024590.056    23024593.783
  23024593.629          42.000          43.750
 117774680.307 7  91772473.14545  22411775.240    22411775.260
  22411777.226          45.750          32.7504
 126962162.615 6  98931561.73143  24160093.994    24160092.842
  24160092.798          38.750          21.2504
 118115662.105 7  92038178.85345  22476663.117    22476662.678
  22476663.675          44.250          32.7504
 20  2 19  0 23  0.0000000  0 10G08G20G27G10G14G32G24G18G21G11
 125018547.827 6  97417051.316 7  23790239.631    23790239.084    23790243.892
  23790243.447          41.250          42.250
 114242747.164 7  89020324.83846  21739668.660    21739667.935
  21739669.457          46.250          38.0004
 127764893.314 6  99557057.463 6  24312852.043    24312851.623    24312855.375
  24312855.255          38.500          40.500
 108351197.868 9  84429510.305 9  20618543.223    20618542.969    20618546.165
