     2.11           OBSERVATION DATA    G (GPS)             RINEX VERSION / TYPE
teqc  2018Jun8                          20200101 02:12:02UTCPGM / RUN BY / DATE
Linux 2.4.20-8|x86|gcc -static|Linux 32|=+                  COMMENT
BIT 2 OF LLI FLAGS DATA COLLECTED UNDER A/S CONDITION       COMMENT
POL2                                                        MARKER NAME
GGN                 JPL                                     OBSERVER / AGENCY
02563                 Javad Delta-3             1s jps      REC # / TYPE / VERS
383-1030            TPSCR.G3                                ANT # / TYPE
  1239971.4511  4530790.0876  4302578.7950                  APPROX POSITION XYZ
        0.0780        0.0000        0.0000                  ANTENNA: DELTA H/E/N
     1     1                                                WAVELENGTH FACT L1/2
     8    L1    L2    C1    P1    C2    P2    S1    S2      # / TYPES OF OBSERV
    30.0000                                                 INTERVAL
Forced Modulo Decimation to 30 seconds                      COMMENT
 SNR is mapped to RINEX snr flag value [0-9]                COMMENT
  L1 & L2: min(max(int(snr_dBHz/6), 0), 9)                  COMMENT
teqc edited: all GLONASS satellites excluded                COMMENT
teqc edited: all SBAS satellites excluded                   COMMENT
teqc edited: all Galileo satellites excluded                COMMENT
teqc edited: all Beidou satellites excluded                 COMMENT
teqc edited: all QZSS satellites excluded                   COMMENT
teqc edited: all IRNSS satellites excluded                  COMMENT
pseudorange smoothing corrections not applied               COMMENT
  2020     1     1     0     0    0.0000000     GPS         TIME OF FIRST OBS
                                                            END OF HEADER
 20  1  1  0  0  0.0000000  0  9G16G21G05G13G10G20G29G26G15
 125553756.230 6  97834096.64744  23892086.243    23892084.867
  23892086.812          41.750          26.0004
 112247252.325 8  87465394.56047  21359940.108    21359939.596
  21359940.829          49.750          45.2504
 127659289.040 7  99474773.539 6  24292753.716    24292754.503    24292756.015
  24292754.559          42.750          41.500
 115943783.393 7  90345806.22146  22063366.491    22063366.055
  22063367.396          46.000          37.5004
 126365484.385 6  98466612.593 7  24046552.758    24046552.146    24046555.426
  24046556.198          41.750          43.500
 112953308.076 7  88015563.40746  21494299.383    21494298.825
  21494300.954          47.250          41.2504
 112497542.329 8  87660428.183 8  21407571.609    21407571.710    21407573.340
  21407573.413          52.750          50.000
 126908407.034 6  98889668.490 7  24149869.054    24149868.406    24149873.876
  24149873.656          40.000          42.250
 109232301.567 9  85116079.682 8  20786214.924    20786215.102    20786216.401
  20786216.271          54.000          52.250
 20  1  1  0  0 30.0000000  0  9G16G21G05G13G10G20G29G26G15
 125567603.773 6  97844886.92944  23894720.722    23894720.322
  23894720.855          41.250          25.5004
 112211780.058 8  87437753.83047  21353189.874    21353189.394
  21353190.763          49.500          45.2504
 127760184.669 6  99553393.479 6  24311952.832    24311953.411    24311954.913
  24311954.589          41.750          41.000
 115968085.498 7  90364742.95246  22067990.442    22067990.446
  22067992.013          45.750          37.0004
 126275038.031 6  98396134.905 7  24029340.737    24029340.877    24029345.060
  24029345.122          41.500          43.500
 112887069.992 7  87963949.32646  21481694.823    21481694.120
  21481695.990          47.000          41.0004
 112578138.666 8  87723230.522 8  21422908.592    21422908.727    21422910.431
  21422910.346          52.750          50.000
 126960904.984 6  98930575.990 7  24159858.312    24159857.839    24159863.701
  24159864.311          38.750          42.250
 109211436.208 9  85099820.967 8  20782244.245    20782244.522    20782245.909
  20782245.779          54.250          52.000
 20  1  1  0  1  0.0000000  0  9G16G21G05G13G10G20G29G26G15
 125582010.870 6  97856113.22444  23897462.557    23897462.088
  23897462.764          41.250          24.7504
 112176490.698 8  87410255.62947  21346474.776    21346474.075
  21346475.350          49.750          45.7504
 127861096.911 7  99632026.395 7  24331156.393    24331156.653    24331159.188
  24331159.063          42.250          42.750
 115993000.704 7  90384157.38646  22072732.134    22072731.785
  22072733.309          46.750          37.0004
 126184752.816 7  98325782.773 7  24012160.213    24012160.212    24012164.328
  24012164.179          42.000          43.250
 112821114.506 7  87912555.44846  21469143.952    21469143.094
  21469145.465          47.000          41.5004
 112659158.817 8  87786363.106 8  21438326.439    21438326.230    21438327.854
  21438328.082          52.500          49.750
 127013770.999 6  98971770.288 7  24169919.563    24169918.997    24169923.544
  24169923.656          40.000          42.250
 109191210.892 9  85084060.991 8  20778395.665    20778395.723    20778397.084
  20778397.050          54.250          52.000
 20  1  1  0  1 30.0000000  0  9G16G21G05G13G10G20G29G26G15
 125596976.209 6  97867774.54144  23900309.647    23900309.280
  23900311.235          41.250          26.0004
 112141385.037 8  87382900.56547  21339794.227    21339793.677
  21339795.030          49.000          45.5004
 127962024.375 7  99710671.160 6  24350362.515    24350362.945    24350363.791
  24350363.621          42.750          40.750
 116018527.954 7  90404048.76346  22077589.548    22077589.619
  22077590.917          46.000          37.2504
 126094629.096 7  98255556.506 7  23995010.216    23995010.540    23995014.392
  23995014.919          42.250          43.500
 112755442.341 7  87861382.33846  21456646.594    21456646.056
  21456648.114          46.750          41.2504
 112740600.675 8  87849824.286 8  21453824.108    21453823.862    21453825.903
  21453825.860          52.250          50.500
 127067002.240 6  99013249.163 7  24180047.551    24180047.524    24180053.758
  24180053.854          38.000          42.500
 109171626.354 9  85068800.325 8  20774668.997    20774668.886    20774670.738
  20774670.309          54.250          52.250
 20  1  1  0  2  0.0000000  0  9G16G21G05G13G10G20G29G26G15
 125612499.537 6  97879870.62144  23903264.808    23903263.444
  23903264.801          41.250          25.0004
 112106464.944 8  87355690.10847  21333149.320    21333148.586
  21333149.971          49.250          45.5004
 128062966.509 6  99789327.353 7  24369570.934    24369571.243    24369574.509
  24369573.554          41.250          42.750
 116044667.293 7  90424417.09246  22082564.235    22082563.742
  22082565.078          46.750          37.0004
 126004668.815 7  98185457.556 7  23977891.885    23977891.486    23977896.042
  23977895.934          43.000          44.000
 112690054.643 7  87810430.89146  21444204.168    21444203.352
  21444205.550          47.250          41.5004
 112822462.999 8  87913613.095 8  21469401.768    21469401.792    21469403.923
  21469403.752          52.000          50.000
 127120597.197 6  99055011.482 7  24190247.577    24190247.379    24190252.283
  24190252.687          39.500          42.250
 109152683.773 9  85054039.881 8  20771064.102    20771064.377    20771065.429
  20771065.648          54.500          52.250
 20  1  1  0  2 30.0000000  0  9G16G21G05G13G10G20G29G26G15
 125628579.391 6  97892400.39044  23906323.261    23906323.120
  23906324.463          40.250          24.7504
 112071731.506 8  87328625.09647  21326539.749    21326539.006
  21326540.296          48.750          45.2504
 128163921.575 7  99867993.607 6  24388782.597    24388782.384    24388783.342
  24388783.713          42.000          40.250
 116071417.973 7  90445261.78246  22087654.669    22087654.559
  22087655.446          46.250          37.2504
 125914872.572 6  98115486.457 7  23960803.608    23960803.811    23960808.380
  23960809.350          41.750          44.750
 112624951.741 7  87759701.36846  21431815.260    21431814.694
  21431816.341          47.000          41.2504
 112904743.366 8  87977727.671 8  21485059.327    21485059.147    21485061.214
  21485061.078          51.750          49.750
 127174553.211 6  99097055.150 6  24200513.930    24200515.118    24200518.738
  24200520.139          38.500          41.750
 109134384.296 9  85039780.563 8  20767581.820    20767582.047    20767583.652
  20767583.187          54.750          52.000
 20  1  1  0  3  0.0000000  0  9G16G21G05G13G10G20G29G26G15
 125645213.706 6  97905362.16944  23909488.588    23909488.300
  23909490.214          41.000          25.0004
 112037184.014 8  87301704.97547  21319965.581    21319964.886
  21319966.268          48.750          45.5004
 128264887.440 6  99946668.316 6  24407996.170    24407994.880    24407997.617
  24407997.690          41.250          41.750
 116098777.819 7  90466581.14046  22092860.867    22092860.945
  22092861.606          46.500          37.2504
 125825239.910 7  98045642.832 7  23943747.630    23943747.609    23943750.803
  23943752.317          42.000          44.000
 112560133.209 7  87709193.43446  21419480.686    21419479.843
  21419482.023          47.000          41.2504
 112987438.857 8  88042165.697 8  21500795.752    21500795.769    21500797.699
  21500797.903          51.500          50.250
 127228866.441 6  99139377.145 6  24210850.224    24210849.614    24210854.352
  24210854.323          38.750          40.750
 109116726.972 9  85026021.619 8  20764221.772    20764221.829    20764223.515
  20764223.092          54.500          52.000
 20  1  1  0  3 30.0000000  0  9G16G21G05G13G10G20G29G26G15
 125662402.802 6  97918756.27544  23912760.593    23912759.698
  23912761.080          41.500          26.2504
 112002825.203 8  87274931.87747  21313427.268    21313426.758
  21313427.991          49.000          45.5004
 128365864.145 6 100025351.420 6  24427210.798    24427210.583    24427212.160
  24427211.515          40.250          40.750
 116126747.039 7  90488375.35546  22098183.072    22098182.944
  22098184.170          46.750          37.2504
 125735773.227 6  97975928.512 7  23926722.345    23926722.404    23926726.769
  23926726.526          41.500          44.250
 112495600.848 7  87658908.47846  21407200.411    21407199.750
  21407202.077          47.250          41.5004
 113070548.917 8  88106926.775 8  21516611.196    21516611.159    21516613.197
  21516612.915          51.750          49.750
 127283535.873 6  99181976.714 7  24221253.698    24221253.309    24221258.615
  24221259.021          40.000          42.500
 109099714.174 9  85012764.910 8  20760984.243    20760984.338    20760985.863
  20760985.630          54.750          52.000
 20  1  1  0  4  0.0000000  0  9G16G21G05G13G10G20G29G26G15
 125680144.160 6  97932580.70644  23916135.169    23916135.858
  23916137.021          40.500          25.5004
 111968654.985 8  87248305.73547  21306925.228    21306924.152
  21306925.504          49.000          45.7504
 128466849.128 6 100104041.053 6  24446426.867    24446427.347    24446429.579
  24446429.052          38.750          39.750
 116155324.143 7  90510643.22246  22103621.449    22103620.912
  22103622.316          46.500          37.0004
 125646472.166 7  97906343.267 7  23909729.439    23909729.239    23909732.813
  23909733.531          42.000          44.000
 112431354.063 7  87608846.06346  21394974.795    21394974.250
  21394976.375          47.000          41.7504
 113154070.250 8  88172008.333 8  21532504.961    21532504.627    21532506.730
  21532506.515          51.750          49.750
 127338557.921 6  99224851.034 7  24231722.324    24231723.061    24231729.253
  24231729.737          38.250          42.500
 109083345.142 9  85000009.828 8  20757869.265    20757869.463    20757870.862
  20757870.685          55.000          52.250
 20  1  1  0  4 30.0000000  0 10G16G21G05G13G10G20G27G29G26G15
 125698437.007 6  97946834.87543  23919617.109    23919616.470
  23919617.606          40.250          23.7504
 111934674.693 8  87221827.59047  21300458.809    21300458.026
  21300459.188          48.750          45.7504
 128567842.014 6 100182736.815 6  24465645.171    24465644.748    24465647.264
  24465646.851          39.500          40.250
 116184508.713 7  90533384.45146  22109175.069    22109174.581
  22109175.925          46.500          36.7504
 125557338.267 6  97836888.269 7  23892767.930    23892767.189    23892771.658
  23892772.162          41.250          44.750
 112367394.079 7  87559007.12546  21382803.592    21382803.085
  21382804.743          47.000          41.5004
 130988360.513 6                  24926256.691
                        36.750
 113238001.750 8  88237409.487 8  21548476.494    21548476.370    21548478.340
  21548478.280          51.250          49.750
 127393930.619 6  99267998.596 6  24242260.640    24242259.699    24242265.116
  24242265.734          39.500          41.250
 109067621.356 9  84987757.538 8  20754877.280    20754877.361    20754878.614
  20754878.504          54.500          52.250
 20  1  1  0  5  0.0000000  0  9G16G21G05G13G10G20G29G26G15
 125717280.284 6  97961517.96144  23923202.850    23923202.625
  23923204.141          40.750          24.2504
 111900884.745 8  87195497.76647  21294028.791    21294027.986
  21294029.156          48.750          45.7504
 128668841.056 6 100261437.354 6  24484865.244    24484866.777    24484865.537
  24484865.362          41.000          37.000
 116214298.851 7  90556597.55346  22114843.607    22114843.841
  22114844.605          46.750          37.2504
 125468371.608 6  97767563.596 7  23875837.313    23875837.139    23875841.225
  23875841.743          41.750          43.750
 112303720.822 7  87509391.60646  21370687.097    21370686.333
  21370688.413          47.250          41.5004
 113322340.415 8  88303127.925 8  21564525.594    21564525.533    21564527.603
  21564527.551          51.250          49.750
 127449650.807 6  99311416.926 7  24252862.924    24252862.903    24252869.210
  24252869.406          38.750          42.250
 109052542.548 9  84976007.830 8  20752007.953    20752008.062    20752009.482
  20752009.256          54.500          52.500
 20  1  1  0  5 30.0000000  0  9G16G21G05G13G10G20G29G26G15
 125736672.250 6  97976628.55844  23926891.971    23926892.394
  23926894.301          40.250          25.2504
 111867286.155 8  87169317.05247  21287635.141    21287634.394
  21287635.547          48.750          45.5004
 128769844.914 6 100340141.658 6  24504085.955    24504085.711    24504087.200
  24504086.197          41.500          37.750
 116244694.126 7  90580282.19246  22120627.221    22120627.612
  22120628.792          46.250          37.2504
 125379573.253 7  97698370.037 7  23858940.055    23858940.287    23858943.276
  23858944.200          42.000          44.000
 112240334.915 7  87460000.00646  21358625.058    21358624.361
  21358626.420          47.000          41.7504
 113407084.304 8  88369162.113 8  21580651.762    21580651.655    21580653.661
  21580653.762          50.500          49.750
 127505716.104 6  99355104.176 6  24263533.055    24263532.307    24263537.270
  24263537.771          39.250          41.250
 109038109.512 9  84964761.324 8  20749261.452    20749261.492    20749263.115
  20749262.814          54.500          52.750
 20  1  1  0  6  0.0000000  0  9G16G21G05G13G10G20G29G26G15
 125756611.772 6  97992165.82844  23930687.557    23930686.488
  23930688.050          40.000          25.0004
 111833880.100 8  87143286.36447  21281278.043    21281277.257
  21281278.779          48.250          45.7504
 128870852.492 6 100418848.853 6  24523306.029    24523306.215    24523309.025
  24523308.466          40.250          38.750
 116275692.969 7  90604437.13646  22126526.603    22126526.565
  22126527.220          46.750          36.7504
 125290943.900 7  97629308.199 7  23842075.132    23842074.804    23842078.110
  23842078.992          42.500          44.500
 112177236.583 7  87410832.48346  21346617.898    21346617.241
  21346619.332          46.750          41.7504
 113492231.684 8  88435510.710 8  21596854.763    21596854.686    21596856.527
  21596856.603          50.500          49.750
 127562123.794 6  99399058.213 7  24274266.152    24274265.851    24274271.862
  24274271.819          38.750          42.000
 109024322.906 9  84954018.520 8  20746637.803    20746638.040    20746639.615
  20746639.246          54.750          52.500
 20  1  1  0  6 30.0000000  0  9G16G21G05G13G10G20G29G26G15
 125777097.017 6  98008128.33944  23934585.544    23934584.796
  23934586.462          40.000          24.7504
 111800666.258 8  87117405.45747  21274957.604    21274956.976
  21274958.253          48.000          45.7504
 128971861.835 7 100497557.471 5  24542528.548    24542527.820    24542526.814
  24542527.984          42.500          33.750
 116307293.432 7  90629060.89146  22132539.934    22132539.993
  22132541.288          46.750          37.0004
 125202483.397 6  97560377.913 7  23825240.491    23825241.133    23825245.160
  23825245.202          41.750          45.000
 112114425.772 7  87361889.00546  21334665.328    21334664.683
  21334666.784          46.750          41.7504
 113577779.094 8  88502171.018 8  21613134.001    21613133.956    21613135.996
  21613135.967          50.250          49.750
 127618870.422 6  99443276.376 6  24285064.675    24285065.612    24285070.229
  24285071.401          38.750          41.250
 109011182.116 9  84943778.955 8  20744137.332    20744137.405    20744138.813
  20744138.638          54.750          52.500
 20  1  1  0  7  0.0000000  0  9G16G21G05G13G10G20G29G26G15
 125798127.951 6  98024516.08644  23938587.741    23938587.201
  23938588.196          40.750          25.5004
 111767647.312 7  87091676.41447  21268674.460    21268673.703
  21268675.046          47.750          45.7504
 129072872.667 7 100576267.295 6  24561749.986    24561750.271    24561751.152
  24561751.149          42.250          36.250
 116339496.558 7  90654154.23946  22138667.887    22138668.107
  22138669.445          46.750          37.0004
 125114194.062 7  97491581.029 7  23808439.920    23808440.300    23808444.045
  23808444.192          42.250          45.000
 112051904.236 7  87313170.93647  21322767.736    21322767.227
  21322769.230          46.250          42.0004
 113663726.036 8  88569142.651 8  21629488.982    21629489.282    21629491.167
  21629491.042          50.750          49.500
 127675954.850 6  99487757.736 6  24295928.450    24295927.957    24295933.322
  24295933.586          39.000          41.750
 108998689.229 9  84934044.250 8  20741759.802    20741760.168    20741761.704
  20741761.296          54.750          52.250
 20  1  1  0  7 30.0000000  0  9G16G21G05G13G10G20G29G26G15
 125819701.986 6  98041327.00544  23942693.790    23942692.354
  23942694.711          40.000          25.2504
 111734822.883 8  87066098.94747  21262428.066    21262427.380
  21262428.717          48.500          45.7504
 129173883.126 7 100654976.761 6  24580971.330    24580971.669    24580973.104
  24580972.465          42.250          38.500
 116372300.275 7  90679715.58246  22144910.481    22144910.691
  22144911.433          47.000          36.7504
 125026076.028 7  97422917.631 7  23791671.930    23791672.211    23791675.698
  23791676.052          42.500          45.000
 111989671.888 7  87264678.20347  21310925.259    21310924.608
  21310926.826          47.000          42.0004
 113750070.047 8  88636423.685 8  21645919.516    21645919.695    21645921.950
  21645921.709          50.500          49.250
 127733373.856 6  99532499.810 6  24306854.716    24306854.405    24306860.349
  24306859.815          38.000          41.250
 108986843.826 9  84924814.069 8  20739505.907    20739505.890    20739507.298
  20739507.161          54.250          52.250
 20  1  1  0  8  0.0000000  0  9G16G21G05G13G10G20G29G26G15
 125841818.253 6  98058560.44844  23946901.510    23946901.139
  23946903.070          40.000          25.2504
 111702195.255 8  87040674.83147  21256219.403    21256218.578
  21256219.959          48.000          45.7504
 129274892.162 7 100733685.080 6  24600194.166    24600193.778    24600194.311
  24600194.169          44.250          39.000
 116405703.004 7  90705743.68446  22151267.051    22151266.259
  22151268.013          46.750          36.7504
 124938129.839 7  97354388.115 7  23774936.485    23774936.975    23774940.495
  23774940.095          43.000          44.250
 111927729.324 7  87216411.30047  21299138.064    21299137.423
  21299139.581          46.500          42.0004
 113836808.572 8  88704012.141 8  21662425.732    21662425.739    21662427.362
  21662427.335          50.500          49.000
 127791124.580 6  99577500.373 6  24317844.280    24317843.555    24317849.196
  24317849.034          38.750          40.500
 108975646.292 9  84916088.728 8  20737374.875    20737374.998    20737376.527
  20737376.249          54.250          52.500
 20  1  1  0  8 30.0000000  0  9G16G21G05G13G10G20G29G26G15
 125864475.188 6  98076215.18544  23951212.959    23951212.849
  23951214.241          40.000          25.7504
 111669764.462 7  87015404.09447  21250047.957    21250047.188
  21250048.484          47.750          45.7504
 129375898.270 7 100812391.157 6  24619413.498    24619413.614    24619415.352
  24619414.791          42.500          38.500
 116439703.641 7  90732237.68846  22157736.733    22157736.593
  22157737.678          46.500          36.5004
 124850356.301 7  97285993.149 7  23758233.078    23758233.241    23758236.957
  23758237.878          42.500          44.500
 111866076.675 7  87168370.28147  21287405.925    21287405.374
  21287407.491          46.250          42.2504
 113923939.376 8  88771906.262 8  21679005.828    21679005.978    21679007.948
  21679007.859          50.250          48.750
 127849204.423 6  99622757.430 6  24328896.580    24328895.994    24328901.490
  24328902.088          38.250          41.250
 108965096.970 9  84907868.484 8  20735367.418    20735367.619    20735368.803
  20735368.691          54.500          52.250
 20  1  1  0  9  0.0000000  0  9G16G21G05G13G10G20G29G26G15
 125887671.169 6  98094289.95544  23955627.824    23955626.742
  23955628.132          39.750          25.0004
 111637531.700 7  86990287.66147  21243914.139    21243913.487
  21243914.911          47.750          45.7504
 129476900.662 7 100891094.329 6  24638633.970    24638633.731    24638634.132
  24638633.641          43.000          37.250
 116474301.130 7  90759196.77646  22164320.131    22164320.545
  22164321.570          46.750          36.2504
 124762756.072 7  97217733.236 7  23741563.543    23741563.609    23741567.205
  23741568.047          42.750          44.500
 111804714.012 7  87120555.25047  21275729.035    21275728.356
  21275730.543          46.500          42.5004
 114011460.193 8  88840104.289 8  21695660.396    21695660.490    21695662.651
  21695662.568          50.000          49.000
 127907610.664 6  99668268.773 6  24340010.248    24340010.400    24340014.615
  24340015.928          39.000          41.000
 108955196.272 9  84900153.663 8  20733483.416    20733483.639    20733484.748
  20733484.812          54.250          52.250
 20  1  1  0  9 30.0000000  0 10G27G16G21G05G13G10G20G29G26G15
 129959058.040 6                  24730386.382
                        37.000
 125911405.363 6  98112784.13444  23960143.675    23960143.499
  23960144.713          39.250          24.2504
 111605498.523 8  86965326.75747  21237818.413    21237817.791
  21237819.261          48.500          45.7504
 129577898.557 6 100969794.031 6  24657851.966    24657852.288    24657854.399
  24657853.260          40.250          38.750
 116509494.616 7  90786620.28446  22171017.593    22171017.281
  22171019.069          47.500          36.7504
 124675330.414 7  97149609.352 7  23724926.324    23724926.882    23724930.656
  23724931.292          42.250          44.250
 111743642.888 7  87072967.37547  21264107.868    21264107.100
  21264108.841          47.250          42.7504
 114099369.379 8  88908604.943 8  21712389.508    21712389.317    21712391.292
  21712391.151          50.250          48.750
 127966341.104 6  99714032.749 6  24351187.031    24351186.725    24351192.029
  24351191.672          39.000          41.250
 108945944.820 9  84892944.744 8  20731722.872    20731723.047    20731724.386
  20731724.291          54.500          52.250
 20  1  1  0 10  0.0000000  0 10G27G16G21G05G13G10G20G29G26G15
 129857190.324 6 101187417.724 6  24711000.185    24711000.090    24711003.774
  24711004.898          39.000          41.250
 125935675.716 6  98131696.07844  23964761.478    23964761.903
  23964762.943          39.250          25.5004
 111573665.218 7  86940521.59547  21231760.660    21231760.026
  21231761.499          47.750          46.0004
 129678890.052 7 101048488.716 6  24677071.733    24677071.789    24677073.387
  24677073.040          43.250          41.000
 116545282.886 7  90814507.23846  22177827.709    22177827.795
  22177829.344          47.250          36.7504
 124588079.637 7  97081621.745 7  23708323.630    23708323.754    23708328.373
  23708328.385          42.750          44.750
 111682863.149 7  87025606.55547  21252541.408    21252540.952
  21252543.032          46.750          42.5004
 114187664.375 8  88977406.220 8  21729191.136    21729191.240    21729193.101
  21729193.107          49.750          49.000
 128025392.672 6  99760046.970 6  24362423.648    24362423.921    24362428.924
  24362429.350          38.500          40.500
 108937342.467 9  84886241.623 8  20730085.760    20730086.019    20730087.753
  20730087.321          54.250          52.750
 20  1  1  0 10 30.0000000  0 10G27G16G21G05G13G10G20G29G26G15
 129755526.043 6 101108198.774 6  24691655.038    24691654.712    24691658.171
  24691658.869          40.250          39.750
 125960481.203 6  98151025.01544  23969483.041    23969481.978
  23969484.021          38.750          24.7504
 111542032.863 8  86915873.01147  21225741.410    21225740.663
  21225742.099          48.250          45.7504
 129779873.829 6 101127177.352 6  24696287.371    24696287.225    24696290.135
  24696289.813          41.250          41.500
 116581664.436 7  90842856.49546  22184750.962    22184750.709
  22184752.131          47.000          36.7504
 124501004.661 7  97013771.123 7  23691753.865    23691753.398    23691757.985
  23691758.515          42.750          45.000
 111622375.281 7  86978473.16647  21241031.194    21241030.279
  21241032.601          47.000          42.5004
 114276343.266 8  89046506.647 8  21746066.660    21746066.488    21746067.940
  21746068.079          50.000          48.750
 128084762.962 6  99806309.516 6  24373721.530    24373721.618    24373727.108
  24373727.033          38.500          40.750
 108929389.633 9  84880044.617 8  20728572.642    20728572.795    20728574.056
  20728574.001          54.250          52.500
 20  1  1  0 11  0.0000000  0 10G27G16G21G05G13G10G20G29G26G15
 129654068.060 6 101029140.592 6  24672348.351    24672347.925    24672351.966
  24672350.778          40.500          39.500
 125985819.839 6  98170769.39144  23974303.962    23974303.519
  23974305.835          38.250          25.5004
 111510602.363 7  86891381.71647  21219760.235    21219759.649
  21219760.954          47.500          46.0004
 129880848.853 6 101205859.103 6  24715502.476    24715502.071    24715504.574
  24715504.804          41.500          41.000
 116618637.605 7  90871666.75146  22191786.721    22191786.761
  22191787.815          47.500          36.5004
 124414105.899 7  96946057.813 7  23675217.558    23675217.731    23675221.092
  23675222.134          43.250          44.750
 111562179.433 7  86931567.33747  21229575.978    21229575.531
  21229577.500          47.000          42.7504
 114365403.568 8  89115904.274 8  21763013.914    21763014.003    21763015.788
  21763015.780          49.500          48.750
 128144448.776 6  99852817.961 6  24385079.034    24385079.830    24385084.482
  24385084.958          38.500          41.000
 108922086.337 9  84874353.749 8  20727182.837    20727182.929    20727184.530
  20727184.238          54.250          52.500
 20  1  1  0 11 30.0000000  0 10G27G16G21G05G13G10G20G29G26G15
 129552818.351 6 100950244.698 6  24653080.506    24653080.547    24653083.457
  24653083.960          40.250          39.250
 126011689.404 6  98190927.47944  23979227.016    23979226.622
  23979228.053          39.000          25.5004
 111479373.650 8  86867047.66047  21213817.475    21213816.980
  21213818.330          48.000          46.0004
 129981813.682 6 101284532.992 6  24734715.599    24734716.035    24734717.856
  24734716.755          41.750          41.250
 116656200.643 7  90900936.66746  22198934.645    22198934.863
  22198935.849          47.250          36.2504
 124327383.380 7  96878481.819 7  23658714.753    23658714.962    23658718.203
  23658719.321          43.250          44.500
 111502275.358 7  86884888.85647  21218176.759    21218176.248
  21218178.177          46.750          42.7504
 114454841.850 8  89185596.427 8  21780033.558    21780033.544    21780035.435
  21780035.381          49.750          48.500
 128204446.897 6  99899569.724 6  24396496.520    24396496.972    24396501.751
  24396501.928          38.000          41.250
 108915432.071 9  84869168.615 8  20725916.460    20725916.669    20725917.896
  20725917.878          54.000          52.500
 20  1  1  0 12  0.0000000  0 10G27G16G21G05G13G10G20G29G26G15
 129451780.558 6 100871513.938 6  24633853.750    24633854.024    24633856.971
  24633857.197          39.750          39.000
 126038089.154 6  98211498.69144  23984251.281    23984250.575
  23984251.918          39.000          26.2504
 111448349.505 8  86842873.00547  21207913.974    21207913.357
  21207914.599          48.000          46.2504
 130082767.530 7 101363198.335 6  24753927.698    24753927.603    24753929.358
  24753928.867          42.500          41.500
 116694353.015 7  90930665.77746  22206194.574    22206194.790
  22206196.144          47.000          36.2504
 124240838.753 7  96811044.458 7  23642245.658    23642246.506    23642249.785
  23642250.311          43.000          45.000
 111442664.666 7  86838438.98147  21206833.359    21206832.572
  21206834.788          47.000          43.0004
 114544657.289 8  89255582.482 8  21797124.609    21797124.644    21797126.752
  21797126.686          49.250          48.500
 128264755.484 6  99946563.423 6  24407972.903    24407972.988    24407978.223
  24407977.841          37.500          40.750
 108909427.899 9  84864490.044 8  20724774.066    20724774.115    20724775.136
  20724775.340          54.000          52.250
 20  1  1  0 12 30.0000000  0 10G27G16G21G05G13G10G20G29G26G15
 129350956.664 6 100792949.839 6  24614667.209    24614667.720    24614671.835
  24614670.416          40.000          38.500
 126065016.843 6  98232481.30644  23989375.610    23989375.367
  23989377.096          38.750          26.2504
 111417529.955 7  86818857.78047  21202049.248    21202048.388
  21202049.723          47.750          46.0004
 130183708.538 6 101441853.656 6  24773135.449    24773135.121    24773137.042
  24773136.762          41.750          40.250
 116733092.864 7  90960852.69446  22213566.454    22213566.232
  22213567.843          47.500          36.0004
 124154472.074 7  96743745.742 7  23625810.779    23625810.726    23625814.576
  23625814.792          42.250          44.750
 111383346.906 7  86792217.36547  21195545.422    21195544.798
  21195546.999          46.500          42.7504
 114634846.959 8  89325860.134 8  21814287.393    21814287.493    21814289.377
  21814289.316          49.000          48.500
 128325371.163 6  99993796.435 6  24419508.366    24419508.117    24419513.316
  24419512.771          38.500          40.500
 108904073.243 9  84860317.599 8  20723755.100    20723755.147    20723756.538
  20723756.347          54.000          52.500
 20  1  1  0 13  0.0000000  0 10G27G16G21G05G13G10G20G29G26G15
 129250350.381 6 100714555.301 6  24595522.416    24595523.063    24595526.365
  24595525.612          39.500          39.500
 126092472.094 6  98253875.02044  23994599.260    23994599.014
  23994600.380          36.500          25.2504
 111386916.701 7  86795003.30847  21196223.586    21196223.090
  21196224.261          47.250          46.0004
 130284636.732 7 101520498.987 6  24792342.310    24792341.897    24792343.110
  24792342.537          43.750          40.250
 116772419.768 7  90991497.03046  22221050.457    22221050.348
  22221051.926          47.500          36.2504
 124068285.017 7  96676587.003 7  23609409.597    23609410.035    23609413.413
  23609414.180          42.500          45.250
 111324322.871 7  86746224.62847  21184313.667    21184312.890
  21184314.829          47.000          43.0004
 114725409.622 8  89396428.426 8  21831520.983    21831521.000    21831522.630
  21831522.516          49.250          48.250
 128386292.223 6 100041267.364 6  24431100.941    24431100.703    24431105.997
  24431105.673          37.500          40.250
 108899369.376 8  84856652.253 8  20722859.758    20722860.082    20722861.354
  20722861.163          53.000          52.000
 20  1  1  0 13 30.0000000  0 10G27G16G21G05G13G10G20G29G26G15
 129149964.078 6 100636332.180 6  24576418.655    24576419.825    24576423.871
  24576423.236          38.500          40.500
 126120452.877 6  98275678.20644  23999923.898    23999923.658
  23999925.128          36.750          24.7504
 111356510.485 7  86771310.17147  21190437.653    21190436.928
  21190438.275          47.750          46.2504
 130385550.805 7 101599133.349 6  24811544.960    24811544.893    24811546.367
  24811544.781          42.000          38.750
 116812331.970 7  91022597.44146  22228645.154    22228645.205
  22228646.769          47.000          36.2504
 123982277.962 7  96609568.532 7  23593043.397    23593043.762    23593047.495
  23593047.969          42.750          45.500
 111265593.877 7  86700461.79547  21173137.563    21173137.058
  21173139.124          46.750          42.7504
 114816342.258 8  89467285.029 8  21848824.597    21848824.638    21848826.836
  21848826.334          49.000          48.250
 128447515.577 6 100088973.880 6  24442751.810    24442751.682    24442756.236
  24442756.018          39.000          39.750
 108895315.813 8  84853493.639 8  20722088.199    20722088.571    20722089.763
  20722089.782          53.000          52.250
 20  1  1  0 14  0.0000000  0 10G27G16G21G05G13G10G20G29G26G15
 129049799.955 6 100558282.165 6  24557358.539    24557359.441    24557363.212
  24557363.183          38.750          41.250
 126148957.048 6  98297889.25744  24005348.299    24005347.982
  24005349.439          37.250          24.7504
 111326311.328 7  86747778.36547  21184690.740    21184690.194
  21184691.510          47.500          46.2504
 130486448.991 6 101677755.248 6  24830744.421    24830745.477    24830745.470
  24830746.683          41.500          37.500
 116852827.354 7  91054152.29346  22236351.535    22236351.346
  22236353.202          47.500          36.2504
 123896451.094 7  96542690.458 7  23576711.123    23576711.120    23576715.050
  23576715.802          42.750          45.750
 111207159.071 7  86654928.19447  21162017.972    21162017.425
  21162019.464          47.000          43.0004
 114907642.448 8  89538428.014 8  21866198.619    21866198.731    21866200.502
  21866200.692          49.000          48.250
 128509037.943 6 100136913.404 6  24454457.751    24454458.044    24454463.359
  24454463.347          36.500          40.000
 108891912.083 8  84850841.396 8  20721440.677    20721440.937    20721442.205
  20721442.185          52.250          52.500
 20  1  1  0 14 30.0000000  0 10G27G16G21G05G13G10G20G29G26G15
 128949860.291 6 100480407.076 7  24538340.930    24538340.945    24538346.753
  24538346.073          38.750          42.250
 126177980.397 6                  24010871.355
                        36.250
 111296320.273 8  86724408.71447  21178983.655    21178983.127
  21178984.342          48.000          46.0004
 130587330.049 7 101756363.895 6  24849943.403    24849943.265    24849944.013
  24849943.436          43.500          38.750
 116893904.232 8  91086160.25746  22244168.467    22244167.806
  22244169.126          48.250          36.2504
 123810804.836 7  96475953.110 7  23560413.222    23560413.587    23560417.344
  23560417.541          42.750          45.000
 111149018.598 7  86609623.94747  21150954.038    21150953.288
  21150955.640          46.750          43.0004
 114999307.537 8  89609855.352 8  21883641.896    21883642.078    21883643.994
  21883643.646          49.000          48.500
 128570856.407 6 100185083.598 6  24466221.997    24466223.068    24466227.207
  24466226.765          38.250          40.500
 108889158.015 8  84848695.376 8  20720916.795    20720916.842    20720918.137
  20720918.046          52.250          52.250
 20  1  1  0 15  0.0000000  0  9G27G21G05G13G10G20G29G26G15
 128850148.508 6 100402709.584 7  24519366.860    24519366.718    24519371.104
  24519371.429          39.000          42.750
 111266539.796 8  86701203.14847  21173316.748    21173316.084
  21173317.304          48.250          46.0004
 130688193.226 7 101834958.620 6  24869136.311    24869136.475    24869137.269
  24869136.169          43.750          37.250
 116935561.885 8  91118620.75346  22252095.891    22252095.178
  22252096.601          48.250          36.2504
 123725340.460 7  96409357.501 7  23544149.449    23544149.811    23544153.614
  23544153.981          42.250          44.750
 111091173.566 7  86564549.91347  21139946.809    21139946.114
  21139948.156          47.250          43.2504
 115091335.996 8  89681565.820 8  21901154.175    21901154.299    21901155.996
  21901156.009          48.250          48.250
 128632968.694 6 100233482.803 6  24478041.504    24478041.751    24478047.364
  24478046.643          37.250          40.000
 108887054.287 8  84847056.116 8  20720516.326    20720516.432    20720517.911
  20720517.787          52.250          52.500
 20  1  1  0 15 30.0000000  0 10G27G21G16G05G13G10G20G29G26G15
 128750666.960 6 100325191.494 7  24500436.402    24500436.313    24500440.965
  24500440.906          40.000          42.250
 111236969.857 7  86678161.64847  21167689.826    21167689.094
  21167690.230          47.750          46.2504
 126237591.933 6  98366956.37644  24022214.881    24022214.672
  24022216.863          37.000          25.5004
 130789037.188 7 101913538.392 6  24888325.418    24888326.528    24888327.370
  24888327.049          43.000          37.500
 116977798.480 8  91151532.39446  22260132.767    22260132.595
  22260133.939          48.250          36.0004
 123640058.398 7  96342903.940 7  23527921.369    23527921.194    23527925.368
  23527925.888          43.500          45.250
 111033623.955 7  86519706.08647  21128995.312    21128994.324
  21128996.649          46.750          42.7504
 115183724.949 8  89753557.211 8  21918735.322    21918735.268    21918737.396
  21918737.387          49.000          48.250
 128695371.824 6 100282108.597 6  24489916.897    24489916.019    24489921.814
  24489922.696          36.500          40.750
 108885600.391 8  84845923.220 8  20720239.785    20720239.905    20720241.027
  20720241.080          52.000          52.250
 20  1  1  0 16  0.0000000  0 10G27G21G16G05G13G10G20G26G29G15
 128651418.305 6 100247854.877 6  24481550.241    24481549.523    24481553.432
  24481553.936          41.000          41.500
 111207611.100 7  86655284.69747  21162102.972    21162102.230
  21162103.469          47.250          46.2504
 126268172.223 6  98390785.17844  24028033.834    24028034.407
  24028035.461          36.000          24.7504
 130889860.868 7 101992102.245 6  24907511.372    24907511.542    24907513.680
  24907512.030          42.250          36.000
 117020612.487 8  91184893.96346  22268280.258    22268279.891
  22268281.266          48.000          36.2504
 123554959.185 7  96276592.854 7  23511727.171    23511726.929    23511731.338
  23511731.619          42.500          45.500
 110976369.851 7  86475092.51247  21118100.590    21118099.626
  21118101.421          47.250          43.5004
 128758072.922 6 100330965.826 5  24501846.590    24501846.142    24501851.686
  24501850.891          38.000          35.250
 115276471.912 8  89825827.555 8  21936384.278    21936384.542    21936386.071
  21936386.457          48.500          48.000
 108884796.328 8  84845296.687 8  20720086.597    20720086.809    20720087.846
  20720087.931          51.750          52.500
 20  1  1  0 16 30.0000000  0 10G27G21G16G05G13G10G20G26G29G15
 128552405.255 6 100170701.848 6  24462707.940    24462707.681    24462711.283
  24462711.765          41.500          40.500
 111178465.318 7  86632573.70047  21156556.611    21156556.019
  21156557.346          46.500          46.2504
 126299268.748 6                  24033951.166
                        37.250
 130990662.975 6 102070649.390 6  24926692.555    24926692.380    24926695.633
  24926695.238          41.500          37.000
 117064002.472 8  91218704.34346  22276536.761    22276536.618
  22276538.248          48.250          36.0004
 123470043.545 7  96210424.847 7  23495568.143    23495568.190    23495572.779
  23495573.346          42.500          46.000
 110919412.367 7  86430710.08147  21107261.320    21107260.692
  21107263.073          46.500          43.0004
 128821049.241 6 100380038.277 7  24513830.775    24513830.746    24513835.957
  24513836.410          38.000          42.000
 115369575.119 8  89898375.499 8  21954101.612    21954101.701    21954103.499
  21954103.337          48.750          48.250
 108884642.063 8  84845176.490 8  20720057.223    20720057.449    20720058.762
  20720058.529          51.500          52.250
 20  1  1  0 17  0.0000000  0  8G27G21G05G13G10G20G29G15
 128453630.609 6 100093734.592 6  24443912.122    24443912.389    24443915.986
  24443915.451          41.500          40.250
 111149533.132 7  86610029.14647  21151051.403    21151050.438
  21151051.664          46.250          46.2504
 131091442.657 6 102149178.991 6  24945870.816    24945871.369    24945870.688
  24945872.364          40.250          36.500
 117107966.909 8  91252962.35646  22284903.207    22284902.882
  22284904.191          48.000          36.0004
 123385312.267 7  96144400.466 7  23479444.538    23479444.840    23479448.746
  23479449.054          42.250          45.750
 110862751.485 7  86386558.75647  21096479.838    21096479.084
  21096480.442          47.500          43.5004
 115463031.722 8  89971198.824 8  21971885.482    21971885.648    21971887.506
  21971887.515          48.000          48.250
 108885137.340 8  84845562.419 8  20720151.769    20720151.678    20720153.282
  20720152.761          50.750          52.500
 20  1  1  0 17 30.0000000  0 10G27G21G26G05G13G10G20G16G29G15
 128355097.723 6 100016955.732 6  24425162.642    24425161.892    24425165.480
  24425164.310          41.500          39.750
 111120816.539 7  86587652.58247  21145586.535    21145585.676
  21145587.089          47.250          46.2504
 128947846.560 6 100478843.131 6  24537959.370    24537958.938    24537964.049
  24537964.426          36.750          37.750
 131192199.772 6 102227691.029 6  24965044.689    24965044.716    24965046.134
  24965046.331          41.250          38.750
 117152504.523 8  91287667.00446  22293378.210    22293377.970
  22293379.355          48.750          36.0004
 123300766.587 7  96078520.734 7  23463356.068    23463356.130    23463360.276
  23463360.532          42.500          46.250
 110806388.344 7  86342639.43547  21085753.213    21085752.683
  21085755.259          46.000          43.0004
 126362996.724 6  98464672.59944  24046078.883    24046077.821
  24046079.877          36.250          24.5004
 115556840.266 7  90044296.379 8  21989736.973    21989736.720    21989738.782
  21989738.709          47.750          48.250
 108886282.830 8  84846455.020 8  20720369.510    20720369.686    20720370.832
  20720370.756          51.750          52.250
 20  1  1  0 18  0.0000000  0  9G27G21G26G05G13G10G20G29G15
 128256807.933 6  99940366.288 6  24406457.389    24406457.682    24406461.242
  24406460.947          41.000          39.250
 111092315.069 7  86565443.64947  21140162.803    21140162.224
  21140163.504          47.750          46.0004
 129011667.093 6 100528570.542 5  24550102.968                    24550107.579
                        37.000          34.000
 131292931.629 6 102306183.435 6  24984212.554    24984213.339    24984214.190
  24984212.993          39.750          37.250
 117197612.793 8  91322816.30745  22301961.800    22301961.830
  22301962.930          48.250          35.7504
 123216405.887 7  96012785.122 7  23447302.854    23447302.658    23447306.771
  23447307.049          42.500          46.000
 110750321.821 7  86298951.24847  21075084.938    21075084.271
  21075086.060          47.500          43.5004
 115650997.357 8  90117665.526 8  22007654.317    22007654.374    22007656.760
  22007656.384          48.250          48.250
 108888076.844 8  84847852.960 8  20720710.948    20720711.115    20720712.409
  20720712.271          50.250          52.500
 20  1  1  0 18 30.0000000  0  9G27G21G26G05G13G10G20G29G15
 128158764.536 6  99863968.852 6  24387800.576    24387800.968    24387804.412
  24387804.657          40.750          39.500
 111064030.112 7  86543403.42647  21134780.443    21134779.750
  21134780.989          47.000          46.2504
 129075756.685 6 100578510.488 6  24562298.671    24562299.071    24562304.388
  24562304.169          36.250          41.750
 131393637.904 6 102384655.875 6  25003377.667    25003377.359    25003378.821
  25003378.073          41.250          38.250
 117243290.409 8  91358409.26745  22310654.043    22310654.091
  22310655.554          48.250          35.5004
 123132231.294 6  95947194.535 7  23431284.974    23431284.338    23431289.246
  23431289.285          41.750          46.250
 110694552.831 7  86255494.91747  21064472.163    21064471.216
  21064473.262          46.250          43.2504
 115745500.831 8  90191304.589 8  22025637.886    22025637.827    22025639.932
  22025639.752          48.750          48.000
 108890519.878 8  84849756.628 8  20721175.743    20721175.886    20721177.311
  20721177.207          50.250          52.500
 20  1  1  0 19  0.0000000  0 10G27G21G16G05G13G10G20G26G29G15
 128060970.234 6  99787765.515 6  24369191.340    24369191.533    24369194.690
  24369193.988          40.500          40.750
 111035963.126 7  86521533.05047  21129439.055    21129438.670
  21129439.991          46.500          46.2504
 126462404.249 6  98542132.96944  24064995.583    24064995.240
  24064997.063          36.250          25.0004
 131494317.501 6 102463107.426 6  25022535.445    25022536.579    25022536.049
  25022537.650          40.500          38.250
 117289536.026 7  91394444.80245  22319454.067    22319454.667
  22319455.693          47.750          35.7504
 123048243.538 6  95881749.540 7  23415302.129    23415302.610    23415306.397
  23415307.227          41.750          45.750
 110639082.036 7  86212270.92947  21053916.622    21053916.159
  21053917.875          47.250          44.0004
 129140112.047 6                  24574546.992
                        36.250
 115840348.060 7  90265211.510 7  22043686.437    22043686.583    22043688.885
  22043688.595          47.750          47.750
 108893611.598 8  84852165.777 8  20721764.055    20721764.166    20721765.706
  20721765.560          50.000          52.250
 20  1  1  0 19 30.0000000  0  8G27G21G05G13G10G20G29G15
 127963428.298 6  99711758.815 6  24350629.255    24350629.494    24350633.980
  24350634.135          40.750          41.500
 111008115.203 7  86499833.38047  21124140.006    21124139.397
  21124140.849          46.500          46.0004
 131594969.918 6 102541537.875 6  25041689.239    25041689.737    25041691.141
  25041689.642          40.500          39.500
 117336348.314 7  91430921.89945  22328362.273    22328362.323
  22328363.401          47.750          35.2504
 122964443.836 7  95816451.091 7  23399355.790    23399355.663    23399360.078
  23399360.110          42.250          46.000
 110583910.088 7  86169279.83147  21043417.237    21043416.649
  21043418.569          45.750          43.0004
 115935537.795 8  90339385.316 8  22061800.686    22061800.562    22061802.850
  22061802.660          48.250          48.000
 108897352.400 8  84855080.692 8  20722475.852    20722476.031    20722477.491
  20722477.385          49.750          52.500
 20  1  1  0 20  0.0000000  0  9G27G26G21G05G13G10G20G29G15
 127866140.388 7  99635950.063 7  24332116.652    24332116.663    24332120.237
  24332120.540          42.000          42.250
 129269632.421 6                  24599193.812
                        37.000
 110980486.912 8  86478304.84847  21118882.557    21118881.930
  21118883.236          48.000          46.0004
 131695593.104 6 102619945.592 6  25060836.504    25060837.223    25060838.866
  25060838.087          41.250          40.500
 117383724.694 8  91467838.57945  22337378.031    22337377.730
  22337379.123          48.000          35.2504
 122880831.687 6  95751298.781 7  23383444.805    23383444.764    23383448.626
  23383449.526          41.500          45.750
 110529036.394 7  86126521.10947  21032975.921    21032975.131
  21032976.517          47.750          44.2504
 116031066.286 8  90413823.100 8  22079979.132    22079979.079    22079981.438
  22079981.172          48.000          48.000
 108901740.774 8  84858500.210 8  20723311.115    20723311.201    20723312.292
  20723312.293          50.750          52.250
 20  1  1  0 20 30.0000000  0  8G27G21G05G13G10G20G29G15
 127769109.408 7  99560341.508 7  24313651.951    24313651.818    24313655.211
  24313655.434          42.250          42.500
 110953079.002 7  86456948.03947  21113667.111    21113666.402
  21113667.614          47.750          46.2504
 131796186.909 6 102698330.312 6  25079979.649    25079980.204    25079981.322
  25079980.411          41.500          39.750
 117431663.592 8  91505193.56345  22346500.353    22346500.685
  22346501.765          48.000          35.2504
 122797407.911 7  95686293.250 7  23367570.263    23367570.407    23367573.990
  23367574.746          42.250          45.750
 110474461.345 7  86083995.14147  21022589.688    21022589.164
  21022591.510          45.500          43.0004
 116126931.371 7  90488523.145 7  22098221.786    22098221.664    22098223.827
  22098223.795          47.750          47.750
 108906776.806 8  84862424.406 8  20724269.344    20724269.622    20724270.924
  20724270.637          50.000          52.500
 20  1  1  0 21  0.0000000  0  9G27G21G05G13G10G20G16G29G15
 127672339.209 7  99484936.159 7  24295237.324    24295236.969    24295241.515
  24295242.084          42.250          43.000
 110925893.977 7  86435764.91547  21108493.868    21108493.223
  21108494.446          47.750          46.2504
 131896750.036 6 102776691.192 6  25099115.622    25099115.682    25099117.331
  25099117.180          40.000          39.500
 117480164.222 8  91542986.26645  22355729.836    22355730.009
  22355730.797          48.000          35.0004
 122714174.342 6  95621435.933 7  23351730.699    23351731.434    23351735.060
  23351735.029          41.750          46.000
 110420186.245 7  86041702.85047  21012262.345    21012261.266
  21012262.956          46.500          43.5004
 126601990.102 6                  24091558.218
                        36.750
 116223131.725 7  90563484.453 7  22116528.442    22116528.305    22116529.665
  22116529.942          47.750          47.750
 108912461.064 8  84866853.700 8  20725350.906    20725351.183    20725352.238
  20725352.065          50.500          52.000
 20  1  1  0 21 30.0000000  0  9G27G21G05G13G10G20G16G29G15
 127575831.148 6  99409735.073 7  24276872.369    24276872.194    24276876.268
  24276875.871          41.750          43.000
 110898931.432 8  86414755.14347  21103362.936    21103362.315
  21103363.665          48.000          46.2504
 131997280.591 6 102855026.722 6  25118246.274    25118245.961    25118247.554
  25118246.883          41.000          37.750
 117529223.712 8  91581214.45145  22365065.927    22365065.300
  22365066.835          48.250          35.2504
 122631130.128 7  95556726.180 7  23335928.541    23335929.059    23335932.247
  23335932.830          42.250          45.750
 110366210.513 7  85999643.87447  21001990.368    21001989.680
  21001992.068          46.250          43.5004
 126638131.835 6  98679062.22344  24098435.317    24098435.268
  24098436.617          36.500          25.0004
 116319663.453 8  90638703.991 7  22134897.790    22134897.278    22134899.356
  22134899.139          48.250          47.250
 108918791.779 8  84871786.725 8  20726555.731    20726555.968    20726557.193
  20726556.902          51.750          52.250
 20  1  1  0 22  0.0000000  0  8G27G21G05G13G10G20G29G15
 127479587.317 6  99334739.885 7  24258557.623    24258556.973    24258561.556
  24258561.728          41.500          42.750
 110872191.298 8  86393918.67847  21098274.728    21098273.985
  21098275.276          48.500          46.2504
 132097777.429 6 102933335.928 6  25137369.870    25137371.047    25137370.146
  25137372.093          39.500          38.000
 117578839.733 8  91619876.26745  22374507.217    22374507.250
  22374508.343          48.000          35.2504
 122548275.412 7  95492164.066 7  23320161.687    23320161.920    23320165.877
  23320166.177          42.250          46.500
 110312533.791 7  85957817.86247  20991776.586    20991775.846
  20991777.261          47.500          44.0004
 116416523.875 7  90714179.627 7  22153329.198    22153329.333    22153331.485
  22153331.455          47.500          47.750
 108925768.156 8  84877222.875 8  20727883.244    20727883.334    20727884.718
  20727884.665          51.250          52.500
 20  1  1  0 22 30.0000000  0  9G27G21G05G13G10G20G16G29G15
 127383612.056 6  99259953.980 7  24240293.682    24240294.173    24240297.714
  24240298.501          41.500          42.750
 110845676.582 8  86373257.86347  21093229.057    21093228.349
  21093229.607          48.500          46.0004
 132198241.229 6 103011619.434 6  25156487.900    25156487.797    25156489.593
  25156489.596          40.750          38.500
 117629011.911 7  91658971.48445  22384054.413    22384054.250
  22384055.906          47.500          35.2504
 122465612.310 7  95427751.284 7  23304431.035    23304431.659    23304435.431
  23304435.554          42.000          45.750
 110259157.750 7  85916226.17647  20981619.309    20981618.407
  20981620.593          47.000          43.7504
 126711896.634 6  98736542.90644  24112472.357    24112471.345
  24112472.345          36.500          24.0004
 116513712.075 7  90789910.680 7  22171823.166    22171823.498    22171825.755
  22171825.549          47.250          47.750
 108933391.372 8  84883163.050 8  20729333.635    20729333.989    20729335.326
  20729335.324          51.250          52.500
 20  1  1  0 23  0.0000000  0  9G27G21G05G13G10G20G16G29G15
 127287907.604 6  99185379.086 7  24222081.941    24222081.998    24222086.115
  24222085.893          41.500          42.750
 110819388.353 8  86352773.53247  21088226.572    21088225.809
  21088227.133          48.750          46.2504
 132298670.381 6 103089875.868 6  25175598.754    25175599.335    25175601.021
  25175600.295          38.750          37.750
 117679738.005 7  91698498.30445  22393707.358    22393707.282
  22393708.680          47.750          35.0004
 122383140.926 6  95363487.881 7  23288737.041    23288737.495    23288741.420
  23288741.699          41.750          45.750
 110206082.381 7  85874868.75047  20971519.193    20971518.669
  20971520.568          46.750          44.0004
 126749513.777 6  98765854.92644  24119630.002    24119629.823
  24119631.292          37.000          24.2504
 116611224.753 7  90865894.571 7  22190379.521    22190379.467    22190381.623
  22190381.443          46.750          47.500
 108941660.290 8  84889606.369 8  20730907.335    20730907.662    20730908.711
  20730908.872          51.750          52.250
 20  1  1  0 23 30.0000000  0  8G27G21G05G13G10G20G29G15
 127192477.463 6  99111017.939 7  24203922.079    24203922.338    24203926.131
  24203926.561          41.250          42.500
 110793328.123 8  86332466.85947  21083267.559    21083266.674
  21083268.016          49.000          46.5004
 132399064.567 6 103168105.148 6  25194702.944    25194703.462    25194704.418
  25194704.210          37.250          38.250
 117731017.000 7  91738455.96745  22403465.729    22403465.477
  22403466.521          47.500          35.0004
 122300862.714 6  95299374.991 7  23273080.094    23273080.547    23273084.125
  23273084.494          41.250          46.000
 110153308.887 7  85833746.57247  20961476.734    20961476.098
  20961477.906          47.750          43.7504
 116709060.812 7  90942130.457 7  22208997.073    22208997.153    22208999.186
  22208998.951          47.250          47.250
 108950575.118 8  84896552.997 8  20732603.725    20732603.887    20732605.398
  20732605.253          52.250          52.750
 20  1  1  0 24  0.0000000  0  9G27G21G05G13G10G20G16G29G15
 127097323.076 6  99036871.675 7  24185814.637    24185815.451    24185818.777
  24185818.672          40.750          42.500
 110767495.581 8  86312337.60947  21078351.435    21078351.013
  21078352.262          49.000          46.0004
 132499421.592 6 103246305.382 5  25213801.252    25213800.730    25213799.396
  25213801.560          39.500          35.000
 117782845.800 7  91778842.06645  22413328.241    22413327.938
  22413329.292          47.500          35.0004
 122218776.923 7  95235412.060 7  23257459.835    23257459.738    23257464.354
  23257464.254          42.000          46.750
 110100835.998 7  85792858.60547  20951491.387    20951490.779
  20951492.879          47.500          44.0004
 126826209.834 6                  24134225.695
                        38.500
 116807216.046 7  91018615.039 7  22227675.528    22227675.368    22227677.570
  22227677.689          47.250          47.000
 108960134.342 8  84904001.747 8  20734422.937    20734423.038    20734424.451
  20734424.192          52.000          52.000
 20  1  1  0 24 30.0000000  0 10G27G21G05G13G10G20G16G29G26G15
 127002446.869 6  98962942.201 7  24167760.893    24167760.534    24167764.241
  24167764.672          40.750          42.500
 110741891.543 8  86292386.41047  21073479.369    21073478.688
  21073480.046          49.250          46.2504
 132599740.097 6 103324475.700 6  25232890.516    25232890.767    25232891.876
  25232891.056          38.500          36.250
 117835222.452 7  91819655.02545  22423295.022    22423294.648
  22423296.132          47.000          34.7504
 122136883.959 7  95171599.370 7  23241876.586    23241876.581    23241880.704
  23241881.429          42.500          46.750
 110048663.894 8  85752205.04747  20941563.401    20941562.834
  20941564.819          48.000          43.7504
 126865284.578 6  98856066.70444  24141661.131    24141660.610
  24141662.703          36.500          25.0004
 116905687.964 7  91095346.392 7  22246414.033    22246413.950    22246416.100
  22246415.754          47.250          46.500
 129865175.196 6 101193643.100 7  24712520.492    24712520.799    24712526.786
  24712526.610          37.000          43.250
 108970337.149 8  84911951.991 8  20736364.642    20736364.680    20736365.688
