     2.11           OBSERVATION DATA    M (MIXED)           RINEX VERSION / TYPE
teqc  2008Oct2                          20220524 02:03:20UTCPGM / RUN BY / DATE
MSXP|IAx86-PII|bcc32 5.0|MSWin95->XP|486/DX+                COMMENT
BIT 2 OF LLI FLAGS DATA COLLECTED UNDER A/S CONDITION       COMMENT
-Unknown-                                                   MARKER NAME
-Unknown-           -Unknown-                               OBSERVER / AGENCY
235-1829            TPS E_GGD           2.3 Aug,01,2003 p2  REC # / TYPE / VERS
-Unknown-           -Unknown-                               ANT # / TYPE
  1240235.3704  4530663.6540  4302600.6161                  APPROX POSITION XYZ
        0.0000        0.0000        0.0000                  ANTENNA: DELTA H/E/N
     1     1                                                WAVELENGTH FACT L1/2
     7    L1    L2    C1    P1    P2    S1    S2            # / TYPES OF OBSERV
 SNR is mapped to RINEX snr flag value [0-9]                COMMENT
  L1 & L2: min(max(int(snr_dBHz/6), 0), 9)                  COMMENT
pseudorange smoothing corrections not applied               COMMENT
rx board ID = AGUS451XLHC                                   COMMENT
  2020     5     3     0     0    0.0000000     GPS         TIME OF FIRST OBS
    14                                                      LEAP SECONDS
                                                            END OF HEADER
 20  5  3  0  0  0.0000000  0 10G16R 1R 8G26G14G 3G 9G22G 4G31
 110904754.92947  86419289.95846  21104468.851    21104468.334    21104471.775
        47.000          36.000
 102328939.892 8  79589168.282 7  19142737.266    19142747.763    19142754.757
        50.000          42.000
 115359569.861 6  89724110.241 6  21587965.993    21587967.993    21587971.032
        41.000          41.000
 109128983.17748  85035566.62348  20766547.628    20766547.558    20766554.013
        48.000          49.000
 125260022.24445  97605222.93742  23836188.063    23836184.088    23836191.084
        33.000          12.000
 108939049.24048  84887582.75148  20730409.077    20730409.561    20730415.197
        49.000          51.000
 123937773.71746  96574894.67845  23584570.670    23584570.826    23584576.651
        39.000          34.000
 115690535.83247  90148479.56845  22015170.883    22015169.537    22015171.598
        46.000          35.000
 110413630.33147  86036597.41846  21011007.904    21011008.201    21011012.142
        46.000          37.000
 118897914.94147  92647728.33546  22625517.427    22625517.469    22625519.473
        44.000          39.000
 20  5  3  0  0 30.0000000  0 10G16R 1R 8G26G14G 3G 9G22G 4G31
 110907340.51747  86421304.70246  21104960.751    21104960.529    21104963.828
        46.000          36.000
 102431128.814 8  79668648.572    19161853.368    19161864.236    19161874.280
        50.000           2.000
 115781982.081 7  90052652.955    21621465.159    21621466.393    21621468.773
        42.000           1.000
 109212318.36248  85100503.13148  20782405.770    20782405.793    20782411.989
        48.000          49.000
 125416506.39245  97727158.61342  23865966.185    23865962.992    23865968.604
        34.000          12.000
 109054696.97348  84977697.85648  20752416.121    20752416.465    20752422.173
        49.000          51.000
 123921721.08046  96562386.13745  23581516.486    23581516.272    23581521.877
        39.000          34.000
 115845474.51447  90269210.99145  22044654.871    22044653.635    22044655.515
        46.000          34.000
 110434175.06847  86052606.30246  21014917.444    21014917.869    21014921.703
        46.000          37.000
 119063828.50247  92777011.60746  22657089.628    22657089.895    22657092.226
        44.000          40.000
 20  5  3  0  1  0.0000000  0 10G16R 1R 8G26G14G 3G 9G22G 4G31
 110910450.79047  86423728.29646  21105552.759    21105552.299    21105555.880
        47.000          36.000
 102533971.235 8                  19181091.734
        49.000
 115961738.045 7                  21655032.680
        42.000
 109296268.97847  85165919.18848  20798381.213    20798381.149    20798387.490
        47.000          49.000
 125573142.62145  97849212.75342  23895772.954    23895774.103    23895775.358
        35.000          14.000
 109170907.65648  85068251.62348  20774530.258    20774530.617    20774536.262
        48.000          51.000
 123905723.50846  96549920.51945  23578471.859    23578471.741    23578477.521
        39.000          34.000
 116000767.43647  90390218.44045  22074205.649    22074205.145    22074206.760
        46.000          34.000
 110454962.33947  86068804.17946  21018873.412    21018873.351    21018877.375
        46.000          37.000
 119229847.90547  92906377.33146  22688682.512    22688682.116    22688684.929
        44.000          40.000
 20  5  3  0  1 30.0000000  0 10G16R 1R 8G26G14G 3G 9G22G 4G31
 110914104.21347  86426575.11646  21106247.988    21106247.583    21106250.840
        46.000          36.000
 102637483.658 8  79829152.789    19200455.532    19200467.067    19200478.774
        49.000           1.000
 116141884.508 6                  21688674.239
        41.000
 109380850.31848  85231826.72148  20814476.390    20814476.440    20814482.872
        48.000          50.000
 125729946.48145  97971397.54242  23925610.226    23925612.154    23925614.559
        35.000          13.000
 109287695.85348  85159255.40248  20796754.227    20796754.691    20796760.334
        48.000          51.000
 123889797.85346  96537510.92345  23575441.284    23575441.203    23575446.565
        39.000          34.000
 116156428.09847  90511512.44045  22103827.242    22103826.220    22103827.945
        46.000          35.000
 110476009.27347  86085204.38446  21022878.475    21022878.386    21022882.599
        46.000          37.000
 119395987.36247  93035836.62146  22720297.711    22720297.541    22720299.931
        43.000          40.000
 20  5  3  0  2  0.0000000  0 10G16R 1R 8G26G14G 3G 9G22G 4G31
 110918307.13147  86429850.12046  21107047.771    21107047.344    21107050.657
        46.000          36.000
 102741669.457 8                  19219946.242
        49.000
 116322423.133 6  90473003.966 6  21722388.617    21722387.933    21722397.747
        41.000          38.000
 109466065.24648  85298227.95748  20830692.350    20830692.158    20830698.637
        48.000          49.000
 125886921.09646  98093715.35342  23955483.051    23955484.224    23955485.606
        36.000          13.000
 109405063.75648  85250710.89648  20819088.896    20819089.166    20819094.744
        49.000          51.000
 123873948.71946  96525160.96945  23572424.517    23572424.720    23572430.783
        38.000          34.000
 116312457.49047  90633093.75845  22133518.830    22133517.678    22133519.461
        47.000          34.000
 110497320.57347  86101810.59846  21026933.621    21026933.924    21026937.802
        47.000          37.000
 119562248.73647  93165390.91046  22751935.856    22751936.042    22751938.480
        43.000          39.000
 20  5  3  0  2 30.0000000  0 10G16R 1R 8G26G14G 3G 9G22G 4G31
 110923047.14847  86433543.64246  21107949.825    21107949.197    21107952.770
        46.000          36.000
 102846514.342 8                  19239559.311
        49.000
 116503337.142 7  90613714.824 6  21756173.474    21756174.995    21756176.973
        42.000          41.000
 109551898.69547  85365111.15848  20847025.773    20847025.469    20847032.406
        47.000          49.000
 126044051.38246  98216154.52142  23985383.647    23985382.544    23985389.566
        36.000          13.000
 109522995.54048  85342605.78448  20841530.553    20841530.852    20841536.518
        48.000          50.000
 123858162.73146  96512860.21945  23569421.456    23569421.018    23569426.588
        39.000          34.000
 116468838.98247  90754949.45245  22163276.920    22163275.917    22163277.744
        46.000          34.000
 110518883.09047  86118612.55446  21031037.012    21031037.271    21031041.100
        46.000          38.000
 119728615.82347  93295027.57546  22783594.258    22783594.469    22783597.328
        43.000          39.000
 20  5  3  0  3  0.0000000  0 10G16R 1R 8G26G14G 3G 9G22G 4G31
 110928321.85747  86437653.79346  21108953.375    21108952.978    21108956.463
        46.000          36.000
 102952013.368 8  80073783.879 7  19259294.721    19259306.352    19259313.619
        49.000          42.000
 116684619.365 6  90754712.067 6  21790026.810    21790027.155    21790030.397
        41.000          41.000
 109638345.07947  85432471.97648  20863475.946    20863475.872    20863482.577
        47.000          49.000
 126201331.80446  98338710.60042  24015312.906    24015312.601    24015315.701
        36.000          13.000
 109641484.97248  85434935.19848  20864078.301    20864078.587    20864084.282
        48.000          50.000
 123842436.07446  96500605.69145  23566428.687    23566428.521    23566434.336
        38.000          35.000
 116625565.62347  90877074.08745  22193100.788    22193099.968    22193102.104
        46.000          34.000
 110540693.10947  86135607.37946  21035187.490    21035187.594    21035191.217
        46.000          37.000
 119895082.00747  93424741.44446  22815271.934    22815272.144    22815274.873
        43.000          40.000
 20  5  3  0  3 30.0000000  0 10G16R 1R 8G26G14G 3G 9G22G 4G31
 110934142.51247  86442189.37246  21110061.155    21110060.565    21110064.235
        47.000          36.000
 103058175.518 8  80156354.429 7  19279155.301    19279166.439    19279173.434
        50.000          42.000
 116866276.380 6  90896000.827 6  21823950.215    21823950.504    21823953.988
        41.000          41.000
 109725412.49348  85500316.69948  20880044.307    20880044.212    20880050.956
        48.000          49.000
 126358770.91546  98461390.36042  24045272.565    24045273.373    24045277.255
        36.000          14.000
 109760539.41448  85527704.88148  20886733.541    20886733.953    20886739.524
        49.000          51.000
 123826778.57346  96488405.04745  23563449.181    23563448.915    23563454.905
        39.000          35.000
 116782643.48547  90999472.39445  22222991.701    22222990.812    22222992.965
        45.000          34.000
 110562760.69147  86152802.90246  21039386.902    21039386.958    21039390.806
        47.000          37.000
 120061654.47347  93554538.13846  22846969.772    22846969.791    22846972.696
        43.000          40.000
 20  5  3  0  4  0.0000000  0 10G16R 1R 8G26G14G 3G 9G22G 4G31
 110940524.94147  86447162.68946  21111275.692    21111275.337    21111278.784
        46.000          37.000
 103165014.749 8  80239451.590 7  19299141.687    19299152.819    19299159.977
        49.000          42.000
 117048319.996 6  91037590.262 6  21857944.003    21857946.137    21857948.667
        41.000          41.000
 109813113.48647  85568655.12748  20896733.436    20896733.109    20896739.803
        47.000          49.000
 126516381.66146  98584203.83242  24075264.890    24075264.125    24075268.789
        37.000          14.000
 109880170.72648  85620924.07348  20909498.602    20909499.070    20909504.595
        49.000          51.000
 123811204.59946  96476269.50545  23560484.898    23560485.149    23560491.507
        38.000          35.000
 116940083.40347  91122152.83245  22252951.808    22252950.956    22252952.774
        45.000          34.000
 110585100.37647  86170210.45546  21043637.870    21043637.808    21043641.844
        46.000          37.000
 120228344.78347  93684426.66446  22878689.712    22878689.848    22878692.622
        42.000          39.000
 20  5  3  0  4 30.0000000  0 10G16R 1R 8G26G14G 3G 9G22G 4G31
 110947470.44047  86452574.76846  21112597.514    21112596.635    21112600.318
        47.000          36.000
 103272529.463 8  80323074.137 7  19319254.986    19319265.685    19319272.973
        49.000          42.000
 117230746.660 6  91179477.633 6  21892012.039    21892013.217    21892015.678
        41.000          41.000
 109901446.05447  85637485.69248  20913542.258    20913542.325    20913548.966
        47.000          49.000
 126674162.04046  98707149.53542  24105289.192    24105289.321    24105292.524
        37.000          14.000
 110000376.19548  85714590.66048  20932372.949    20932373.405    20932378.949
        48.000          50.000
 123795714.05346  96464198.96745  23557536.980    23557537.409    23557543.576
        39.000          35.000
 117097881.81547  91245112.62245  22282979.886    22282978.813    22282981.027
        47.000          34.000
 110607712.16347  86187830.02946  21047940.518    21047940.540    21047944.626
        46.000          37.000
 120395149.71647  93814404.50346  22910431.726    22910431.641    22910434.575
        42.000          39.000
 20  5  3  0  5  0.0000000  0 10G16R 1R 8G26G14G 3G 9G22G 4G31
 110954973.57147  86458421.35346  21114025.251    21114024.776    21114028.086
        47.000          36.000
 103380712.245 8  80407216.281 7  19339492.507    19339503.578    19339511.041
        50.000          42.000
 117413546.490 7  91321655.231 6  21926147.930    21926150.157    21926152.199
        42.000          41.000
 109990401.81748  85706801.86348  20930470.178    20930470.102    20930476.489
        48.000          49.000
 126832103.97246  98830221.12842  24135344.941    24135344.184    24135349.089
        36.000          14.000
 110121146.81348  85808697.61848  20955354.812    20955355.252    20955360.928
        48.000          51.000
 123780300.40746  96452188.35245  23554604.709    23554604.115    23554610.289
        39.000          35.000
 117256028.72247  91368343.95245  22313074.276    22313073.578    22313075.343
        45.000          33.000
 110630589.75547  86205656.73146  21052293.934    21052293.915    21052298.015
        46.000          37.000
 120562060.51447  93944464.82946  22942193.566    22942193.508    22942196.864
        42.000          38.000
 20  5  3  0  5 30.0000000  0 10G16R 1R 8G26G14G 3G 9G22G 4G31
 110963034.68847  86464702.74746  21115559.057    21115558.612    21115562.045
        46.000          37.000
 103489560.940 8  80491876.359 7  19359855.420    19359865.879    19359873.225
        49.000          42.000
 117596715.446 7  91464119.915 6  21960354.230    21960355.710    21960357.565
        42.000          40.000
 110079977.92247  85776601.41148  20947515.715    20947515.871    20947522.492
        47.000          49.000
 126990205.03246  98953416.69942  24165431.537    24165431.438    24165434.922
        36.000          15.000
 110242478.96848  85903242.14048  20978443.825    20978443.949    20978449.751
        48.000          51.000
 123764962.68946  96440236.91246  23551685.456    23551685.202    23551691.492
        39.000          36.000
 117414519.38947  91491843.15845  22343234.107    22343232.983    22343235.025
        45.000          33.000
 110653732.32747  86223689.90446  21056697.898    21056697.735    21056701.979
        46.000          37.000
 120729073.05247  94074604.43246  22973975.691    22973975.577    22973978.319
        42.000          39.000
 20  5  3  0  6  0.0000000  0 10G16R 1R 8G26G14G 3G 9G22G 4G31
 110971656.85247  86471421.31946  21117200.101    21117199.515    21117203.075
        47.000          37.000
 103599075.991 8  80577054.724 7  19380341.714    19380352.808    19380359.980
        49.000          42.000
 117780251.323 7  91606869.991 6  21994628.986    21994629.819    21994631.849
        42.000          40.000
 110170174.08748  85846884.12748  20964679.840    20964679.726    20964686.229
        48.000          49.000
 127148465.25146  99076736.27142  24195546.365    24195545.189    24195551.286
        36.000          15.000
 110364371.74748  85998223.51648  21001638.885    21001639.452    21001645.184
        48.000          50.000
 123749702.61846  96428345.95946  23548782.093    23548781.516    23548787.825
        38.000          36.000
 117573352.30647  91615609.04545  22373458.934    22373457.856    22373460.090
        46.000          34.000
 110677141.64347  86241930.94546  21061152.292    21061152.609    21061156.657
        46.000          37.000
 120896186.20947  94204822.44446  23005776.495    23005776.287    23005778.793
        42.000          39.000
 20  5  3  0  6 30.0000000  0 10G16R 1R 8G26G14G 3G 9G22G 4G31
 110980842.04047  86478578.60646  21118947.883    21118947.318    21118950.417
        47.000          37.000
 103709257.202 8  80662751.210 7  19400953.154    19400964.511    19400971.501
        49.000          42.000
 117964152.382 6  91749904.107 6  22028970.472    22028971.263    22028974.040
        41.000          40.000
 110260989.39947  85917649.29548  20981961.364    20981961.189    20981967.640
        47.000          49.000
 127306883.65646  99200179.17342  24225692.894    24225692.682    24225696.124
        36.000          15.000
 110486823.53948  86093640.47948  21024940.866    21024941.282    21024946.960
        48.000          51.000
 123734521.15046  96416516.26245  23545893.263    23545893.335    23545898.841
        39.000          35.000
 117732524.86647  91739639.59345  22403748.606    22403747.658    22403749.722
        45.000          34.000
 110700818.94547  86260380.79546  21065658.563    21065658.265    21065661.955
        46.000          37.000
 121063398.54347  94335117.73046  23037595.722    23037595.595    23037598.219
        43.000          39.000
 20  5  3  0  7  0.0000000  0 10G16R 1R 8G26G14G 3G 9G22G 4G31
 110990589.87347  86486174.31846  21120802.866    21120802.323    21120805.599
        47.000          37.000
 103820101.446 8  80748963.389 7  19421688.452    19421700.481    19421707.662
        49.000          42.000
 118148413.150 6  91893217.982 6  22063380.131    22063381.315    22063383.389
        41.000          40.000
 110352419.90148  85988893.83548  20999359.946    20999359.694    20999366.274
        48.000          49.000
 127465457.06345  99323742.78042  24255868.393    24255867.282    24255870.209
        35.000          14.000
 110609829.72248  86189489.44348  21048348.194    21048348.594    21048354.273
        49.000          50.000
 123719416.44646  96404746.38246  23543018.253    23543018.936    23543024.283
        40.000          36.000
 117892031.45047  91863930.41545  22434102.149    22434100.669    22434102.798
        46.000          34.000
 110724762.44047  86279038.07046  21070214.438    21070214.613    21070218.558
        47.000          38.000
 121230705.22246  94465486.53546  23069432.991    23069432.811    23069435.701
        41.000          39.000
 20  5  3  0  7 30.0000000  0 10G16R 1R 8G26G14G 3G 9G22G 4G31
 111000902.39547  86494210.04846  21122765.259    21122764.849    21122767.971
        47.000          37.000
 103931608.455 8  80835691.049 7  19442549.431    19442559.874    19442567.097
        49.000          42.000
 118333031.239 7  92036809.778 6  22097856.097    22097857.496    22097859.602
        42.000          39.000
 110444464.56448  86060616.93448  21016875.696    21016875.389    21016881.883
        48.000          49.000
 127624184.77845  99447426.66342  24286072.998    24286071.769    24286079.817
        34.000          14.000
 110733388.57148  86285769.04948  21071860.685    21071861.090    21071866.761
        48.000          50.000
 123704389.41646  96393037.03546  23540159.398    23540159.381    23540164.606
        39.000          36.000
 118051869.38647  91988479.42845  22464517.761    22464516.912    22464519.150
        45.000          33.000
 110748973.22047  86297903.61546  21074821.758    21074821.797    21074825.643
        46.000          38.000
 121398104.39447  94595927.41246  23101288.141    23101287.909    23101290.736
        43.000          39.000
 20  5  3  0  8  0.0000000  0 10G16R 1R 8G26G14G 3G 9G22G 4G31
 111011786.82047  86502691.42046  21124836.581    21124836.178    21124839.244
        47.000          37.000
 104043782.765 8  80922937.724 7  19463532.940    19463544.699    19463551.729
        50.000          42.000
 118518009.294 6  92180681.551 6  22132399.474    22132400.608    22132402.886
        41.000          39.000
 110537127.28348  86132821.63648  21034508.664    21034508.613    21034514.882
        48.000          49.000
 127783070.98445  99571234.08742  24316309.074    24316307.864    24316311.859
        34.000          13.000
 110857503.33848  86382481.84048  21095478.942    21095479.283    21095485.028
        48.000          50.000
 123689446.13046  96381392.93346  23537315.555    23537315.387    23537320.771
        40.000          36.000
 118212041.10247  92113288.53345  22494997.988    22494996.717    22494998.517
        45.000          33.000
 110773457.44547  86316982.23446  21079480.769    21079480.934    21079484.963
        46.000          38.000
 121565599.31347  94726442.90646  23133161.060    23133161.457    23133163.867
        42.000          39.000
 20  5  3  0  8 30.0000000  0 10G16R 1R 8G26G14G 3G 9G22G 4G31
 111023237.08447  86511613.70446  21127015.259    21127015.081    21127018.233
        47.000          37.000
 104156616.085 8  81010696.958 7  19484641.485    19484652.305    19484659.510
        49.000          42.000
 118703336.737 6  92324825.069 6  22167007.904    22167008.311    22167011.548
        40.000          39.000
 110630398.72548  86205500.66848  21052257.590    21052257.601    21052264.164
        49.000          49.000
 127942107.07445  99695158.25342  24346571.899    24346572.738    24346575.239
        33.000          13.000
 110982164.05948  86479620.04848  21119201.063    21119201.473    21119207.252
        48.000          50.000
 123674579.35246  96369808.44446  23534485.896    23534486.017    23534491.688
        39.000          36.000
 118372535.62347  92238349.17945  22525538.568    22525537.612    22525539.390
        46.000          33.000
 110798207.98047  86336268.36546  21084190.890    21084190.809    21084194.749
        46.000          38.000
 121733180.13847  94857025.33146  23165050.863    23165051.011    23165053.468
        42.000          38.000
 20  5  3  0  9  0.0000000  0 10G16R 1R 8G26G14G 3G 9G22G 4G31
 111035251.60747  86520975.67346  21129301.675    21129301.287    21129304.371
        47.000          37.000
 104270104.701 8  81098965.858 7  19505872.133    19505882.802    19505890.012
        49.000          42.000
 118889007.680 6  92469235.782 6  22201681.076    22201682.000    22201684.936
        40.000          40.000
 110724274.44948  86278650.57548  21070121.554    21070121.444    21070128.012
        48.000          49.000
 128101288.81245  99819195.90042  24376863.289    24376863.310    24376865.850
        34.000          14.000
 111107365.54848  86577179.63948  21143026.046    21143026.551    21143032.295
        48.000          50.000
 123659786.66146  96358281.69346  23531671.690    23531670.881    23531676.851
        39.000          36.000
 118533347.18947  92363656.88045  22556140.169    22556139.081    22556140.931
        45.000          33.000
 110823222.61847  86355760.29246  21088951.023    21088950.948    21088954.941
        47.000          38.000
 121900841.65247  94987670.65746  23196955.965    23196955.950    23196958.283
        42.000          38.000
 20  5  3  0  9 30.0000000  0 10G16R 1R 8G26G14G 3G 9G22G 4G31
 111047838.59847  86530783.71746  21131696.762    21131696.215    21131699.965
        47.000          37.000
 104384253.920 8  81187748.569 7  19527225.778    19527236.977    19527244.014
        50.000          42.000
 119075025.860 6  92613916.556 6  22236417.790    22236419.382    22236422.347
        39.000          40.000
 110818759.33248  86352275.15048  21088101.447    21088101.472    21088107.760
        48.000          49.000
 128260621.32545  99943351.07242  24407183.651    24407181.233    24407185.677
        34.000          12.000
 111233112.08048  86675163.93648  21166955.036    21166955.289    21166961.041
        49.000          50.000
 123645075.25946  96346818.27246  23528871.204    23528871.157    23528877.182
        39.000          36.000
 118694478.87547  92489214.00545  22586802.389    22586801.471    22586803.357
        44.000          33.000
 110848508.56647  86375463.62646  21093762.791    21093762.778    21093766.756
        47.000          37.000
 122068588.19347  95118382.21146  23228877.078    23228876.754    23228879.386
        42.000          38.000
 20  5  3  0 10  0.0000000  0 10G16R 1R 8G26G14G 3G 9G22G 4G31
 109485582.22847  85313441.09246  20834409.022    20834408.825    20834412.019
        47.000          37.000
 102896506.466 8  80030611.643 7  19248911.220    19248922.878    19248930.061
        49.000          42.000
 117656021.419 6  91510246.378 6  21971429.765    21971430.730    21971433.762
        40.000          40.000
 109338436.82748  85198777.08448  20806405.491    20806405.429    20806411.868
        48.000          49.000
 126844691.25445  98840028.89342  24137741.147    24137740.737    24137745.187
        34.000          12.000
 109783987.50748  85545975.94548  20891195.733    20891195.965    20891201.805
        48.000          50.000
 122055026.98646  95107819.63446  23226294.874    23226295.152    23226301.402
        39.000          36.000
 117280515.27047  91387424.16445  22317734.099    22317733.195    22317735.077
        45.000          32.000
 109298649.24547  85167781.03546  20798834.068    20798834.224    20798838.218
        47.000          38.000
 120661005.06547  94021564.16646  22961023.270    22961023.084    22961025.387
        43.000          38.000
 20  5  3  0 10 30.0000000  0 10G16R 1R 8G26G14G 3G 9G22G 4G31
 109499327.86847  85324151.98046  20837024.935    20837024.553    20837027.785
        47.000          38.000
 103011983.643 8  80120427.204 7  19270514.053    19270525.417    19270532.518
        50.000          42.000
 117842734.371 6  91655467.521 6  22006294.877    22006297.024    22006300.691
        40.000          40.000
 109434143.85948  85273353.98048  20824617.848    20824617.775    20824624.298
        48.000          49.000
 127004331.29445  98964423.62142  24168118.311    24168118.810    24168122.245
        34.000          12.000
 109910826.02248  85644811.13648  20915332.126    20915332.525    20915338.361
        49.000          50.000
 122040488.42546  95096490.88946  23223528.778    23223528.771    23223534.593
        39.000          36.000
 117442287.64047  91513480.53345  22348518.321    22348517.383    22348519.135
        45.000          32.000
 109324488.54547  85187915.54746  20803751.143    20803751.275    20803755.386
        47.000          38.000
 120828923.90547  94152409.98746  22992976.888    22992976.909    22992979.282
        42.000          38.000
 20  5  3  0 11  0.0000000  0 10G16R 1R 8G26G14G 3G 9G22G 4G31
 109513662.34848  85335321.70546  20839752.810    20839752.432    20839755.587
        48.000          37.000
 103128130.756 8  80210763.829 7  19292241.862    19292253.205    19292260.232
        50.000          42.000
 118029797.258 6  91800960.804 6  22041229.924    22041231.115    22041233.388
        41.000          40.000
 109530466.69448  85348410.72248  20842947.604    20842947.456    20842953.867
        48.000          49.000
 127164130.58145  99088942.46541  24198528.498    24198525.831    24198532.635
        34.000          11.000
 110038214.24248  85744074.66948  20939573.375    20939573.784    20939579.593
        49.000          50.000
 122026044.39546  95085235.80746  23220780.136    23220780.340    23220786.015
        39.000          36.000
 117604382.38347  91639788.10445  22379363.248    22379362.601    22379364.829
        45.000          32.000
 109350612.81947  85208272.11446  20808722.376    20808722.455    20808726.509
        46.000          38.000
 120996932.59747  94283325.82946  23024947.646    23024947.560    23024950.105
        42.000          37.000
 20  5  3  0 11 30.0000000  0 10G16R 1R 8G26G14G 3G 9G22G 4G31
 109528583.47347  85346948.56346  20842592.204    20842591.778    20842595.124
        47.000          38.000
 103244942.806 8  80301617.625 7  19314093.721    19314105.421    19314112.539
        50.000          42.000
 118217203.633 6  91946721.265 6  22076225.869    22076227.939    22076230.101
        41.000          40.000
 109627399.80148  85423943.00148  20861393.373    20861393.123    20861399.713
        48.000          49.000
 127324083.64945  99213581.17941  24228966.803    24228965.244    24228969.687
        34.000           8.000
 110166146.06048  85843761.78448  20963918.159    20963918.492    20963924.228
        49.000          50.000
 122011691.72146  95074051.93146  23218049.008    23218049.309    23218054.970
        40.000          37.000
 117766792.76847  91766341.62845  22410269.668    22410268.379    22410270.560
        45.000          32.000
 109377018.90147  85228848.27746  20813747.122    20813747.439    20813751.461
        46.000          38.000
 121165025.33747  94414307.15346  23056934.656    23056934.813    23056937.347
        42.000          37.000
 20  5  3  0 12  0.0000000  0 10G16R 1R 8G26G14G 3G 9G22G 4G31
 109544088.01947  85359030.03346  20845542.459    20845542.167    20845545.601
        47.000          38.000
 103362414.014 8  80392984.097 7  19336069.768    19336080.697    19336087.881
        49.000          42.000
 118404945.985 6  92092743.062 6  22111286.184    22111286.653    22111289.376
        40.000          40.000
 109724936.81848  85499945.86248  20879953.808    20879953.968    20879960.476
        48.000          49.000
 127484185.35145  99338335.70941  24259432.886    24259434.118    24259433.917
        32.000          10.000
 110294614.41848  85943866.98248  20988364.831    20988365.255    20988370.949
        48.000          50.000
 121997426.29546  95062936.02846  23215334.151    23215334.886    23215340.205
        40.000          37.000
 117929510.82247  91893134.89745  22441233.584    22441232.534    22441235.044
        44.000          32.000
 109403702.82947  85249640.94346  20818825.284    20818825.211    20818829.128
        46.000          38.000
 121333195.55247  94545348.84746  23088936.475    23088936.608    23088939.180
        42.000          38.000
 20  5  3  0 12 30.0000000  0 10G16R 1R 8G26G14G 3G 9G22G 4G31
 109560188.07348  85371575.52846  20848606.538    20848606.070    20848609.420
        48.000          38.000
 103480554.534 8  80484871.148 7  19358169.807    19358181.526    19358188.478
        50.000          42.000
 118593032.088 6  92239032.193 6  22146408.661    22146411.787    22146413.821
        41.000          40.000
 109823086.62548  85576426.22448  20898631.484    20898631.143    20898637.741
        48.000          49.000
 127644445.35245  99463213.58041  24289930.062    24289928.255    24289932.753
        32.000           7.000
 110423627.55648  86044396.68848  21012915.377    21012915.628    21012921.295
        48.000          50.000
 121983259.39946  95051896.90146  23212638.791    23212638.869    23212644.251
        40.000          37.000
 118092544.27247  92020173.92145  22472258.002    22472256.933    22472259.013
        44.000          32.000
 109430675.93347  85270658.93246  20823958.066    20823958.267    20823961.983
        47.000          38.000
 121501451.40247  94676457.25846  23120954.156    23120954.517    23120957.480
        42.000          38.000
 20  5  3  0 13  0.0000000  0 10G16R 1R 8G26G14G 3G 9G22G 4G31
 109576882.35447  85384584.06046  20851783.165    20851782.830    20851786.360
        47.000          38.000
 103599360.382 8  80577275.680 7  19380395.599    19380406.398    19380413.686
        50.000          42.000
 118781456.104 6  92385584.164 6  22181595.752    22181598.213    22181600.340
        40.000          39.000
 109921844.63848  85653380.50748  20917424.295    20917424.244    20917430.966
        48.000          49.000
 127804858.92645  99588211.03541  24320454.693    24320453.848    24320461.996
        31.000           8.000
 110553180.34148  86145346.89648  21037568.407    21037568.661    21037574.370
        48.000          50.000
 121969188.83646  95040932.83746  23209961.333    23209961.613    23209966.710
        41.000          37.000
 118255887.28247  92147454.17045  22503340.604    22503340.322    22503342.001
        45.000          32.000
 109457936.14547  85291900.65446  20829145.409    20829145.843    20829149.468
        47.000          39.000
 121669788.11947  94807628.69346  23152988.182    23152987.963    23152990.674
        42.000          37.000
 20  5  3  0 13 30.0000000  0 10G16R 1R 8G26G14G 3G 9G22G 4G31
 109594173.30448  85398057.53046  20855073.489    20855073.134    20855076.494
        48.000          38.000
 103718831.310 8  80670197.488 7  19402744.610    19402755.554    19402763.029
        49.000          42.000
 118970215.705 6  92532397.150 6  22216845.563    22216847.044    22216849.642
        39.000          39.000
 110021210.04148  85730808.08748  20936333.341    20936332.833    20936339.413
        48.000          49.000
 127965425.88245  99713328.18541  24351009.976    24351010.605    24351010.874
        32.000           7.000
 110683271.25348  86246716.42448  21062323.783    21062324.219    21062329.834
        48.000          50.000
 121955216.20446  95030045.08946  23207302.501    23207302.638    23207307.653
        41.000          37.000
 118419537.56447  92274973.84445  22534482.989    22534481.880    22534484.094
        44.000          32.000
 109485485.07347  85313367.34246  20834387.755    20834388.108    20834391.982
        46.000          38.000
 121838204.54447  94938862.22846  23185036.547    23185036.159    23185039.261
        42.000          37.000
 20  5  3  0 14  0.0000000  0 10G16R 1R 8G26G14G 3G 9G22G 4G31
 109612059.75747  85411995.02846  20858477.241    20858476.672    20858480.079
        47.000          38.000
 103838963.318 8  80763633.469 7  19425218.229    19425229.241    19425236.421
        49.000          42.000
 119159305.792 6  92679467.149 6  22252157.920    22252158.667    22252160.962
        40.000          39.000
 110121178.23947  85808705.37648  20955356.308    20955356.265    20955362.761
        47.000          49.000
 128126142.57045                  24381592.826
        31.000
 110813895.10948  86348501.23248  21087180.642    21087181.163    21087186.744
        48.000          50.000
 121941339.37846  95019231.99546  23204662.132    23204661.872    23204667.037
        41.000          37.000
 118583489.09747  92402728.26445  22565681.921    22565681.064    22565683.228
        45.000          32.000
 109513320.70147  85335057.43746  20839684.624    20839684.924    20839689.062
        47.000          38.000
 122006695.60946  95070153.93646  23217098.647    23217099.190    23217102.215
        41.000          37.000
 20  5  3  0 14 30.0000000  0 10G16R 1R 8G26G14G 3G 9G22G 4G31
 109630543.29547  85426397.78546  20861994.331    20861993.916    20861997.237
        47.000          38.000
 103959756.236 8  80857583.504 7  19447814.244    19447825.883    19447832.986
        49.000          42.000
 119348723.427 6  92826791.936 6  22287530.105    22287530.861    22287533.664
        39.000          39.000
 110221748.03348  85887071.43948  20974494.266    20974494.035    20974500.600
        48.000          49.000
 128287008.60445                  24412205.067
        30.000
 110945050.08048  86450699.89148  21112138.611    21112139.170    21112144.722
        48.000          49.000
 121927559.59246  95008494.51346  23202039.147    23202039.354    23202044.946
        40.000          38.000
 118747739.34447  92530715.43845  22596937.729    22596936.785    22596938.650
        45.000          31.000
 109541444.33447  85356971.94246  20845036.353    20845036.604    20845040.694
        46.000          39.000
 122175259.97547  95201502.76246  23249176.296    23249176.261    23249178.481
        42.000          36.000
 20  5  3  0 15  0.0000000  0 10G16R 1R 8G26G14G 3G 9G22G 4G31
 109649622.73747  85441264.88746  20865624.837    20865624.432    20865627.882
        47.000          38.000
 104081205.727 8  80952044.195 7  19470534.477    19470545.532    19470552.755
        49.000          42.000
 119538462.929 6  92974367.052 6  22322962.875    22322963.174    22322965.867
        38.000          39.000
 110322914.78248  85965902.66648  20993745.514    20993745.358    20993752.072
        48.000          49.000
 128448019.99745                  24442845.792
        31.000
 111076730.88948  86553308.30448  21137197.008    21137197.201    21137202.727
        48.000          50.000
 121913874.74046  94997831.01646  23199435.495    23199435.102    23199440.661
        40.000          37.000
 118912282.35347  92658930.74845  22628249.198    22628248.249    22628250.341
        44.000          32.000
 109569853.90847  85379109.26546  20850442.354    20850442.556    20850446.997
        47.000          39.000
 122343892.85247  95332904.98646  23281266.202    23281265.842    23281268.534
        42.000          36.000
 20  5  3  0 15 30.0000000  0 10G16R 1R 8G26G14G 3G 9G22G 4G31
 109669302.06447  85456599.42446  20869369.922    20869369.437    20869372.939
        47.000          38.000
 104203313.036 8  81047016.536 7  19493377.011    19493388.224    19493395.763
        49.000          42.000
 119728523.684 6  93122192.031 6  22358454.911    22358456.011    22358459.010
        39.000          39.000
 110424678.92048  86045199.40248  21013110.687    21013110.609    21013116.904
        48.000          49.000
 128609177.73845                  24473511.958
        31.000
 111208937.37948  86656326.33248  21162355.108    21162355.340    21162360.856
        48.000          50.000
 121900287.79746  94987243.79946  23196849.210    23196849.735    23196855.165
        41.000          38.000
 119077117.03347  92787373.32945  22659616.140    22659615.383    22659617.448
        44.000          32.000
 109598552.45047  85401471.75746  20855903.847    20855903.987    20855908.164
        47.000          38.000
 122512594.29746  95464360.61046  23313368.385    23313368.600    23313371.715
        41.000          36.000
 20  5  3  0 16  0.0000000  0 10G16R 1R 8G26G14G 3G 9G22G 4G31
 109689575.11448  85472396.61146  20873227.580    20873227.230    20873230.645
        48.000          38.000
 104326070.087 8  81142494.223 7  19516341.378    19516352.511    19516359.916
        49.000          42.000
 119918895.905 6  93270259.265 6  22394005.199    22394006.905    22394009.031
        39.000          38.000
 110527031.57348  86124954.71048  21032587.560    21032587.572    21032594.148
        48.000          49.000
 128770473.51645                  24504204.512
        32.000
 111341660.06648  86759746.59148  21187611.150    21187611.651    21187617.187
        48.000          49.000
 121886792.50346  94976728.00946  23194281.748    23194282.174    23194287.234
        41.000          38.000
 119242233.72547  92916035.66845  22691036.561    22691036.129    22691038.744
        44.000          31.000
 109627533.69747  85424054.53946  20861418.880    20861418.896    20861423.154
        47.000          39.000
 122681355.41946  95595862.74446  23345483.026    23345483.152    23345485.769
        41.000          36.000
 20  5  3  0 16 30.0000000  0 10G16R 1R 8G26G14G 3G 9G22G 4G31
 109710452.20148  85488664.46746  20877200.467    20877199.969    20877203.384
        48.000          38.000
 104449484.142 8  81238482.918 7  19539428.231    19539439.976    19539447.312
        49.000          42.000
 120109585.267 6  93418573.169 6  22429614.624    22429616.992    22429619.847
        40.000          38.000
 110629979.58347  86205173.94048  21052177.998    21052177.922    21052184.314
        47.000          49.000
 128931914.90544                  24534926.037
        29.000
 111474905.17948  86863573.93348  21212966.795    21212967.341    21212972.864
        48.000          49.000
 121873398.20546  94966290.90946  23191733.104    23191733.150    23191738.318
        41.000          39.000
 119407637.83147  93044921.96045  22722512.172    22722510.988    22722513.324
        45.000          31.000
 109656807.16147  85446865.02646  20866989.474    20866989.719    20866993.559
        47.000          39.000
 122850182.68646  95727416.42746  23377610.007    23377609.944    23377612.454
        41.000          36.000
 20  5  3  0 17  0.0000000  0 10G16R 1R 8G26G14G 3G 9G22G 4G31
 109731930.70147  85505400.95846  20881287.747    20881287.334    20881290.595
        47.000          39.000
 104573550.225 8  81334978.742 7  19562638.902    19562648.619    19562656.300
        49.000          42.000
 120300584.390 6  93567127.979 6  22465284.443    22465284.910    22465287.382
        40.000          38.000
 110733516.97548  86285852.42748  21071880.485    21071880.471    21071886.863
        48.000          49.000
 129093496.72145                  24565675.843
        32.000
 111608666.11948  86967803.23048  21238420.783    21238421.194    21238426.784
        48.000          49.000
 121860101.65746  94955929.97146  23189203.176    23189202.892    23189208.184
        41.000          38.000
 119573321.91247  93174026.40945  22754040.858    22754040.074    22754042.102
        44.000          31.000
 109686369.51047  85469900.61746  20872615.035    20872615.241    20872618.972
        47.000          39.000
 123019070.06946  95859016.95445  23409748.180    23409747.941    23409750.990
        41.000          35.000
 20  5  3  0 17 30.0000000  0 10G16R 1R 8G26G14G 3G 9G22G 4G31
 109754016.71948  85522610.85646  20885490.832    20885490.234    20885493.322
        48.000          38.000
 104698271.831 8  81431984.415 7  19585969.305    19585980.440    19585988.068
        49.000          42.000
 120491895.491 6  93715925.418 6  22501010.961    22501010.257    22501013.200
        40.000          38.000
 110837646.68448  86366992.46048  21091695.949    21091695.837    21091702.152
        48.000          49.000
 129255223.01045                  24596450.299
        32.000
 111742945.31048  87072436.34448  21263973.416    21263973.852    21263979.290
        48.000          50.000
 121846908.43846  94945649.55746  23186692.320    23186692.125    23186697.503
        41.000          38.000
 119739287.71347  93303350.38245  22785623.132    22785622.071    22785624.629
        45.000          31.000
 109716226.43247  85493165.74946  20878296.564    20878296.562    20878300.574
        47.000          39.000
 123188020.60246  95990666.67845  23441898.623    23441898.015    23441900.992
        41.000          35.000
 20  5  3  0 18  0.0000000  0 10G16R 1R 8G26G14G 3G 9G22G 4G31
 109776708.78947  85540292.98746  20889808.866    20889808.420    20889811.500
        47.000          38.000
 104823645.006 8  81529496.870 7  19609422.005    19609434.082    19609441.779
        49.000          42.000
 120683512.695 6  93864960.993 6  22536792.560    22536794.507    22536796.659
        40.000          38.000
 110942364.19348  86448590.51248  21111622.919    21111622.820    21111629.282
        48.000          48.000
 129417089.70845                  24627253.111
        33.000
 111877737.55948  87177469.25148  21289623.550    21289623.978    21289629.449
        48.000          49.000
 121833816.70146  94935448.20746  23184200.219    23184200.621    23184206.442
        41.000          38.000
 119905529.77047  93432889.62045  22817257.900    22817257.165    22817259.194
        44.000          31.000
 109746376.04647  85516658.95046  20884033.889    20884033.723    20884037.782
        46.000          39.000
 123357029.81846  96122362.12845  23474059.772    23474059.337    23474062.640
        40.000          35.000
 20  5  3  0 18 30.0000000  0 10G16R 1R 8G26G14G 3G 9G22G 4G31
 109800002.50048  85558443.93046  20894241.629    20894241.037    20894244.039
        48.000          38.000
 104949662.656 8  81627510.582 7  19632997.330    19633008.363    19633015.738
        49.000          42.000
 120875427.162 6  94014227.757 6  22572630.299    22572632.509    22572635.473
        39.000          38.000
 111047661.78447  86530640.57748  21131660.060    21131660.381    21131666.697
        47.000          49.000
 129579090.05445                  24658080.494
        33.000
 112013034.57647  87282895.48548  21315369.774    21315370.101    21315375.740
        47.000          50.000
 121820821.42746  94925322.03846  23181727.582    23181727.207    23181733.460
        40.000          38.000
 120072039.17847  93562637.18145  22848943.526    22848942.851    22848945.054
        44.000          31.000
 109776813.41747  85540376.38246  20889825.831    20889825.803    20889830.065
        46.000          39.000
 123526089.89246  96254097.22545  23506230.638    23506230.499    23506233.732
        40.000          34.000
 20  5  3  0 19  0.0000000  0 10G16R 1R 8G26G14G 3G 9G22G 4G31
 109823904.47847  85577068.85046  20898789.910    20898789.456    20898792.588
        47.000          39.000
 105076328.740 8  81726028.629 7  19656692.840    19656703.911    19656711.523
        49.000          42.000
 121067641.662 6  94163727.889 6  22608525.443    22608526.005    22608530.289
        38.000          38.000
 111153542.80548  86613145.27148  21151808.804    21151808.746    21151815.067
        48.000          49.000
 129741228.08145                  24688932.409
        32.000
 112148839.17648  87388717.23648  21341212.163    21341212.881    21341218.515
        48.000          49.000
 121807928.79246  94915275.84346  23179274.266    23179273.399    23179279.619
        40.000          38.000
 120238817.85547  93692594.56545  22880680.564    22880679.534    22880682.046
        43.000          31.000
 109807544.64647  85564322.79046  20895673.620    20895673.901    20895678.182
        46.000          39.000
 123695204.09546  96385874.48245  23538412.272    23538412.302    23538414.988
        41.000          35.000
 20  5  3  0 19 30.0000000  0 10G16R 1R 8G26G14G 3G 9G22G 4G31
 109848419.99947  85596171.85546  20903454.981    20903454.501    20903457.832
        47.000          39.000
 105203646.281 8  81825053.366 7  19680510.692    19680521.651    19680528.727
        49.000          42.000
 121260157.002 6  94313462.008 6  22644476.654    22644478.273    22644480.561
        38.000          38.000
 111260009.27148  86696106.15348  21172069.002    21172068.654    21172074.990
        48.000          48.000
 129903506.57145                  24719815.602
        32.000
 112285152.66048  87494935.51948  21367152.042    21367152.475    21367158.120
        48.000          49.000
 121795143.46646  94905313.26446  23176840.621    23176840.473    23176846.470
        40.000          38.000
 120405866.76147  93822762.51545  22912469.002    22912467.885    22912470.233
        43.000          30.000
 109838574.49447  85588501.89146  20901578.521    20901578.777    20901582.582
        47.000          39.000
 123864374.07046  96517695.20246  23570603.926    23570604.241    23570607.181
        41.000          36.000
 20  5  3  0 20  0.0000000  0 10G16R 1R 8G26G14G 3G 9G22G 4G31
 108298109.78547  84388137.91946  20608440.775    20608440.273    20608443.706
        47.000          39.000
 103729033.586 8  80678132.366 7  19404653.474    19404664.632    19404671.737
        49.000          42.000
 119847579.972 6  93214790.953 6  22380687.774    22380688.743    22380691.938
        38.000          38.000
 109791621.42248  85551907.82448  20892643.708    20892643.634    20892650.037
        48.000          48.000
 128490488.89145                  24450926.177
        32.000
 110846535.82847  86373935.37048  21093392.303    21093392.737    21093398.476
        47.000          49.000
 120207024.61646  93667818.07446  22874632.115    22874632.109    22874637.871
        41.000          38.000
 118997747.05447  92725526.36145  22644512.474    22644511.443    22644514.024
        44.000          30.000
 108294463.54648  84385298.55946  20607743.993    20607744.190    20607748.056
        48.000          39.000
 122458162.75446  95421946.09246  23303011.390    23303011.080    23303014.151
        40.000          36.000
 20  5  3  0 20 30.0000000  0  9G16R 1R 8G26G 3G 9G22G 4G31
 108323851.84147  84408196.66646  20613339.408    20613338.918    20613342.141
        47.000          39.000
 103857645.166 8  80778163.568 7  19428712.991    19428724.198    19428731.173
        49.000          42.000
 120040683.912 6  93364982.858 6  22416748.279    22416749.950    22416753.262
        39.000          38.000
 109899248.74448  85635773.26948  20913124.689    20913124.662    20913130.848
        48.000          49.000
 110983855.52348  86480937.71748  21119523.151    21119523.748    21119529.618
        48.000          49.000
 120194452.49646  93658021.63046  22872240.009    22872239.741    22872245.087
        41.000          38.000
 119165323.13347  92856105.09345  22676401.218    22676400.318    22676402.352
        43.000          30.000
 108326089.13247  84409941.87646  20613762.365    20613762.399    20613766.331
        47.000          39.000
 122627435.39546  95553846.80946  23335222.216    23335222.717    23335225.664
        41.000          36.000
 20  5  3  0 21  0.0000000  0  9G16R 1R 8G26G 3G 9G22G 4G31
 108350205.66648  84428732.11046  20618354.202    20618353.887    20618357.123
        48.000          38.000
 103986898.459 8  80878693.894 7  19452893.289    19452903.534    19452911.022
        49.000          42.000
 120234074.243 6  93515397.505 6  22452862.506    22452864.555    22452867.857
        38.000          38.000
 110007450.08347  85720085.99448  20933714.542    20933714.448    20933720.878
        47.000          49.000
 111121671.00447  86588326.38448  21145748.845    21145749.263    21145754.981
        47.000          49.000
 120181984.87546  93648306.60746  22869866.958    22869867.055    22869872.446
        40.000          38.000
 119333154.29247  92986882.59045  22708338.901    22708337.696    22708340.088
        44.000          30.000
 108358010.39847  84434815.59246  20619836.560    20619836.988    20619840.981
        47.000          40.000
 122796752.82946  95685782.43645  23367442.945    23367442.823    23367445.633
        41.000          35.000
 20  5  3  0 21 30.0000000  0  9G16R 1R 8G26G 3G 9G22G 4G31
 108377162.80148  84449737.66746  20623484.055    20623483.591    20623487.058
        48.000          39.000
 104116782.222 8  80979714.583 7  19477189.612    19477201.031    19477208.300
        49.000          42.000
 120427738.324 6  93666025.083 6  22489029.046    22489029.713    22489032.540
        39.000          38.000
 110116213.82547  85804836.96248  20954411.897    20954411.642    20954417.908
        46.000          48.000
 111259970.13847  86696091.92748  21172066.421    21172066.693    21172072.412
        47.000          49.000
 120169613.00146  93638666.20046  22867512.877    22867512.541    22867518.141
        40.000          38.000
 119501228.34347  93117849.36445  22740322.198    22740321.191    22740323.456
        44.000          30.000
 108390218.67247  84459912.94646  20625965.744    20625965.747    20625969.875
        47.000          39.000
 122966104.19846  95817744.49045  23399669.381    23399669.398    23399672.189
        40.000          35.000
 20  5  3  0 22  0.0000000  0  9G16R 1R 8G26G 3G 9G22G 4G31
 108404750.65447  84471234.69546  20628733.712    20628733.428    20628736.718
        47.000          39.000
 104247321.749 8  81081245.308 7  19501610.298    19501621.020    19501628.593
        49.000          42.000
 120621699.771 6  93816883.933 6  22525248.784    22525251.034    22525253.663
        39.000          38.000
 110225564.46947  85890045.24748  20975220.337    20975220.205    20975226.804
        47.000          48.000
 111398776.70947  86804252.87148  21198480.165    21198480.576    21198486.415
        47.000          48.000
 120157364.18046  93629121.67246  22865181.799    22865181.751    22865187.491
        41.000          38.000
 119669568.41147  93249023.41244  22772356.383    22772355.029    22772357.081
        43.000          29.000
 108422741.16647  84485255.15446  20632154.470    20632154.598    20632158.594
        47.000          39.000
 123135513.67146  95949751.82645  23431906.994    23431906.727    23431909.646
        40.000          34.000
 20  5  3  0 22 30.0000000  0  9G16R 1R 8G26G 3G 9G22G 4G31
 108432960.28348  84493216.21946  20634101.893    20634101.422    20634104.827
        48.000          39.000
 104378504.970 8  81183276.675 7  19526150.128    19526161.620    19526169.255
        49.000          42.000
 120815945.148 6  93967963.610 6  22561524.392    22561524.285    22561527.631
        38.000          38.000
 110335489.39447  85975701.03248  20996138.313    20996138.351    20996144.719
        47.000          48.000
 111538077.79648  86912799.15848  21224988.351    21224988.605    21224994.557
        48.000          49.000
 120145229.13846  93619665.80446  22862871.720    22862872.460    22862878.684
        40.000          39.000
 119838161.00047  93380394.24144  22804438.189    22804437.511    22804439.228
        43.000          29.000
 108455568.40247  84510834.81946  20638401.287    20638401.588    20638405.317
        47.000          39.000
 123304968.94746  96081794.86445  23464153.312    23464152.999    23464156.048
        40.000          34.000
 20  5  3  0 23  0.0000000  0  9G16R 1R 8G26G 3G 9G22G 4G31
 108461787.61948  84515679.08146  20639587.585    20639587.090    20639590.605
        48.000          39.000
 104510325.442 8  81285803.684 7  19550810.976    19550821.552    19550828.896
        49.000          42.000
 121010466.085 6  94119257.621 6  22597848.677    22597850.662    22597853.539
        39.000          38.000
 110445981.43648  86061798.72248  21017164.226    21017164.078    21017170.734
        48.000          48.000
 111677865.48147  87021724.61248  21251588.875    21251589.323    21251595.303
        47.000          48.000
 120133203.29146  93610295.02046  22860584.103    22860584.058    22860590.134
        41.000          39.000
 120006997.66947  93511955.25444  22836567.024    22836566.150    22836567.023
        44.000          29.000
 108488696.10747  84536648.61746  20644705.426    20644705.295    20644709.376
        47.000          39.000
 123474463.31846  96213868.35345  23496406.344    23496406.552    23496409.730
        40.000          34.000
 20  5  3  0 23 30.0000000  0  9G16R 1R 8G26G 3G 9G22G 4G31
 108491236.54148  84538626.29346  20645191.751    20645191.154    20645194.322
        48.000          39.000
 104642784.409 8  81388827.316 6  19575590.173    19575600.814    19575608.194
        49.000          41.000
 121205262.696 6  94270766.045 6  22634226.405    22634227.269    22634230.175
        39.000          38.000
 110557041.36947  86148338.92048  21038298.376    21038298.132    21038304.764
        47.000          48.000
 111818140.08847  87131029.47748  21278282.235    21278282.738    21278288.732
        47.000          48.000
 120121290.50146  93601012.34046  22858317.421    22858317.373    22858323.269
        41.000          40.000
 120176077.89347  93643706.05544  22868741.984    22868741.019    22868742.857
        43.000          29.000
 108522127.96747  84562699.41746  20651067.200    20651067.111    20651071.360
        47.000          40.000
 123643997.61446  96345972.96945  23528668.127    23528668.121    23528670.929
        39.000          34.000
 20  5  3  0 24  0.0000000  0  9G16R 1R 8G26G 3G 9G22G 4G31
 108521308.79348  84562059.21946  20650914.318    20650913.724    20650917.063
        48.000          40.000
 104775880.853 8  81492346.758 6  19600487.883    19600499.152    19600506.575
        49.000          41.000
 121400332.395 6  94422486.849 6  22670653.555    22670655.199    22670658.041
        39.000          37.000
 110668667.85547  86235320.59548  21059540.194    21059540.129    21059546.524
        47.000          48.000
 111958899.62148  87240712.22048  21305068.051    21305068.437    21305074.398
        48.000          49.000
 120109492.52747  93591819.12846  22856072.301    22856072.631    22856077.977
        42.000          39.000
 120345400.10047  93775645.41144  22900962.707    22900961.889    22900963.831
        43.000          29.000
 108555865.60947  84588988.48546  20657487.306    20657487.183    20657491.232
        47.000          39.000
 123813570.66646  96478107.76645  23560936.810    23560936.938    23560939.805
        39.000          33.000
 20  5  3  0 24 30.0000000  0  9G16R 1R 8G26G 3G 9G22G 4G31
 108552011.00548  84585983.01546  20656756.713    20656756.138    20656759.469
        48.000          39.000
 104909619.166 8  81596365.421 7  19625507.137    19625517.714    19625525.158
        49.000          42.000
 121595677.816 6  94574422.094 6  22707131.863    22707133.670    22707137.614
        38.000          38.000
 110780864.23347  86322746.34448  21080890.500    21080890.241    21080896.896
        47.000          48.000
 112100146.95647  87350775.05948  21331946.598    21331946.936    21331952.940
        47.000          48.000
 120097815.79447  93582720.38546  22853850.393    22853850.675    22853855.739
        42.000          40.000
 120514966.17347  93907774.78444  22933230.023    22933228.893    22933231.498
        43.000          29.000
 108589915.40147  84615520.78946  20663966.617    20663966.804    20663970.769
        47.000          40.000
 123983186.37146  96610275.78645  23593213.516    23593212.982    23593216.614
        38.000          32.000
 20  5  3  0 25  0.0000000  0  9G16R 1R 8G26G 3G 9G22G 4G31
 108583340.96448  84610395.96846  20662718.487    20662717.942    20662721.193
        48.000          39.000
 105043994.520 8  81700879.568 7  19650644.522    19650655.364    19650662.751
        48.000          42.000
 121791293.116 6  94726567.263 6  22743663.730    22743664.412    22743667.557
        39.000          38.000
 110893625.28547  86410612.08248  21102348.271    21102348.129    21102354.496
        47.000          48.000
 112241876.28847  87461213.48248  21358916.996    21358917.122    21358923.084
        47.000          49.000
 120086258.06747  93573714.39046  22851651.052    22851651.143    22851656.469
        42.000          40.000
 120684769.77047  94040089.25244  22965542.790    22965541.272    22965543.642
        43.000          29.000
 108624275.14647  84642294.60946  20670505.156    20670505.201    20670509.324
        47.000          40.000
 124152839.85046  96742473.25445  23625497.565    23625497.303    23625500.586
        38.000          32.000
 20  5  3  0 25 30.0000000  0  9G16R 1R 8G26G 3G 9G22G 4G31
 108615286.41048  84635288.52946  20668797.548    20668796.913    20668800.273
        49.000          39.000
 105178991.726 8  81805877.371 6  19675898.055    19675909.250    19675916.818
        48.000          41.000
 121987161.477 6  94878909.259 6  22780240.934    22780241.963    22780244.915
        39.000          38.000
 111006935.53547  86498905.77448  21123910.722    21123910.296    21123916.786
        47.000          48.000
 112384071.61147  87572015.01648  21385975.434    21385975.974    21385981.923
        47.000          48.000
 120074807.08046  93564791.55546  22849472.100    22849472.095    22849477.660
        41.000          40.000
 120854794.53047  94172576.06044  22997897.465    22997896.364    22997898.417
        44.000          29.000
 108658932.40747  84669300.25346  20677100.238    20677100.298    20677104.160
        47.000          40.000
 124322516.03246  96874688.39945  23657785.812    23657786.280    23657788.992
        38.000          32.000
 20  5  3  0 26  0.0000000  0  9G16R 1R 8G26G 3G 9G22G 4G31
 108647842.16047  84660656.64446  20674992.760    20674992.109    20674995.612
        47.000          39.000
