     2.11           OBSERVATION DATA    M (MIXED)           RINEX VERSION / TYPE
teqc  2008Oct2                          20220524 02:04:50UTCPGM / RUN BY / DATE
MSXP|IAx86-PII|bcc32 5.0|MSWin95->XP|486/DX+                COMMENT
BIT 2 OF LLI FLAGS DATA COLLECTED UNDER A/S CONDITION       COMMENT
-Unknown-                                                   MARKER NAME
-Unknown-           -Unknown-                               OBSERVER / AGENCY
235-1829            TPS E_GGD           2.3 Aug,01,2003 p2  REC # / TYPE / VERS
-Unknown-           -Unknown-                               ANT # / TYPE
  1240235.6898  4530663.6537  4302599.8486                  APPROX POSITION XYZ
        0.0000        0.0000        0.0000                  ANTENNA: DELTA H/E/N
     1     1                                                WAVELENGTH FACT L1/2
     7    L1    L2    C1    P1    P2    S1    S2            # / TYPES OF OBSERV
 SNR is mapped to RINEX snr flag value [0-9]                COMMENT
  L1 & L2: min(max(int(snr_dBHz/6), 0), 9)                  COMMENT
pseudorange smoothing corrections not applied               COMMENT
rx board ID = AGUS451XLHC                                   COMMENT
  2020     5     5     0     0    0.0000000     GPS         TIME OF FIRST OBS
    14                                                      LEAP SECONDS
                                                            END OF HEADER
 20  5  5  0  0  0.0000000  0 10G14G 3G 4G22G16R 4G26G 9G31R 3
 126592175.13845  98643258.31142  24089687.650    24089689.561    24089692.066
        35.000          13.000
 109659003.00048  85448578.25648  20867409.658    20867409.991    20867415.471
        48.000          50.000
 109532481.35947  85350006.59246  20843334.904    20843334.854    20843338.571
        46.000          37.000
 117058871.26547  91214709.50745  22275553.831    22275552.639    22275553.943
        45.000          33.000
 109770859.83047  85535754.42946  20888700.227    20888699.910    20888703.070
        46.000          37.000
 111466896.461 7  86696475.641 7  20859504.100    20859504.739    20859507.597
        47.000          44.000
 109322228.23948  85186162.13048  20803326.309    20803326.213    20803332.522
        48.000          49.000
 122460687.55146  95423933.40646  23303493.044    23303492.359    23303497.607
        39.000          36.000
 120417145.06747  93831550.95146  22914617.850    22914618.271    22914620.923
        42.000          38.000
 102009864.547 8  79341009.546 8  19056297.255    19056297.083    19056299.978
        52.000          49.000
 20  5  5  0  0 30.0000000  0 10G14G 3G 4G22G16R 4G26G 9G31R 3
 126750176.78145  98766376.41442  24119754.028    24119751.139    24119759.066
        34.000          12.000
 109783004.63147  85545202.89048  20891006.538    20891006.727    20891012.255
        47.000          50.000
 109556208.81247  85368495.50646  20847850.004    20847850.112    20847853.900
        46.000          37.000
 117218609.76047  91339181.03945  22305950.649    22305949.912    22305951.308
        45.000          33.000
 109781279.80047  85543873.87746  20890683.066    20890682.609    20890685.781
        47.000          37.000
 111680946.201 7  86862958.781    20855622.805    20855623.471    20855626.817
        47.000           1.000
 109414795.85547  85258292.73148  20820941.287    20820941.177    20820947.663
        47.000          49.000
 122444727.08046  95411496.68046  23300455.026    23300454.862    23300460.442
        39.000          36.000
 120583745.04447  93961369.07846  22946321.124    22946321.105    22946323.551
        42.000          37.000
 102095938.236 8  79407955.791    19072376.562    19072376.451    19072379.035
        52.000           1.000
 20  5  5  0  1  0.0000000  0 10G14G 3G 4G22G16R 4G26G 9G31R 3
 126908318.58845  98889603.73042  24149849.283    24149849.541    24149852.842
        34.000          13.000
 109907540.63847  85642243.92548  20914704.687    20914705.133    20914710.691
        47.000          50.000
 109580195.49747  85387186.43546  20852414.840    20852414.865    20852418.525
        47.000          38.000
 117378657.36247  91463893.44345  22336407.089    22336405.816    22336407.032
        45.000          33.000
 109792259.28347  85552429.30846  20892772.609    20892772.049    20892775.235
        47.000          37.000
 111660479.719 8                  20851801.174
        48.000
 109507961.96247  85330889.68548  20838670.257    20838670.126    20838676.458
        47.000          49.000
 122428835.63246  95399113.75046  23297431.703    23297430.838    23297436.650
        38.000          36.000
 120750419.36647  94091245.14246  22978037.887    22978038.071    22978040.868
        42.000          37.000
 102182675.584 8                  19088579.770
        52.000
 20  5  5  0  1 30.0000000  0 10G14G 3G 4G22G16R 4G26G 9G31R 3
 127066596.51645  99012937.12142  24179966.959    24179967.158    24179970.200
        34.000          14.000
 110032605.88548  85739697.35548  20938504.044    20938504.164    20938509.850
        48.000          50.000
 109604439.24447  85406077.66846  20857027.892    20857028.096    20857031.837
        47.000          37.000
 117539008.57047  91588842.41845  22366920.614    22366919.907    22366920.957
        46.000          33.000
 109803797.18547  85561419.87946  20894967.986    20894967.284    20894970.625
        47.000          38.000
 111640328.919 7                  20848038.291
        47.000
 109601722.07048  85403949.50448  20856512.322    20856512.167    20856518.506
        48.000          49.000
 122413010.85646  95386782.75946  23294419.580    23294419.402    23294424.946
        39.000          36.000
 120917163.02047  94221175.21946  23009768.605    23009768.687    23009771.001
        42.000          38.000
 102270073.825 8                  19104906.584
        52.000
 20  5  5  0  2  0.0000000  0 10G14G 3G 4G22G16R 4G26G 9G31R 3
 127225018.73145  99136382.97942  24210114.009    24210112.470    24210118.911
        34.000          12.000
 110158207.25547  85837568.53448  20962405.132    20962405.211    20962410.943
        47.000          50.000
 109628949.83847  85425176.82346  20861692.290    20861692.376    20861696.083
        47.000          38.000
 117699669.23147  91714032.52245  22397493.326    22397492.313    22397493.737
        45.000          33.000
 109815903.94147  85570853.71046  20897271.480    20897271.133    20897274.539
        47.000          37.000
 111620505.684 7                  20844336.281
        47.000
 109696083.70148  85477478.04248  20874468.729    20874468.491    20874474.904
        48.000          49.000
 122397262.47146  95374511.29346  23291422.861    23291422.784    23291428.229
        40.000          36.000
 121083982.80747  94351164.62846  23041513.451    23041513.351    23041515.921
        42.000          38.000
 102358142.544 8                  19121358.713
        52.000
 20  5  5  0  2 30.0000000  0 10G14G 3G 4G22G16R 4G26G 9G31R 3
 127383568.44745  99259928.06841  24240284.409    24240283.590    24240291.220
        33.000          10.000
 110284326.95048  85935843.61048  20986405.034    20986405.188    20986410.763
        48.000          50.000
 109653712.57947  85444472.44946  20866404.299    20866404.508    20866408.299
        46.000          38.000
 117860620.57747  91839449.14745  22428121.226    22428120.265    22428121.938
        45.000          32.000
 109828565.54147  85580719.88446  20899681.272    20899680.697    20899683.983
        47.000          37.000
 111600997.223 8                  20840693.337
        48.000
 109791029.71448  85551461.93548  20892536.205    20892536.150    20892542.519
        48.000          49.000
 122381575.66346  95362287.81146  23288437.564    23288437.865    23288443.131
        39.000          36.000
 121250861.10447  94481199.63746  23073269.076    23073269.273    23073271.544
        42.000          37.000
 102446866.134 8  79680904.578 8  19137933.000    19137932.781    19137935.772
        52.000          49.000
 20  5  5  0  3  0.0000000  0 10G14G 3G 4G22G16R 4G26G 9G31R 3
 127542255.70945  99383580.42841  24270483.206    24270482.746    24270488.115
        33.000          10.000
 110410973.60948  86034529.30548  21010505.088    21010505.392    21010510.763
        48.000          50.000
 109678739.05847  85463973.60446  20871166.590    20871166.884    20871170.751
        46.000          38.000
 118021870.80147  91965098.65145  22458806.280    22458805.115    22458806.632
        45.000          32.000
 109841794.52348  85591028.18546  20902198.831    20902198.279    20902201.286
        48.000          38.000
 111581817.509 8                  20837111.685
        48.000
 109886569.40547  85625908.44648  20910716.742    20910716.576    20910723.026
        47.000          49.000
 122365961.96146  95350121.29046  23285466.509    23285467.023    23285471.980
        40.000          36.000
 121417806.79747  94611287.15146  23105037.879    23105037.925    23105040.502
        42.000          37.000
 102536255.848 8  79750429.888 8  19154631.966    19154631.658    19154634.506
        52.000          49.000
 20  5  5  0  3 30.0000000  0 10G14G 3G 4G22G16R 4G26G 9G31R 3
 127701077.38545  99507337.50741  24300705.596    24300704.005    24300710.809
        33.000          10.000
 110538143.01748  86133622.34448  21034704.794    21034705.031    21034710.400
        48.000          50.000
 109704028.16347  85483679.39546  20875979.080    20875979.040    20875982.816
        46.000          38.000
 118183414.79447  92090977.06945  22489546.865    22489545.949    22489547.910
        44.000          32.000
 109855590.91047  85601778.60446  20904824.241    20904823.545    20904826.906
        47.000          38.000
 111562967.376 8  86771194.434 7  20833591.232    20833591.895    20833594.748
        48.000          44.000
 109982699.19148  85700814.76148  20929009.681    20929009.601    20929016.123
        48.000          49.000
 122350420.05746  95338010.74046  23282509.418    23282509.482    23282514.722
        40.000          37.000
 121584815.87647  94741424.05446  23136818.682    23136818.732    23136821.519
        42.000          37.000
 102626309.984 8  79820471.976 8  19171454.353    19171454.592    19171457.293
        52.000          49.000
 20  5  5  0  4  0.0000000  0 10G14G 3G 4G22G16R 4G26G 9G31R 3
 127860036.18445  99631201.43341  24330954.431    24330954.706    24330958.067
        33.000           8.000
 110665836.71548  86233123.91348  21059004.008    21059004.305    21059009.655
        48.000          50.000
 109729584.47847  85503593.40646  20880842.172    20880842.238    20880846.295
        46.000          38.000
 118345253.05747  92217084.78845  22520343.748    22520342.616    22520344.658
        44.000          32.000
 109869959.89447  85612975.21146  20907558.600    20907557.853    20907561.046
        47.000          38.000
 111544453.633 8  86756794.854 7  20830134.355    20830135.017    20830137.385
        48.000          44.000
 110079421.26448  85776182.59848  20947415.331    20947415.160    20947421.722
        48.000          49.000
 122334954.28146  95325959.48046  23279566.648    23279566.528    23279571.458
        40.000          37.000
 121751890.08947  94871611.70046  23168611.781    23168612.177    23168614.933
        42.000          38.000
 102717032.479 8  79891033.894 8  19188402.231    19188402.302    19188405.011
        52.000          49.000
 20  5  5  0  4 30.0000000  0 10G14G 3G 4G22G16R 4G26G 9G31R 3
 128019135.10245  99755174.54041  24361229.380    24361227.711    24361226.811
        32.000           7.000
 110794056.44948  86333035.38048  21083403.365    21083403.662    21083409.019
        48.000          50.000
 109755412.82647  85523719.38846  20885756.925    20885757.381    20885761.143
        47.000          38.000
 118507387.03747  92343422.92545  22551196.831    22551195.551    22551197.661
        44.000          32.000
 109884906.92548  85624622.24446  20910402.814    20910402.386    20910405.663
        48.000          38.000
 111526283.399 8  86742662.447 7  20826741.356    20826742.250    20826743.960
        48.000          44.000
 110176737.98548  85852013.80148  20965934.371    20965934.077    20965940.601
        48.000          49.000
 122319569.90946  95313971.66046  23276638.824    23276638.840    23276643.774
        40.000          37.000
 121919031.44147  95001851.66546  23200418.000    23200417.946    23200420.618
        42.000          37.000
 102808427.541 8  79962118.921 8  19205475.769    19205475.565    19205478.343
        52.000          49.000
 20  5  5  0  5  0.0000000  0 10G14G 3G 4G22G16R 4G26G 9G31R 3
 128178370.66345  99879254.1634   24391530.672    24391536.494    24391539.307
        30.000           5.000
 110922797.49747  86433353.06648  21107901.958    21107902.278    21107907.615
        47.000          50.000
 109781511.61147  85544056.10846  20890723.580    20890723.762    20890727.496
        47.000          38.000
 118669811.14247  92469987.13245  22582105.025    22582103.789    22582105.886
        43.000          32.000
 109900431.59648  85636719.37946  20913357.043    20913356.787    20913359.816
        48.000          38.000
 111508457.011 8  86728797.463 7  20823412.579    20823413.423    20823414.971
        49.000          45.000
 110274645.25647  85928305.17348  20984564.984    20984565.158    20984571.562
        47.000          49.000
 122304264.88046  95302045.67446  23273727.223    23273726.597    23273731.730
        41.000          37.000
 122086235.53747  95132140.52546  23232235.779    23232235.871    23232238.683
        42.000          37.000
 102900493.049 8  80033725.401 8  19222674.471    19222674.179    19222676.918
        52.000          49.000
 20  5  5  0  5 30.0000000  0 10G14G 3G 4G22G16R 4G26G 9G31R 3
 128337742.53145 100003440.13741  24421857.811    24421858.859    24421860.335
        30.000           7.000
 111052058.08048  86534075.58648  21132499.309    21132499.793    21132505.125
        48.000          50.000
 109807882.23347  85564604.65046  20895741.900    20895741.938    20895745.706
        47.000          38.000
 118832522.81247  92596775.42645  22613068.309    22613067.198    22613069.265
        44.000          32.000
 109916535.80147  85649268.10746  20916421.633    20916421.104    20916424.219
        47.000          38.000
 111490978.007 8  86715202.677 7  20820147.952    20820149.094    20820150.829
        49.000          45.000
 110373141.96747  86005055.85248  21003308.742    21003308.535    21003314.953
        47.000          49.000
 122289040.60346  95290182.60646  23270829.748    23270829.497    23270834.365
        41.000          37.000
 122253500.63347  95262476.92046  23264065.741    23264065.266    23264068.220
        42.000          37.000
 102993229.342 8  80105853.609 8  19239998.024    19239998.324    19240001.027
        52.000          49.000
 20  5  5  0  6  0.0000000  0 10G14G 3G 4G22G16R 4G26G 9G31R 3
 128497250.96945                  24452211.397
        30.000
 111181837.37748  86635202.30148  21157195.596    21157195.990    21157201.289
        48.000          50.000
 109834526.99447  85585366.78946  20900812.071    20900812.169    20900816.158
        47.000          38.000
 118995520.56347  92723786.63145  22644085.607    22644084.625    22644086.326
        44.000          31.000
 109933222.38047  85662270.63546  20919596.942    20919596.342    20919599.558
        47.000          38.000
 111473851.037 8  86701881.701 7  20816949.364    20816950.200    20816952.314
        48.000          44.000
 110472227.92548  86082265.67848  21022164.018    21022164.022    21022170.458
        48.000          49.000
 122273899.33346  95278384.21746  23267947.924    23267947.968    23267952.709
        40.000          37.000
 122420826.50546  95392860.66746  23295906.490    23295906.506    23295909.035
        41.000          36.000
 103086638.267 8  80178504.977 8  19257447.872    19257447.749    19257450.500
        52.000          49.000
 20  5  5  0  6 30.0000000  0 10G14G 3G 4G22G16R 4G26G 9G31R 3
 128656894.70945                  24482590.602
        30.000
 111312132.86447  86736731.23648  21181989.995    21181990.432    21181995.642
        47.000          50.000
 109861446.54347  85606343.05546  20905934.891    20905934.811    20905938.637
        47.000          38.000
 119158800.95547  92851018.07845  22675157.375    22675156.009    22675157.644
        44.000          31.000
 109950492.80747  85675728.10146  20922883.516    20922882.755    20922885.829
        47.000          38.000
 111457078.839 7  86688836.653 7  20813817.034    20813817.789    20813820.241
        47.000          44.000
 110571901.16647  86159933.12948  21041131.001    21041130.968    21041137.774
        47.000          49.000
 122258841.60446  95266650.93646  23265082.890    23265082.521    23265087.699
        40.000          37.000
 122588210.88946  95523290.01246  23327758.609    23327758.669    23327761.389
        41.000          36.000
 103180719.649 8  80251679.367 8  19275023.027    19275022.890    19275025.678
        52.000          49.000
 20  5  5  0  7  0.0000000  0 10G14G 3G 4G22G16R 4G26G 9G31R 3
 128816668.14445                  24512995.201
        30.000
 111442937.55647  86838656.95948  21206881.639    21206881.841    21206887.008
        47.000          50.000
 109888637.09047  85627530.48346  20911108.798    20911108.809    20911112.988
        47.000          38.000
 119322356.48747  92978463.93145  22706280.726    22706279.914    22706281.086
        45.000          31.000
 109968344.04647  85689638.14946  20926280.111    20926279.648    20926282.865
        47.000          38.000
 111440659.541 8  86676066.074 7  20810751.159    20810751.658    20810754.158
        48.000          44.000
 110672155.34847  86238053.26148  21060208.974    21060208.848    21060215.147
        47.000          49.000
 122243863.60246  95254979.78246  23262232.863    23262232.240    23262237.391
        40.000          38.000
 122755647.28946  95653759.89146  23359620.925    23359620.876    23359623.605
        41.000          36.000
 103275468.742 8  80325373.081 8  19292722.900    19292722.864    19292725.715
        52.000          49.000
 20  5  5  0  7 30.0000000  0 10G14G 3G 4G22G16R 4G26G 9G31R 3
 128976569.17645                  24543423.117
        31.000
 111574248.03748  86940976.79948  21231868.884    21231869.382    21231874.626
        48.000          49.000
 109916098.43747  85648928.92046  20916334.481    20916334.519    20916338.594
        47.000          38.000
 119486183.03547  93106120.95745  22737455.708    22737455.171    22737456.531
        45.000          31.000
 109986776.58247  85704001.15646  20929787.632    20929787.056    20929790.617
        47.000          38.000
 111424595.220 8  86663571.599 7  20807751.380    20807751.912    20807754.227
        48.000          45.000
 110772987.69048  86316623.91348  21079396.741    21079396.593    21079403.223
        48.000          49.000
 122228965.11946  95243370.56946  23259396.707    23259397.143    23259402.418
        41.000          38.000
 122923132.64147  95784267.91446  23391492.493    23391492.575    23391495.145
        42.000          37.000
 103370884.660 8  80399585.447 8  19310547.460    19310547.349    19310550.253
        52.000          49.000
 20  5  5  0  8  0.0000000  0 10G14G 3G 4G22G16R 4G26G 9G31R 3
 129136605.87945                  24573878.201
        32.000
 111706071.00748  87043695.98348  21256954.076    21256954.496    21256959.707
        48.000          49.000
 109943840.55547  85670546.15246  20921613.770    20921613.948    20921617.793
        47.000          38.000
 119650286.80347  93233993.99745  22768684.008    22768682.713    22768684.568
        45.000          31.000
 110005800.92847  85718825.31146  20933407.914    20933407.281    20933410.847
        47.000          38.000
 111408897.977 8  86651362.629 7  20804819.860    20804820.697    20804822.889
        48.000          45.000
 110874405.46848  86395650.74548  21098696.069    21098695.851    21098702.260
        48.000          49.000
 122214155.97246  95231830.99546  23256579.283    23256579.358    23256584.344
        41.000          38.000
 123090674.32747  95914819.83646  23423374.672    23423374.630    23423377.244
        42.000          36.000
 103466976.272 8  80474323.347 8  19328498.125    19328498.206    19328500.956
        52.000          49.000
 20  5  5  0  8 30.0000000  0 10G14G 3G 4G22G16R 4G26G 9G31R 3
 129296776.37745                  24604356.396
        31.000
 111838403.48548  87146812.18748  21282136.034    21282136.527    21282141.807
        48.000          49.000
 109971863.70047  85692382.36246  20926946.555    20926946.725    20926950.342
        47.000          38.000
 119814663.77647  93362079.92345  22799963.569    22799962.657    22799964.252
        44.000          31.000
 110025417.97647  85734111.31646  20937141.090    20937140.344    20937143.703
        47.000          38.000
 111393570.260 8  86639441.057 7  20801957.511    20801958.142    20801960.647
        48.000          44.000
 110976406.34048  86475131.93448  21118106.245    21118105.825    21118112.379
        48.000          49.000
 122199436.49246  95220361.26846  23253778.336    23253778.424    23253783.454
        41.000          39.000
 123258269.63846  96045413.55745  23455266.222    23455266.789    23455269.539
        41.000          35.000
 103563743.131 8  80549586.442 8  19346575.155    19346575.038    19346577.767
        53.000          49.000
 20  5  5  0  9  0.0000000  0 10G14G 3G 4G22G16R 4G26G 9G31R 3
 129457082.84945                  24634862.043
        31.000
 111971246.21848  87250325.99348  21307415.464    21307415.808    21307420.942
        48.000          50.000
 110000171.89447  85714440.69646  20932333.538    20932333.657    20932337.199
        47.000          39.000
 119979314.16147  93490378.89545  22831295.460    22831294.588    22831296.324
        45.000          31.000
 110045632.10048  85749862.58046  20940987.786    20940987.245    20940990.333
        48.000          38.000
 111378618.362 8  86627811.800 7  20799165.220    20799166.207    20799168.424
        48.000          45.000
 111078991.66348  86555068.54248  21137627.649    21137627.390    21137633.626
        48.000          49.000
 122184810.59346  95208964.47246  23250995.312    23250995.134    23251000.253
        41.000          38.000
 123425919.57146  96176049.82745  23487169.473    23487169.430    23487172.404
        41.000          34.000
 103661188.650 8  80625377.381 8  19364779.068    19364778.917    19364781.652
        52.000          49.000
 20  5  5  0  9 30.0000000  0 10G14G 3G 4G22G16R 4G26G 9G31R 3
 129617517.02745                  24665391.753
        32.000
 112104589.26048  87354229.65048  21332789.708    21332790.126    21332795.310
        48.000          50.000
 110028758.48347  85736715.95346  20937773.261    20937773.395    20937777.110
        47.000          39.000
 120144227.49847  93618882.76445  22862677.921    22862676.650    22862678.432
        44.000          31.000
 110066437.37848  85766074.47546  20944946.838    20944946.399    20944949.467
        48.000          38.000
 111364037.650 8  86616471.244 7  20796442.296    20796443.435    20796445.595
        48.000          45.000
 111182152.02748  86635453.23248  21157258.093    21157258.003    21157264.404
        48.000          49.000
 122170271.62646  95197635.41246  23248229.021    23248228.257    23248233.736
        41.000          38.000
 123593615.04446  96306721.59345  23519080.434    23519080.888    23519083.940
        40.000          34.000
 103759304.427 8  80701689.627 8  19383107.498    19383107.550    19383110.522
        52.000          49.000
 20  5  5  0 10  0.0000000  0 10G14G 3G 4G22G16R 4G26G 9G31R 3
 128202677.99945                  24396158.263
        32.000
 110663029.60948  86230936.39848  21058470.121    21058470.440    21058475.679
        48.000          49.000
 108482220.36347  84531621.30746  20643476.862    20643476.742    20643480.615
        46.000          39.000
 118734001.45947  92520005.30545  22594320.497    22594319.521    22594321.333
        44.000          31.000
 108512430.95447  84555160.38146  20649229.322    20649228.868    20649231.822
        47.000          38.000
 109744470.859 8  85356808.177 7  20493999.957    20494000.776    20494003.078
        48.000          45.000
 109710484.11448  85488699.00548  20877209.277    20877209.105    20877215.424
        48.000          48.000
 120580414.99846  93958786.08946  22945688.253    22945688.652    22945694.150
        40.000          38.000
 122185954.72446  95209843.38145  23251212.052    23251211.770    23251215.119
        40.000          34.000
 102253296.688 8  79530350.253 8  19101772.556    19101772.654    19101775.479
        52.000          49.000
 20  5  5  0 10 30.0000000  0 10G14G 3G 4G22G16R 4G26G 9G31R 3
 128363389.19545                  24426739.528
        34.000
 110797391.05248  86335633.61048  21084038.418    21084038.492    21084043.891
        48.000          49.000
 108511391.58448  84554352.11646  20649027.628    20649027.820    20649031.947
        48.000          39.000
 118899457.07147  92648931.72845  22625805.767    22625804.805    22625806.398
        44.000          30.000
 108534447.84848  84572316.39246  20653419.002    20653418.344    20653421.498
        48.000          39.000
 109730667.075 8  85346071.890 4  20491421.995    20491422.762    20491425.274
        48.000          28.000
 109814814.19147  85569995.16848  20897062.514    20897062.476    20897068.696
        47.000          48.000
 120566077.66646  93947614.15546  22942960.063    22942959.965    22942965.551
        41.000          38.000
 122353760.79546  95340601.30545  23283144.708    23283144.767    23283147.744
        41.000          35.000
 102352778.906 8  79607725.287 8  19120356.981    19120356.959    19120359.628
        52.000          49.000
 20  5  5  0 11  0.0000000  0 10G14G 3G 4G22G16R 4G26G 9G31R 3
 128524241.30145                  24457347.949
        32.000
 110932261.88847  86440727.75348  21109703.156    21109703.600    21109708.968
        47.000          49.000
 108540860.36347  84577314.79546  20654635.562    20654635.851    20654639.665
        46.000          39.000
 119065182.83647  92778068.65045  22657341.885    22657341.246    22657343.260
        43.000          30.000
 108557076.42147  84589949.05046  20657724.970    20657724.528    20657727.777
        47.000          39.000
 109717260.342 8  85335644.420 7  20488918.545    20488919.010    20488921.770
        49.000          45.000
 109919730.26047  85651747.93548  20917027.508    20917027.453    20917033.453
        47.000          49.000
 120551846.34146  93936524.81046  22940251.728    22940251.399    22940257.329
        40.000          38.000
 122521623.06146  95471403.01246  23315087.433    23315087.966    23315090.604
        41.000          36.000
 102452948.346 8  79685634.832 8  19139069.513    19139069.257    19139072.175
        52.000          49.000
 20  5  5  0 11 30.0000000  0 10G14G 3G 4G22G16R 4G26G 9G31R 3
 128685226.41345                  24487982.065
        32.000
 111067632.75148  86546211.52648  21135463.410    21135463.887    21135469.244
        48.000          49.000
 108570620.66247  84600504.62146  20660298.846    20660298.985    20660302.739
        47.000          39.000
 119231169.06147  92907408.53645  22688928.240    22688927.279    22688928.649
        43.000          30.000
 108580311.13048  84608054.00546  20662146.266    20662145.868    20662149.072
        48.000          39.000
 109704246.707 8  85325522.699 7  20486488.262    20486489.336    20486491.556
        49.000          45.000
 110025223.46048  85733950.41848  20937101.923    20937101.852    20937108.214
        48.000          49.000
 120537715.04446  93925513.42146  22937562.219    22937562.204    22937568.117
        40.000          38.000
 122689532.91947  95602241.82546  23347040.229    23347040.190    23347043.044
        42.000          36.000
 102553797.255 8  79764072.852 8  19157908.697    19157908.888    19157911.613
        52.000          49.000
 20  5  5  0 12  0.0000000  0 10G14G 3G 4G22G16R 4G26G 9G31R 3
 128846332.47645                  24518640.098
        32.000
 111203490.32148  86652074.55048  21161316.278    21161316.676    21161322.115
        48.000          49.000
 108600662.60447  84623913.90646  20666015.467    20666015.830    20666019.648
        47.000          39.000
 119397401.86347  93036940.55745  22720561.445    22720560.377    22720562.444
        44.000          30.000
 108604142.51848  84626623.92246  20666681.304    20666680.782    20666684.096
        48.000          39.000
 109691618.171 8  85315700.497 7  20484130.309    20484131.596    20484133.115
        49.000          45.000
 110131281.10548  85816592.72748  20957284.044    20957284.222    20957290.276
        48.000          49.000
 120523673.84846  93914572.24346  22934890.659    22934890.777    22934896.265
        41.000          38.000
 122857477.86247  95733107.97145  23378998.842    23378999.146    23379001.888
        42.000          35.000
 102655314.764 8  79843030.887 8  19176873.426    19176873.175    19176875.904
        52.000          49.000
 20  5  5  0 12 30.0000000  0  9G 3G 4G22G16R 4G26G 9G31R 3
 111339849.20448  86758328.20648  21187264.525    21187264.936    21187270.321
        48.000          49.000
 108631004.15547  84647556.67046  20671789.609    20671789.890    20671793.474
        47.000          39.000
 119563894.69047  93166675.20145  22752244.016    22752242.846    22752244.492
        44.000          30.000
 108628588.93947  84645673.07446  20671333.332    20671332.846    20671336.000
        47.000          39.000
 109679395.324 8  85306193.821 7  20481847.784    20481849.412    20481850.956
        49.000          45.000
 110237918.29648  85899686.63248  20977576.406    20977576.441    20977582.753
        48.000          48.000
 120509740.73346  93903715.28046  22932239.193    22932239.498    22932244.511
        41.000          37.000
 123025473.12047  95864013.32544  23410967.402    23410967.838    23410970.171
        42.000          26.000
 102757517.523 8  79922521.897 8  19195965.691    19195965.545    19195968.355
        52.000          49.000
 20  5  5  0 13  0.0000000  0  9G 3G 4G22G16R 4G26G 9G31R 3
 111476697.87047  86864963.51148  21213305.981    21213306.329    21213311.738
        47.000          49.000
 108661637.32647  84671426.67446  20677619.068    20677619.063    20677622.862
        46.000          39.000
 119730635.67347  93296603.21745  22783973.700    22783972.983    22783974.582
        43.000          30.000
 108653642.67348  84665195.45546  20676100.889    20676100.442    20676103.656
        48.000          39.000
 109667571.972 8  85296997.872 7  20479639.999    20479641.079    20479642.943
        49.000          45.000
 110345124.13648  85983223.64048  20997976.950    20997976.955    20997983.293
        48.000          48.000
 120495907.74646  93892936.32646  22929607.402    22929606.902    22929612.263
        41.000          38.000
 123193507.83746  95994949.41444  23442943.397    23442943.621    23442946.132
        41.000          25.000
 102860396.557 8  80002538.907 8  19215184.141    19215184.122    19215187.013
        52.000          49.000
 20  5  5  0 13 30.0000000  0  9G 3G 4G22G16R 4G26G 9G31R 3
 111614032.76848  86971977.70648  21239439.969    21239440.193    21239445.728
        48.000          49.000
 108692561.98447  84695523.80446  20683503.425    20683503.620    20683507.339
        47.000          39.000
 119897621.53247  93426722.02945  22815750.302    22815749.068    22815750.493
        43.000          30.000
 108679303.94148  84685191.24146  20680984.372    20680983.719    20680986.842
        48.000          39.000
 109656150.152 8  85288114.222 7  20477507.179    20477507.947    20477509.807
        49.000          45.000
 110452895.68048  86067201.45548  21018485.623    21018485.236    21018491.667
        48.000          48.000
 120482174.73446  93882235.28746  22926993.433    22926993.595    22926998.907
        41.000          38.000
 123361579.02946  96125913.92944  23474925.998    23474926.230    23474929.841
        41.000          25.000
 102963950.508 8  80083080.846 8  19234529.060    19234529.022    19234531.905
        52.000          49.000
 20  5  5  0 14  0.0000000  0  9G 3G 4G22G16R 4G26G 9G31R 3
 111751860.93747  87079376.25548  21265667.617    21265667.931    21265673.538
        46.000          49.000
 108723788.58647  84719856.21546  20689445.655    20689446.094    20689449.667
        46.000          39.000
 120064858.56847  93557036.58144  22847574.425    22847573.387    22847575.035
        43.000          29.000
 108705583.57147  84705668.87046  20685985.053    20685984.547    20685987.802
        47.000          39.000
 109645142.706 8  85279552.868 7  20475451.566    20475452.474    20475453.952
        49.000          45.000
 110561240.45847  86151625.95148  21039102.489    21039102.540    21039108.928
        47.000          48.000
 120468552.30946  93871620.41446  22924401.934    22924401.404    22924406.780
        40.000          39.000
 123529694.87846  96256913.22744  23506917.591    23506917.677    23506920.816
        40.000          24.000
 103068188.272 8  80164154.646 8  19254001.391    19254001.332    19254004.411
        52.000          49.000
 20  5  5  0 14 30.0000000  0  9G 3G 4G22G16R 4G26G 9G31R 3
 111890169.91447  87187149.46548  21291986.905    21291987.233    21291992.827
        47.000          49.000
 108755308.19647  84744416.93746  20695443.575    20695444.004    20695447.656
        47.000          39.000
 120232333.38147  93687536.41944  22879443.656    22879442.783    22879444.616
        43.000          29.000
 108732472.91847  84726621.60046  20691101.769    20691101.173    20691104.689
        47.000          39.000
 109634542.501 8  85271308.254 7  20473471.980    20473472.738    20473474.570
        49.000          45.000
 110670146.60947  86236487.87648  21059827.139    21059826.631    21059833.103
        47.000          48.000
 120455031.45146  93861084.68246  22921828.540    22921828.372    22921834.102
        41.000          39.000
 123697843.47446  96387938.07144  23538915.419    23538915.032    23538917.732
        40.000          24.000
 103173099.999 8  80245752.632 8  19273600.102    19273599.618    19273602.743
        52.000          49.000
 20  5  5  0 15  0.0000000  0  9G 3G 4G22G16R 4G26G 9G31R 3
 112028957.45448  87295295.58148  21318397.404    21318397.666    21318403.253
        48.000          49.000
 108787122.01647  84769206.91846  20701497.509    20701497.797    20701501.585
        47.000          39.000
 120400043.42747  93818219.54844  22911357.753    22911357.123    22911358.832
        44.000          29.000
 108759973.35648  84748050.50846  20696334.914    20696334.641    20696337.773
        48.000          39.000
 109624353.084 8  85263383.143 7  20471568.796    20471569.736    20471571.900
        48.000          45.000
 110779612.43347  86321785.91048  21080657.275    21080657.233    21080663.822
        47.000          48.000
 120441613.49446  93850629.13846  22919275.283    22919275.020    22919280.769
        41.000          39.000
 123866023.37046  96518987.28443  23570918.780    23570919.266    23570921.530
        40.000          23.000
 103278685.359 8  80327874.564 8  19293324.193    19293323.989    19293326.861
        52.000          49.000
 20  5  5  0 15 30.0000000  0  9G 3G 4G22G16R 4G26G 9G31R 3
 112168224.95448  87403815.69348  21344899.281    21344899.492    21344905.096
        48.000          48.000
 108819235.07847  84794230.06246  20707608.356    20707608.640    20707612.561
        47.000          39.000
 120567989.48647  93949086.57144  22943317.049    22943316.322    22943317.851
        43.000          29.000
 108788090.02748  84769959.59846  20701685.590    20701684.926    20701688.343
        48.000          39.000
 109614581.566 8  85255783.065 7  20469744.584    20469744.705    20469747.132
        48.000          45.000
 110889639.91848  86407521.60148  21101595.025    21101594.940    21101601.267
        48.000          48.000
 120428303.40547  93840257.65046  22916742.754    22916742.474    22916747.817
        42.000          40.000
 124034236.67546  96650062.53643  23602928.568    23602929.509    23602932.054
        39.000          23.000
 103384948.041 8  80410523.299 8  19313174.878    19313174.720    19313177.804
        52.000          49.000
 20  5  5  0 16  0.0000000  0  9G 3G 4G22G16R 4G26G 9G31R 3
 112307978.80747  87512714.77848  21371493.338    21371493.875    21371499.454
        47.000          48.000
 108851657.28047  84819494.09646  20713778.163    20713778.455    20713782.202
        47.000          40.000
 120736177.61647  94080142.23544  22975322.481    22975321.191    22975323.253
        43.000          29.000
 108816833.15648  84792356.83646  20707155.336    20707154.629    20707157.803
        48.000          39.000
 109605240.543 8  85248517.814 7  20467999.983    20468000.538    20468002.661
        49.000          45.000
 111000235.94647  86493700.30648  21122640.660    21122640.586    21122647.074
        47.000          48.000
 120415111.19646  93829978.00846  22914232.562    22914232.334    22914237.494
        41.000          40.000
 124202490.92946  96781169.70643  23634946.229    23634946.162    23634949.971
        38.000          21.000
 103491896.889 8  80493705.714 8  19333154.030    19333153.846    19333156.628
        53.000          49.000
 20  5  5  0 16 30.0000000  0  9G 3G 4G22G16R 4G26G 9G31R 3
 112448201.76447  87621979.39748  21398176.849    21398177.308    21398182.971
        47.000          49.000
 108884374.88648  84844988.32346  20720004.367    20720004.361    20720008.273
        48.000          39.000
 120904590.05847  94211372.67344  23007369.838    23007369.091    23007370.446
        43.000          29.000
 108846189.29348  84815231.74346  20712741.320    20712740.863    20712744.156
        48.000          39.000
 109596317.871 8  85241577.953 7  20466333.254    20466334.044    20466336.621
        48.000          46.000
 111111383.86347  86580309.06148  21143791.303    21143791.311    21143797.772
        47.000          48.000
 120402023.23047  93819779.58846  22911741.939    22911741.780    22911746.517
        42.000          40.000
 124370769.79446  96912296.03643  23666968.806    23666969.228    23666971.787
        37.000          21.000
 103599516.244 8  80577409.644 8  19353258.019    19353257.980    19353260.960
        52.000          49.000
 20  5  5  0 17  0.0000000  0  9G 3G 4G22G16R 4G26G 9G31R 3
 112588893.96947  87731609.67248  21424949.896    21424950.100    21424955.760
        47.000          48.000
 108917391.67247  84870715.66546  20726287.122    20726287.409    20726291.201
        47.000          40.000
 121073226.35747  94342777.56544  23039460.741    23039459.404    23039460.641
        43.000          29.000
 108876162.29748  84838587.32346  20718444.883    20718444.595    20718447.766
        48.000          39.000
 109587819.559 8  85234968.147 7  20464746.150    20464747.280    20464749.736
        48.000          46.000
 111223084.34047  86667348.38348  21165047.554    21165047.437    21165053.759
        47.000          48.000
 120389043.31147  93809665.37046  22909271.594    22909271.784    22909276.624
        43.000          40.000
 124539074.03146  97043442.14343  23698996.062    23698996.051    23698997.910
        38.000          21.000
 103707808.597 8  80661637.008 8  19373487.953    19373487.999    19373490.827
        52.000          49.000
 20  5  5  0 17 30.0000000  0  9G 3G 4G22G16R 4G26G 9G31R 3
 112730051.76047  87841602.73548  21451811.121    21451811.616    21451817.173
        47.000          48.000
 108950707.54647  84896676.08046  20732627.123    20732627.194    20732630.856
        47.000          39.000
 121242082.75247  94474353.95144  23071592.481    23071591.682    23071593.414
        43.000          29.000
 108906751.97548  84862423.43146  20724265.933    20724265.584    20724268.728
        48.000          39.000
 109579747.740 8  85228690.058 7  20463238.679    20463239.813    20463241.993
        48.000          45.000
 111335334.25447  86754815.83648  21186407.821    21186407.731    21186414.253
        47.000          48.000
 120376171.39747  93799635.30746  22906821.894    22906822.359    22906827.507
        42.000          40.000
 124707401.10146  97174606.04343  23731027.921    23731028.433    23731031.523
        39.000          22.000
 103816772.220 8  80746386.472 8  19393843.449    19393843.273    19393846.115
        52.000          49.000
 20  5  5  0 18  0.0000000  0  9G 3G 4G22G16R 4G26G 9G31R 3
 112871684.40147  87951965.81348  21478763.166    21478763.541    21478769.001
        47.000          48.000
 108984335.42547  84922879.61446  20739026.321    20739026.449    20739030.208
        46.000          40.000
 121411168.08747  94606108.72744  23103768.193    23103767.176    23103769.655
        43.000          29.000
 108937971.43647  84886750.27546  20730206.825    20730206.399    20730209.756
        47.000          39.000
 109572117.601 8  85222755.489 7  20461814.366    20461815.200    20461817.248
        49.000          45.000
 111448143.45647  86842719.09448  21207874.555    21207874.493    21207881.059
        47.000          48.000
 120363420.53947  93789699.57346  22904395.818    22904395.838    22904400.943
        42.000          40.000
 124875761.54346  97305795.95343  23763065.924    23763066.181    23763068.340
        40.000          22.000
 103926418.950 8  80831667.241 8  19414326.257    19414326.328    19414329.137
        52.000          49.000
 20  5  5  0 18 30.0000000  0  9G 3G 4G22G16R 4G26G 9G31R 3
 113013786.99247  88062695.08548  21505804.454    21505804.876    21505810.250
        47.000          48.000
 109018273.96447  84949325.21146  20745484.463    20745484.775    20745488.485
        47.000          40.000
 121580477.00447  94738037.72244  23135986.888    23135985.793    23135987.761
        42.000          29.000
 108969819.63348  84911567.05046  20736267.526    20736266.942    20736270.069
        48.000          39.000
 109564929.879 8  85217165.028 7  20460471.981    20460473.058    20460475.214
        49.000          46.000
 111561507.52847  86931054.72548  21229447.199    21229446.997    21229453.492
        47.000          48.000
 120350789.49147  93779857.20146  22901992.333    22901992.071    22901997.461
        42.000          40.000
 125044151.21346  97437008.63643  23795109.699    23795109.879    23795112.403
        40.000          22.000
 104036745.671 8  80917476.896 8  19434936.191    19434936.172    19434939.162
        52.000          49.000
 20  5  5  0 19  0.0000000  0  9G 3G 4G22G16R 4G26G 9G31R 3
 113156356.93947  88173788.53548  21532934.803    21532934.934    21532940.430
        47.000          48.000
 109052524.23447  84976013.71346  20752002.378    20752002.370    20752006.196
        47.000          39.000
 121750006.60447  94870138.67444  23168247.287    23168246.128    23168248.238
        42.000          28.000
 109002297.32847  84936874.33946  20742448.013    20742447.275    20742450.521
        47.000          39.000
 109558187.857 8  85211921.222 7  20459213.521    20459214.070    20459216.086
        49.000          46.000
 111675424.39547  87019821.10148  21251124.963    21251124.742    21251131.271
        46.000          48.000
 120338279.36947  93770109.05846  22899611.443    22899611.609    22899616.647
        42.000          40.000
 125212568.26446  97568242.66143  23827158.512    23827158.969    23827160.970
        40.000          21.000
 104147751.926 8  81003815.074 8  19455672.993    19455673.115    19455676.049
        52.000          49.000
 20  5  5  0 19 30.0000000  0  9G 3G 4G22G16R 4G26G 9G31R 3
 113299384.88647  88285238.85548  21560151.921    21560152.159    21560157.827
        47.000          48.000
 109087080.58847  85002940.73046  20758577.984    20758577.952    20758581.845
        47.000          40.000
 121919746.98947  95002403.88044  23200548.202    23200546.819    23200548.754
        42.000          28.000
 109035399.11448  84962667.94246  20748747.088    20748746.410    20748749.579
        48.000          39.000
 109551888.007 8  85207021.333 7  20458036.685    20458037.796    20458039.550
        49.000          46.000
 111789885.31647  87109011.41648  21272905.906    21272905.907    21272912.296
        47.000          48.000
 120325884.71147  93760450.87646  22897253.283    22897253.120    22897258.507
        42.000          40.000
 125381004.65246  97699491.75143  23859210.529    23859210.318    23859213.196
        40.000          22.000
 104259430.245 8  81090675.964 8  19476535.523    19476535.196    19476538.496
        52.000          49.000
 20  5  5  0 20  0.0000000  0  9G 3G 4G22G16R 4G26G 9G31R 3
 113442877.60947  88397051.34848  21587457.609    21587458.025    21587463.578
        47.000          48.000
 109121953.41448  85030114.35146  20765214.152    20765214.230    20765218.136
        48.000          40.000
 122089704.42047  95134838.20644  23232889.859    23232888.670    23232891.036
        43.000          28.000
 109069135.33748  84988955.89746  20755166.487    20755166.152    20755169.291
        48.000          40.000
 109546042.879 8  85202475.106 7  20456945.416    20456946.086    20456948.104
        49.000          46.000
 111904897.51747  87198631.30148  21294792.031    21294792.098    21294798.648
        47.000          48.000
 120313615.95247  93750890.81146  22894918.473    22894918.315    22894924.000
        42.000          41.000
 125549468.21146  97830762.02943  23891268.401    23891267.839    23891270.922
        39.000          21.000
 104371789.584 8  81178066.544 8  19497525.220    19497525.065    19497528.324
        52.000          49.000
 20  5  5  0 20 30.0000000  0  9G 3G 4G22G16R 4G26G 9G31R 3
 112011414.29247  87281625.36648  21315059.317    21315059.586    21315065.114
        47.000          48.000
 107581721.97847  83829933.99946  20472117.884    20472117.915    20472121.924
        47.000          40.000
 120684458.74347  94039841.55144  22965480.398    22965479.138    22965481.698
        42.000          28.000
 107528084.96348  83788137.42446  20461914.614    20461913.772    20461917.378
        48.000          40.000
 107935277.573 8  83949657.641 7  20156146.255    20156146.940    20156148.841
        49.000          45.000
 110445039.74647  86061079.77548  21016990.533    21016990.498    21016996.884
        47.000          48.000
 118726050.88947  92513827.12546  22592815.075    22592814.757    22592820.361
        42.000          40.000
 124142540.00046  96734454.27143  23623538.648    23623538.295    23623541.500
        39.000          21.000
 102880017.633 8  80017799.448 8  19218849.516    19218849.706    19218852.724
        52.000          49.000
 20  5  5  0 21  0.0000000  0  9G 3G 4G22G16R 4G26G 9G31R 3
 112155817.61147  87394147.40947  21342538.235    21342538.626    21342544.176
        47.000          47.000
 107617219.91847  83857594.72246  20478872.870    20478873.016    20478876.873
        47.000          40.000
 120854830.79646  94172598.97644  22997900.898    22997899.652    22997902.219
        41.000          28.000
 107563081.80448  83815407.68546  20468573.988    20468573.573    20468576.983
        48.000          39.000
 107930340.384 8  83945817.593 7  20155224.318    20155224.994    20155226.707
        49.000          45.000
 110561137.15547  86151545.27748  21039083.112    21039083.090    21039089.332
        47.000          48.000
 118714026.50147  92504457.47346  22590526.543    22590526.562    22590532.144
        42.000          40.000
 124311042.15446  96865754.59443  23655603.882    23655603.892    23655605.946
        37.000          20.000
 102993725.963 8  80106239.237 8  19240091.560    19240091.479    19240094.319
        52.000          49.000
 20  5  5  0 21 30.0000000  0  9G 3G 4G22G16R 4G26G 9G31R 3
 112300675.60047  87507023.74948  21370103.873    21370104.214    21370109.729
        47.000          48.000
 107653035.34148  83885502.83946  20485688.352    20485688.338    20485692.413
        48.000          40.000
 121025409.01647  94305517.01644  23030360.859    23030359.684    23030362.079
        42.000          28.000
 107598713.95848  83843172.99446  20475354.656    20475354.123    20475357.384
        48.000          39.000
 107925865.528 8  83942337.136 7  20154388.052    20154389.139    20154391.109
        49.000          46.000
 110677777.31347  86242433.69348  21061278.931    21061278.836    21061285.446
        47.000          48.000
 118702129.44047  92495187.03546  22588262.552    22588262.297    22588267.960
        42.000          40.000
 124479564.65146  96997070.75343  23687672.501    23687672.890    23687675.763
        37.000          20.000
 103108111.212 8  80195205.523 8  19261459.805    19261459.490    19261462.407
        52.000          49.000
 20  5  5  0 22  0.0000000  0  9G 3G 4G22G16R 4G26G 9G31R 3
 112445984.29347  87620251.27848  21397755.239    21397755.572    21397761.074
        47.000          48.000
 107689168.04348  83913658.17446  20492564.026    20492564.294    20492568.245
        48.000          40.000
 121196188.93946  94438592.25544  23062859.137    23062858.307    23062860.727
        41.000          27.000
 107634980.64748  83871432.74746  20482256.265    20482255.510    20482258.624
        48.000          39.000
 107921854.780 8  83939217.655 7  20153639.598    20153640.336    20153642.316
        49.000          46.000
 110794956.76747  86333742.34848  21083577.683    21083577.526    21083584.130
        47.000          48.000
 118690359.61947  92486015.75346  22586022.844    22586022.346    22586028.178
        42.000          40.000
 124648104.65846  97128400.56943  23719744.359    23719744.998    23719748.176
        37.000          20.000
 103223171.313 8  80284696.697 8  19282953.806    19282953.490    19282956.659
        52.000          49.000
 20  5  5  0 22 30.0000000  0  9G 3G 4G22G16R 4G26G 9G31R 3
 112591744.49347  87733830.63148  21425492.613    21425492.884    21425498.290
        47.000          48.000
 107725622.51648  83942064.23546  20499501.183    20499501.364    20499505.193
        48.000          40.000
 121367171.42547  94571825.32544  23095396.509    23095395.283    23095397.381
        42.000          27.000
 107671886.65248  83900190.66546  20489278.802    20489278.502    20489281.702
        48.000          40.000
 107918314.850 8  83936464.371 4  20152978.365    20152979.427    20152981.264
        50.000          28.000
 110912676.82147  86425472.24548  21105979.251    21105978.785    21105985.389
        47.000          48.000
 118678721.73046  92476947.26046  22583807.703    22583807.637    22583813.398
        41.000          40.000
 124816664.20346  97259745.61243  23751820.394    23751819.550    23751822.320
        37.000          19.000
 103338909.068 8  80374714.925 8  19304574.709    19304574.453    19304577.524
        52.000          49.000
 20  5  5  0 23  0.0000000  0  9G 3G 4G22G16R 4G26G 9G31R 3
 112737943.36047  87847751.80947  21453313.416    21453313.550    21453318.936
        47.000          47.000
 107762389.75348  83970714.02446  20506497.851    20506498.078    20506501.881
        48.000          40.000
 121538343.11747  94705205.82644  23127969.576    23127968.339    23127970.234
        43.000          27.000
 107709422.56348  83929439.42546  20496421.878    20496421.361    20496424.710
        48.000          39.000
 107915238.779 8  83934071.858 7  20152404.259    20152405.009    20152406.990
        50.000          46.000
 111030925.14548  86517613.78048  21128480.901    21128480.845    21128487.405
        48.000          48.000
 118667206.86047  92467974.63746  22581616.559    22581616.680    22581622.064
        42.000          40.000
 124985231.86446  97391096.98143  23783896.943    23783897.559    23783901.183
        37.000          19.000
 103455313.321 8  80465251.547 8  19326319.645    19326319.803    19326322.762
        52.000          49.000
 20  5  5  0 23 30.0000000  0  9G 3G 4G22G16R 4G26G 9G31R 3
 112884585.08047  87962018.06047  21481218.246    21481218.639    21481223.999
        46.000          47.000
 107799477.66147  83999613.67546  20513555.610    20513555.594    20513559.525
        47.000          40.000
 121709707.78347  94838736.70744  23160579.059    23160578.469    23160580.129
        42.000          27.000
 107747596.05448  83959184.99846  20503686.053    20503685.329    20503688.796
        48.000          39.000
 107912636.545 8  83932047.888 7  20151918.503    20151919.369    20151921.190
        50.000          46.000
 111149706.44047  86610170.62447  21151083.990    21151084.084    21151090.607
        46.000          47.000
 118655823.13847  92459104.19946  22579450.450    22579450.662    22579455.605
        43.000          40.000
 125153812.83246  97522458.74543  23815978.004    23815977.374    23815981.740
        38.000          19.000
 103572390.331 8  80556311.426 8  19348190.933    19348190.709    19348193.860
        52.000          49.000
 20  5  5  0 24  0.0000000  0  9G 3G 4G22G16R 4G26G 9G31R 3
 113031661.87447  88076623.32847  21509205.870    21509206.462    21509211.860
        47.000          47.000
 107836882.24847  84028760.09946  20520673.291    20520673.337    20520677.266
        47.000          40.000
 121881257.44547  94972411.75044  23193223.726    23193222.876    23193224.498
        43.000          27.000
 107786403.09747  83989424.24546  20511070.586    20511070.237    20511073.723
        47.000          39.000
 107910506.344 8  83930391.059 7  20151520.182    20151521.353    20151523.502
        50.000          46.000
 111269013.41247  86703137.08147  21173787.469    21173787.367    21173793.832
        46.000          47.000
 118644566.70447  92450332.95746  22577308.800    22577308.858    22577313.789
        43.000          41.000
 125322400.71746  97653825.84543  23848058.700    23848058.408    23848062.936
        37.000          19.000
 103690134.150 8  80647889.932 8  19370186.362    19370186.453    19370189.494
        52.000          49.000
 20  5  5  0 24 30.0000000  0  9G 3G 4G22G16R 4G26G 9G31R 3
 113179178.87647  88191571.61647  21537277.717    21537277.924    21537283.414
        46.000          47.000
 107874612.46948  84058160.25346  20527852.937    20527853.089    20527857.031
        48.000          40.000
 122052997.09747  95106234.82444  23225904.878    23225904.124    23225905.628
        43.000          27.000
 107825852.23848  84020163.83346  20518577.673    20518577.150    20518580.665
        48.000          40.000
 107908859.325 8  83929110.035 7  20151213.088    20151213.684    20151215.949
        50.000          46.000
 111388851.70947  86796517.55747  21196591.999    21196591.825    21196598.428
        47.000          47.000
 118633446.75547  92441668.05646  22575192.677    22575192.731    22575197.582
        42.000          40.000
 125491001.66846  97785203.18343  23880142.908    23880142.800    23880147.245
        38.000          19.000
 103808551.854 8  80739992.573 8  19392307.950    19392308.032    19392310.902
        52.000          49.000
 20  5  5  0 25  0.0000000  0  9G 3G 4G22G16R 4G26G 9G31R 3
 113327130.93647  88306858.91747  21565431.992    21565432.301    21565437.815
        46.000          47.000
 107912666.94647  84087813.08746  20535094.640    20535094.778    20535098.619
        47.000          40.000
 122224921.41847  95240201.78444  23258621.108    23258619.907    23258621.569
        43.000          27.000
 107865941.55548  84051402.26046  20526206.785    20526205.954    20526209.403
        48.000          40.000
 107907696.291 8  83928205.444 7  20150995.562    20150996.298    20150998.814
        50.000          46.000
 111509216.66947  86890308.42147  21219496.794    21219496.584    21219503.060
        46.000          47.000
 118622462.09847  92433108.58246  22573102.600    22573102.350    22573107.430
        42.000          41.000
 125659612.05246  97916587.83343  23912228.062    23912229.133    23912231.506
        38.000          21.000
 103927640.094 8  80832616.737 8  19414554.998    19414554.659    19414557.570
        52.000          49.000
 20  5  5  0 25 30.0000000  0  9G 3G 4G22G16R 4G26G 9G31R 3
 113475516.58947  88422484.07747  21593668.830    21593669.196    21593674.773
        47.000          47.000
 107951048.08448  84117720.45146  20542397.969    20542398.168    20542402.221
        48.000          41.000
 122397028.67247  95374311.30744  23291371.985    23291371.490    23291372.936
        43.000          27.000
 107906673.62948  84083141.53246  20533957.726    20533957.113    20533960.514
        48.000          40.000
 107907021.719 8  83927680.763 7  20150869.771    20150870.467    20150872.788
        50.000          46.000
 111630107.29447  86984508.89447  21242501.471    21242501.428    21242507.805
        47.000          47.000
 118611615.25847  92424656.49746  22571038.237    22571038.319    22571043.368
        43.000          41.000
 125828231.59146  98047979.65943  23944315.750    23944316.985    23944318.779
        39.000          20.000
 104047399.420 8  80925762.859 8  19436926.771    19436926.740    19436929.490
        53.000          49.000
 20  5  5  0 26  0.0000000  0  9G 3G 4G22G16R 4G26G 9G31R 3
 113624334.71747  88538446.23547  21621988.101    21621988.403    21621994.004
        47.000          47.000
 107989758.57648  84147884.45246  20549764.837    20549764.834    20549768.826
        48.000          40.000
 122569317.49847  95508562.30944  23324157.835    23324156.871    23324158.250
        43.000          27.000
 107948050.62948  84115383.34346  20541831.434    20541830.853    20541834.124
        48.000          40.000
 107906840.594 8  83927539.877 7  20150836.100    20150836.505    20150839.082
        50.000          46.000
 111751522.98447  87079118.51447  21265605.993    21265605.826    21265612.604
        47.000          47.000
 118600909.25547  92416314.15146  22569001.227    22569001.003    22569006.082
        43.000          41.000
 125996860.55546  98179378.79943  23976404.831    23976403.481    23976407.990
        39.000          21.000
 104167830.707 8  81019431.617 8  19459424.518    19459424.354    19459427.313
        52.000          49.000
 20  5  5  0 26 30.0000000  0 10G 3G 4G22G 7G16R 4G26G 9G31R 3
 113773574.79947  88654737.18147  21650387.379    21650387.758    21650393.386
        46.000          47.000
 108028791.73548  84178299.88646  20557192.388    20557192.691    20557196.560
        48.000          40.000
 122741776.89947  95642946.22244  23356975.791    23356974.889    23356976.239
        42.000          27.000
 131860384.40246 102748348.27244  25092194.315    25092196.238    25092198.626
        36.000          26.000
 107990065.15948  84148121.93746  20549826.338    20549826.042    20549829.312
        48.000          40.000
 107907147.778 8  83927778.784 7  20150893.494    20150894.160    20150896.311
        50.000          46.000
 111873453.68747  87174129.44047  21288808.450    21288808.610    21288815.227
        46.000          47.000
 118590337.52747  92408076.43747  22566989.489    22566989.316    22566994.302
        43.000          42.000
 126165489.68146  98310778.05443  24008492.863    24008494.078    24008497.741
        38.000          20.000
