     2.11           OBSERVATION DATA    M (MIXED)           RINEX VERSION / TYPE
teqc  2008Oct2                          20220524 02:03:37UTCPGM / RUN BY / DATE
MSXP|IAx86-PII|bcc32 5.0|MSWin95->XP|486/DX+                COMMENT
BIT 2 OF LLI FLAGS DATA COLLECTED UNDER A/S CONDITION       COMMENT
-Unknown-                                                   MARKER NAME
-Unknown-           -Unknown-                               OBSERVER / AGENCY
235-1829            TPS E_GGD           2.3 Aug,01,2003 p2  REC # / TYPE / VERS
-Unknown-           -Unknown-                               ANT # / TYPE
  1240234.9615  4530662.6421  4302598.1061                  APPROX POSITION XYZ
        0.0000        0.0000        0.0000                  ANTENNA: DELTA H/E/N
     1     1                                                WAVELENGTH FACT L1/2
     7    L1    L2    C1    P1    P2    S1    S2            # / TYPES OF OBSERV
 SNR is mapped to RINEX snr flag value [0-9]                COMMENT
  L1 & L2: min(max(int(snr_dBHz/6), 0), 9)                  COMMENT
pseudorange smoothing corrections not applied               COMMENT
rx board ID = AGUS451XLHC                                   COMMENT
  2020     5     4     0     0    0.0000000     GPS         TIME OF FIRST OBS
    14                                                      LEAP SECONDS
                                                            END OF HEADER
 20  5  4  0  0  0.0000000  0 10G22G 3G31G14G 9R 1G16G26G 4R 3
 117524014.34547  91577177.69845  22364071.555    22364070.472    22364071.700
        46.000          34.000
 110441367.94348  86058227.51748  21016291.283    21016291.454    21016296.678
        49.000          51.000
 120816451.57247  94142695.44646  22990604.136    22990604.119    22990606.573
        43.000          39.000
 127083150.27946  99025837.58742  24183115.798    24183116.438    24183119.720
        37.000          14.000
 124359141.40346  96903224.16945  23664752.410    23664751.859    23664757.233
        39.000          35.000
 121412054.674 6  94431564.438 4  22712623.699    22712632.529    22712640.643
        40.000          29.000
 111482248.81747  86869288.79846  21214364.282    21214364.040    21214367.097
        47.000          37.000
 110366351.28547  85999761.21248  21002015.357    21002015.160    21002021.903
        47.000          49.000
 111126612.52947  86592171.28646  21146682.140    21146682.010    21146685.935
        46.000          37.000
 114023888.925 8  88685267.798 7  21338015.587    21338015.234    21338018.175
        48.000          43.000
 20  5  4  0  0 30.0000000  0 10G22G 3G31G14G 9R 1G16G26G 4R 3
 117673223.33447  91693444.43745  22392465.105    22392463.961    22392465.625
        46.000          34.000
 110553027.50448  86145234.95648  21037539.317    21037539.520    21037544.898
        49.000          50.000
 120974554.86847  94265892.77746  23020689.467    23020689.773    23020692.507
        42.000          38.000
 127232196.92246  99141977.72142  24211478.962    24211477.788    24211482.117
        37.000          14.000
 124334886.27846  96884324.07845  23660136.012    23660136.183    23660141.792
        40.000          35.000
 121594997.500 6  94573853.260 4  22746844.627    22746855.411    22746858.409
        39.000          27.000
 111480458.57847  86867893.80146  21214023.710    21214023.195    21214026.392
        47.000          37.000
 110446114.48148  86061914.34748  21017193.651    21017193.802    21017200.146
        48.000          49.000
 111140493.64647  86602987.74546  21149323.362    21149323.490    21149327.442
        46.000          37.000
 114191363.836 8  88815526.092 1  21331905.502    21331905.398    21331908.884
        48.000           7.000
 20  5  4  0  1  0.0000000  0 10G22G 3G31G14G 9R 1G16G26G 4R 3
 117822769.98247  91809974.27645  22420922.883    22420921.727    22420923.405
        46.000          34.000
 110665241.69948  86232674.57348  21058892.829    21058893.208    21058898.597
        49.000          50.000
 121132753.18447  94389164.13646  23050793.610    23050793.864    23050796.905
        42.000          38.000
 127381395.28146  99258236.14542  24239870.353    24239870.182    24239874.633
        37.000          14.000
 124310698.13346  96865476.17045  23655533.113    23655533.084    23655538.782
        39.000          35.000
 121778216.836 6  94716357.174    22781120.024    22781131.181    22781137.799
        39.000           4.000
 111479216.29447  86866925.78546  21213787.206    21213786.714    21213790.182
        47.000          37.000
 110526490.74647  86124545.19148  21032488.791    21032488.876    21032495.243
        47.000          49.000
 111154630.75247  86614003.66946  21152013.629    21152013.576    21152017.375
        46.000          36.000
 114158937.500 8                  21325847.545
        48.000
 20  5  4  0  1 30.0000000  0 10G22G 3G31G14G 9R 1G16G26G 4R 3
 117972642.82447  91926758.28945  22449442.689    22449441.658    22449442.984
        46.000          34.000
 110778000.57648  86320538.61848  21080350.002    21080350.437    21080355.867
        49.000          51.000
 121291036.35747  94512501.63046  23080914.632    23080914.794    23080917.114
        43.000          39.000
 127530736.32446  99374605.71942  24268288.384    24268287.820    24268292.664
        36.000          15.000
 124286569.65246  96846674.77546  23650942.045    23650941.430    23650947.299
        39.000          36.000
 121961701.498 6                  22815443.548
        39.000
 111478515.77047  86866379.92246  21213653.779    21213653.341    21213656.774
        47.000          37.000
 110607470.78647  86187646.51148  21047898.888    21047898.786    21047905.362
        47.000          49.000
 111169016.65847  86625213.46646  21154750.956    21154751.380    21154755.095
        46.000          37.000
 114126787.375 8                  21319841.855
        48.000
 20  5  4  0  2  0.0000000  0 10G22G 3G31G14G 9R 1G16G26G 4R 3
 118122839.31647  92043794.50245  22478024.257    22478023.256    22478024.657
        46.000          34.000
 110891302.11748  86408825.52148  21101910.579    21101911.021    21101916.444
        49.000          51.000
 121449402.20747  94635903.54246  23111050.736    23111050.747    23111053.214
        42.000          39.000
 127680218.78646  99491085.49142  24296735.502    24296733.074    24296738.861
        36.000          15.000
 124262501.35446  96827920.26446  23646361.529    23646361.509    23646367.654
        39.000          36.000
 122145448.824 6                  22849818.787
        40.000
 111478358.99747  86866257.75146  21213624.232    21213623.695    21213627.119
        47.000          37.000
 110689053.25848  86251217.26548  21063423.396    21063423.550    21063429.926
        49.000          49.000
 111183652.08747  86636617.69746  21157536.127    21157536.138    21157540.059
        46.000          37.000
 114094915.896 8                  21313887.741
        48.000
 20  5  4  0  2 30.0000000  0 10G22G 3G31G14G 9R 1G16G26G 4R 3
 116697951.85647  90933492.56245  22206877.099    22206876.229    22206877.678
        46.000          33.000
 109429738.46348  85269944.74048  20823784.294    20823784.639    20823790.150
        48.000          51.000
 120032444.70346  93531780.76746  22841412.294    22841412.467    22841415.354
        41.000          39.000
 126254437.23145  98380086.81442  24025416.379    24025415.403    24025417.914
        35.000          15.000
 122663083.54346  95581620.69146  23342002.962    23342002.725    23342008.613
        40.000          36.000
 120726910.215 6                  22584451.208
        40.000
 109903338.10148  85638968.73446  20913907.557    20913907.541    20913910.354
        48.000          37.000
 109195829.96448  85087666.63948  20779272.552    20779272.495    20779278.897
        48.000          49.000
 109623128.74147  85420625.48446  20860578.486    20860578.642    20860582.374
        46.000          37.000
 112458523.115 8  87467751.079 7  21008195.238    21008195.601    21008197.958
        48.000          43.000
 20  5  4  0  3  0.0000000  0 10G22G 3G31G14G 9R 1G16G26G 4R 3
 116848799.71547  91051036.32645  22235582.660    22235581.613    22235583.216
        45.000          33.000
 109544132.51248  85359082.94848  20845552.970    20845553.171    20845558.604
        49.000          50.000
 120190983.02947  93655317.07246  22871581.576    22871581.270    22871584.267
        43.000          39.000
 126404213.00445  98496795.14342  24053918.495    24053920.290    24053922.637
        34.000          13.000
 122639150.92346  95562971.90346  23337448.662    23337448.816    23337454.150
        40.000          37.000
 120911187.886 6  94042014.155 5  22618925.242    22618936.068    22618942.936
        41.000          31.000
 109904287.44048  85639708.47546  20914088.454    20914087.990    20914090.983
        48.000          37.000
 109278626.48947  85152183.40448  20795028.206    20795028.081    20795034.691
        47.000          49.000
 109638278.86347  85432430.76946  20863461.639    20863461.683    20863465.359
        47.000          37.000
 112427231.315 8  87443413.008 7  21002350.652    21002350.632    21002352.509
        48.000          43.000
 20  5  4  0  3 30.0000000  0 10G22G 3G31G14G 9R 1G16G26G 4R 3
 116999968.69947  91168830.32145  22264349.008    22264348.375    22264349.208
        45.000          34.000
 109659069.50948  85448644.23348  20867424.722    20867424.944    20867430.361
        48.000          50.000
 120349604.11047  93778917.86446  22901766.095    22901766.187    22901768.611
        42.000          39.000
 126554133.83645  98613616.53642  24082447.056    24082446.188    24082450.736
        34.000          12.000
 122615286.90846  95544376.58646  23332907.321    23332907.742    23332912.724
        40.000          37.000
 121095726.395 6  94185544.053 5  22653446.991    22653457.544    22653464.349
        41.000          31.000
 109905792.65047  85640881.36046  20914375.039    20914374.223    20914377.557
        47.000          37.000
 109362027.82748  85217171.44748  20810898.959    20810898.963    20810905.326
        48.000          49.000
 109653687.33247  85444437.35946  20866393.512    20866393.866    20866397.610
        46.000          38.000
 112396233.344 8  87419303.471 7  20996559.662    20996560.105    20996561.838
        49.000          44.000
 20  5  4  0  4  0.0000000  0 10G22G 3G31G14G 9R 1G16G26G 4R 3
 117151450.13147  91286867.78245  22293175.075    22293174.141    22293175.225
        46.000          33.000
 109774541.65448  85538622.51848  20889398.237    20889398.512    20889404.008
        48.000          50.000
 120508300.06947  93902577.01746  22931964.636    22931965.022    22931967.718
        42.000          38.000
 126704192.96645  98730545.69242  24111002.624    24111003.008    24111006.099
        35.000          13.000
 122591486.43546  95525830.77746  23328378.684    23328378.154    23328383.244
        39.000          36.000
 121280516.614 6  94329269.720 5  22688015.914    22688025.945    22688034.273
        41.000          31.000
 109907849.15647  85642483.82546  20914765.914    20914765.938    20914768.831
        47.000          38.000
 109446026.75448  85282625.15148  20826883.693    20826883.421    20826889.805
        48.000          49.000
 109669349.19247  85456641.40546  20869374.159    20869374.064    20869377.844
        46.000          38.000
 112365526.243 8  87395420.167 7  20990823.347    20990823.805    20990825.961
        49.000          44.000
 20  5  4  0  4 30.0000000  0 10G22G 3G31G14G 9R 1G16G26G 4R 3
 117303252.27647  91405155.15645  22322062.131    22322061.041    22322062.595
        45.000          33.000
 109890557.95048  85629024.81548  20911475.712    20911475.685    20911481.241
        49.000          50.000
 120667080.03447  94026301.62346  22962179.745    22962179.857    22962182.177
        42.000          38.000
 126854400.59945  98847590.52642  24139587.564    24139584.923    24139588.981
        34.000          12.000
 122567761.27146  95507343.65346  23323862.846    23323862.724    23323868.232
        39.000          36.000
 121465566.848 6  94473197.626 5  22722634.078    22722644.141    22722651.771
        41.000          31.000
 109910470.31047  85644526.27846  20915265.073    20915264.521    20915267.446
        47.000          37.000
 109530632.97348  85348552.06048  20842983.606    20842983.583    20842989.987
        48.000          49.000
 109685276.36947  85469052.18646  20872404.852    20872405.058    20872408.833
        47.000          38.000
 112335124.416 8  87371774.297 7  20985144.177    20985144.878    20985147.055
        49.000          44.000
 20  5  4  0  5  0.0000000  0 10G22G 3G31G14G 9R 1G16G26G 4R 3
 117455363.32647  91523683.23445  22351007.731    22351006.753    22351008.188
        45.000          33.000
 110007107.61548  85719842.71948  20933653.695    20933654.401    20933659.919
        48.000          50.000
 120825933.28346  94150083.32446  22992408.162    22992408.539    22992410.922
        41.000          37.000
 127004746.64045  98964743.26742  24168196.893    24168194.148    24168199.395
        34.000          12.000
 122544103.48846  95488909.03345  23319360.875    23319360.538    23319366.633
        39.000          35.000
 121650865.965 6  94617319.092 5  22757297.368    22757307.796    22757316.637
        40.000          32.000
 109913649.32348  85647003.42546  20915870.053    20915869.502    20915872.495
        48.000          37.000
 109615836.33348  85414944.28448  20859197.296    20859197.123    20859203.542
        48.000          49.000
 109701460.97847  85481663.56446  20875484.922    20875485.132    20875488.755
        47.000          38.000
 112305021.500 8  87348360.912 7  20979520.457    20979520.704    20979523.517
        49.000          44.000
 20  5  4  0  5 30.0000000  0 10G22G 3G31G14G 9R 1G16G26G 4R 3
 117607792.58847  91642459.25545  22380014.258    22380012.935    22380014.512
        46.000          33.000
 110124200.74648  85811084.11248  20955936.059    20955936.404    20955942.031
        48.000          50.000
 120984869.96747  94273930.03446  23022653.232    23022653.455    23022655.627
        42.000          37.000
 127155242.85345  99082012.92342  24196835.604    24196834.684    24196839.017
        34.000          13.000
 122520525.95846  95470536.94945  23314874.187    23314874.035    23314879.772
        39.000          35.000
 121836423.015 6  94761641.238 5  22792010.366    22792020.037    22792028.796
        39.000          32.000
 109917400.00547  85649926.02746  20916583.387    20916583.011    20916586.380
        47.000          37.000
 109701647.59447  85481810.19448  20875526.557    20875526.653    20875532.928
        47.000          49.000
 109717916.09247  85494485.72646  20878616.133    20878616.225    20878620.044
        47.000          38.000
 112275233.145 8  87325192.189 7  20973956.045    20973955.959    20973958.875
        49.000          44.000
 20  5  4  0  6  0.0000000  0 10G22G 3G31G14G 9R 1G16G26G 4R 3
 117760532.87447  91761477.65145  22409079.802    22409078.402    22409080.220
        46.000          33.000
 110241830.85448  85902743.92348  20978320.562    20978320.568    20978326.240
        48.000          50.000
 121143883.67247  94397836.78446  23052912.868    23052912.798    23052915.106
        42.000          38.000
 127305883.77345  99199395.40042  24225501.618    24225500.852    24225503.849
        34.000          12.000
 122497025.10146  95452224.60246  23310401.990    23310401.914    23310407.825
        39.000          36.000
 122022231.213 6  94906158.639 5  22826769.744    22826778.972    22826787.188
        39.000          32.000
 109921719.72847  85653292.04046  20917405.588    20917405.034    20917408.244
        47.000          38.000
 109788060.96248  85549145.27348  20891970.763    20891970.551    20891976.940
        48.000          49.000
 109734638.18547  85507515.92546  20881798.214    20881798.246    20881802.143
        46.000          38.000
 112245757.738 8  87302266.869 7  20968449.480    20968449.823    20968452.608
        49.000          44.000
 20  5  4  0  6 30.0000000  0 10G22G 3G31G14G 9R 1G16G26G 4R 3
 117913576.21947  91880732.17945  22438202.904    22438201.747    22438203.409
        44.000          33.000
 110359990.94948  85994816.70848  21000805.467    21000805.771    21000811.316
        48.000          50.000
 121302967.51947  94521798.17246  23083184.932    23083185.191    23083187.679
        42.000          38.000
 127456663.21945  99316885.81741  24254192.776    24254192.064    24254196.989
        34.000          11.000
 122473596.73846  95433968.73646  23305944.626    23305944.036    23305949.522
        39.000          36.000
 122208282.297 6  95050864.997 5  22861571.438    22861583.979    22861592.515
        39.000          32.000
 109926605.30647  85657098.97746  20918335.294    20918334.613    20918338.110
        47.000          38.000
 109875070.02348  85616944.52848  20908527.651    20908527.732    20908534.191
        48.000          49.000
 109751623.19847  85520750.99346  20885030.269    20885030.333    20885034.275
        47.000          38.000
 112216593.320 8  87279583.427 7  20963001.646    20963001.022    20963004.289
        49.000          44.000
 20  5  4  0  7  0.0000000  0 10G22G 3G31G14G 9R 1G16G26G 4R 3
 118066920.07247  92000220.87945  22467382.760    22467381.704    22467383.599
        45.000          32.000
 110478679.26848  86087301.10148  21023391.492    21023391.592    21023396.971
        48.000          50.000
 121462120.07147  94645813.11346  23113470.740    23113471.110    23113473.734
        42.000          37.000
 127607580.96245  99434483.95041  24282912.172    24282910.433    24282913.326
        33.000          10.000
 122450242.12146  95415770.35146  23301499.684    23301500.264    23301505.466
        39.000          36.000
 122394574.016 6  95195758.503 5  22896420.501    22896433.322    22896441.651
        38.000          32.000
 109932058.83348  85661348.47346  20919373.021    20919372.679    20919375.600
        48.000          38.000
 109962673.72848  85685207.14948  20925198.291    20925198.146    20925204.538
        48.000          49.000
 109768872.50247  85534192.00546  20888312.889    20888312.682    20888316.767
        47.000          38.000
 112187743.216 8  87257144.451 7  20957612.469    20957611.642    20957614.620
        48.000          44.000
 20  5  4  0  7 30.0000000  0 10G22G 3G31G14G 9R 1G16G26G 4R 3
 118220568.18847  92119946.66345  22496621.505    22496620.180    22496621.978
        45.000          32.000
 110597900.29948  86180200.58648  21046078.386    21046078.670    21046084.062
        48.000          50.000
 121621345.83847  94769885.08946  23143770.654    23143770.813    23143773.326
        42.000          38.000
 127758642.49945  99552194.19141  24311658.275    24311657.247    24311665.506
        33.000          10.000
 122426968.59246  95397635.15046  23297071.761    23297071.569    23297076.620
        40.000          37.000
 122581110.400 6  95340842.304 5  22931316.550    22931329.700    22931337.369
        38.000          32.000
 109938088.77347  85666047.12546  20920520.603    20920519.957    20920523.127
        47.000          38.000
 110050877.16448  85753937.09448  20941982.799    20941982.687    20941989.140
        48.000          49.000
 109786393.54647  85547844.76046  20891646.786    20891646.922    20891650.799
        47.000          38.000
 112159217.195 8  87234957.545 7  20952283.155    20952282.652    20952285.593
        48.000          44.000
 20  5  4  0  8  0.0000000  0 10G22G 3G31G14G 9R 1G16G26G 4R 3
 118374508.70047  92239900.28745  22525915.178    22525914.065    22525915.916
        44.000          32.000
 110717642.76348  86273506.38848  21068864.561    21068864.965    21068870.321
        48.000          50.000
 121780633.98947  94894005.67146  23174081.892    23174082.264    23174085.044
        42.000          37.000
 127909837.92545  99670008.74241  24340430.519    24340431.118    24340431.535
        33.000           8.000
 122403767.90646  95379556.70346  23292657.028    23292656.614    23292661.926
        40.000          37.000
 122767878.887 6  95486106.624 5  22966257.580    22966267.688    22966276.843
        38.000          31.000
 109944687.92547  85671189.32146  20921776.296    20921775.916    20921779.131
        47.000          38.000
 110139669.70547  85823126.07248  20958879.479    20958879.408    20958885.885
        47.000          48.000
 109804178.13547  85561702.87346  20895031.119    20895031.232    20895035.212
        46.000          38.000
 112131009.102 8  87213017.906 7  20947013.967    20947013.279    20947016.028
        49.000          44.000
 20  5  4  0  8 30.0000000  0 10G22G 3G31G14G 9R 1G16G26G 4R 3
 118528745.07547  92360084.45845  22555265.052    22555264.226    22555266.344
        44.000          32.000
 110837911.36848  86367222.17348  21091750.929    21091751.252    21091756.580
        48.000          50.000
 121939989.17247  95018178.49446  23204406.931    23204406.834    23204409.325
        42.000          37.000
 128061172.91945  99787932.03541  24369229.052    24369227.689    24369230.098
        32.000           7.000
 122380647.75946  95361541.00146  23288257.116    23288256.843    23288262.162
        41.000          37.000
 122954883.827 6  95631554.852 5  23001242.091    23001251.445    23001259.603
        39.000          31.000
 109951864.77848  85676781.66846  20923142.168    20923141.797    20923145.056
        48.000          38.000
 110229056.69448  85892778.26848  20975889.174    20975889.258    20975895.683
        48.000          49.000
 109822234.06647  85575772.42746  20898467.085    20898467.173    20898471.070
        47.000          38.000
 112103128.711 8  87191333.162 7  20941805.053    20941805.070    20941807.546
        49.000          44.000
 20  5  4  0  9  0.0000000  0 10G22G 3G31G14G 9R 1G16G26G 4R 3
 118683277.02147  92480498.93545  22584671.704    22584670.603    22584672.988
        44.000          32.000
 110958706.25048  86461348.03948  21114737.382    21114737.762    21114743.091
        48.000          50.000
 122099411.90747  95142403.95546  23234743.621    23234743.723    23234746.529
        42.000          37.000
 128212649.03545  99905965.27441  24398054.185    24398054.432    24398055.473
        31.000           7.000
 122357611.29646  95343590.52146  23283873.207    23283873.458    23283878.596
        41.000          37.000
 123142124.738 6  95777186.629 5  23036267.814    23036278.759    23036287.350
        39.000          31.000
 109959623.28247  85682827.25346  20924618.753    20924618.219    20924621.186
        47.000          38.000
 110319038.90447  85962894.26248  20993012.286    20993012.273    20993018.774
        47.000          49.000
 109840564.55547  85590055.91846  20901955.392    20901955.562    20901959.283
        47.000          38.000
 112075581.474 8  87169907.532 7  20936659.042    20936659.364    20936661.842
        49.000          44.000
 20  5  4  0  9 30.0000000  0 10G22G 3G31G14G 9R 1G16G26G 4R 3
 118838097.09347  92601137.92945  22614133.045    22614132.147    22614133.898
        44.000          32.000
 111080020.53848  86555878.63648  21137822.911    21137823.074    21137828.419
        48.000          50.000
 122258895.58447  95266676.90246  23265091.714    23265092.432    23265095.095
        42.000          37.000
 128364260.79445 100024104.2614   24426904.137    24426910.647    24426909.609
        31.000           5.000
 122334654.72246  95325702.29646  23279505.069    23279504.755    23279509.877
        41.000          37.000
 123329593.890 6  95922995.913 5  23071339.999    23071349.729    23071356.502
        40.000          30.000
 109967960.50847  85689323.78746  20926204.933    20926204.645    20926207.676
        47.000          38.000
 110409610.08347  86033469.20148  21010247.431    21010247.251    21010253.803
        47.000          49.000
 109859165.87247  85604550.44046  20905494.811    20905495.063    20905498.793
        47.000          38.000
 112048365.611 8  87148739.627 7  20931575.375    20931575.175    20931577.886
        49.000          44.000
 20  5  4  0 10  0.0000000  0 10G22G 3G31G14G 9R 1G16G26G 4R 3
 118993205.32547  92722001.47445  22643649.696    22643648.264    22643650.092
        45.000          32.000
 111201855.46048  86650814.92148  21161007.504    21161007.617    21161012.899
        48.000          49.000
 122418441.60847  95390998.43546  23295453.210    23295453.132    23295455.717
        42.000          36.000
 128516010.51745 100142350.81841  24455780.837    24455779.426    24455788.807
        30.000           6.000
 122311782.31346  95307879.63946  23275152.177    23275152.181    23275157.379
        40.000          38.000
 123517292.001 6  96068983.285 5  23106451.100    23106460.958    23106469.600
        39.000          30.000
 109976881.49747  85696275.20446  20927902.479    20927901.854    20927905.168
        47.000          38.000
 110500772.06748  86104504.50548  21027595.114    21027595.070    21027601.462
        48.000          49.000
 109878042.41147  85619259.43446  20909087.007    20909087.255    20909091.090
        46.000          38.000
 112021487.973 8  87127834.795 7  20926554.070    20926554.244    20926556.675
        49.000          45.000
 20  5  4  0 10 30.0000000  0 10G22G 3G31G14G 9R 1G16G26G 4R 3
 119148607.23647  92843093.84545  22673221.441    22673220.498    22673222.080
        45.000          32.000
 111324216.72948  86746161.35048  21184291.846    21184292.237    21184297.471
        48.000          49.000
 122578056.39346  95515373.56246  23325826.923    23325827.045    23325829.337
        40.000          36.000
 128667905.25745 100260710.30641  24484685.850    24484685.351    24484689.006
        30.000           6.000
 122289002.96846  95290129.51146  23270817.467    23270817.062    23270822.583
        40.000          38.000
 123705224.512 6  96215152.972 5  23141608.341    23141619.330    23141626.480
        40.000          30.000
 109986395.60547  85703688.79646  20929713.137    20929712.417    20929715.640
        47.000          38.000
 110592531.22848  86176005.14048  21045056.334    21045056.138    21045062.761
        48.000          49.000
 109897203.05847  85634189.80546  20912733.223    20912733.272    20912737.246
        46.000          38.000
 111994959.241 8  87107201.334 7  20921598.443    20921598.453    20921600.884
        49.000          44.000
 20  5  4  0 11  0.0000000  0 10G22G 3G31G14G 9R 1G16G26G 4R 3
 119304299.06047  92964412.13945  22702848.960    22702847.931    22702849.218
        45.000          32.000
 111447101.41748  86841915.63348  21207676.076    21207676.545    21207681.651
        49.000          50.000
 122737737.30447  95639800.20646  23356213.216    23356213.091    23356215.739
        42.000          36.000
 128819943.19745 100379181.3424   24513618.631    24513612.920    24513622.654
        30.000           5.000
 122266316.78246  95272451.97646  23266500.282    23266500.217    23266505.656
        41.000          38.000
 123893387.694 6  96361502.055 5  23176805.733    23176818.495    23176825.623
        40.000          30.000
 109996503.70247  85711565.22746  20931636.471    20931635.983    20931639.197
        47.000          37.000
 110684885.22547  86247969.28148  21062630.506    21062630.482    21062636.970
        47.000          49.000
 109916648.04447  85649341.73946  20916433.039    20916433.350    20916437.506
        47.000          38.000
 111968782.217 8  87086841.419 7  20916708.292    20916708.371    20916711.033
        49.000          45.000
 20  5  4  0 11 30.0000000  0 10G22G 3G31G14G 9R 1G16G26G 4R 3
 119460276.20447  93085952.74745  22732530.228    22732529.045    22732530.559
        45.000          32.000
 111570505.71048  86938074.80748  21231159.276    21231159.706    21231164.743
        48.000          50.000
 122897481.12746  95764275.85546  23386611.714    23386611.533    23386614.275
        41.000          36.000
 128972122.10845 100497762.2724   24542576.550    24542575.624    24542579.396
        32.000           4.000
 122243723.22546  95254846.61346  23262200.810    23262200.898    23262206.214
        40.000          38.000
 124081777.030 6  96508027.055 4  23212047.089    23212060.593    23212069.499
        40.000          29.000
 110007206.13447  85719904.77846  20933673.231    20933672.471    20933675.806
        47.000          38.000
 110777830.86848  86320394.45348  21080318.020    21080317.616    21080324.022
        48.000          48.000
 109936376.81947  85664714.81046  20920187.574    20920187.549    20920191.867
        46.000          38.000
 111942958.408 8  87066756.232 7  20911884.270    20911884.169    20911887.060
        49.000          45.000
 20  5  4  0 12  0.0000000  0 10G22G 3G31G14G 9R 1G16G26G 4R 3
 119616536.51647  93207714.01345  22762265.639    22762264.573    22762266.579
        45.000          32.000
 111694427.91948  87034637.55248  21254740.852    21254741.258    21254746.349
        48.000          50.000
 123057286.16147  95888799.21446  23417021.730    23417021.975    23417024.245
        42.000          36.000
 129124441.36845 100616452.53841  24571563.359    24571562.964    24571563.326
        32.000           7.000
 122221223.71046  95237314.54346  23257919.513    23257919.715    23257924.548
        40.000          38.000
 124270390.271 6  96654726.183 5  23247331.003    23247343.976    23247353.242
        39.000          30.000
 110018505.03647  85728709.10546  20935823.292    20935822.523    20935825.988
        47.000          38.000
 110871367.06547  86393279.79048  21098117.071    21098116.957    21098123.438
        47.000          49.000
 109956390.86647  85680310.16346  20923996.117    20923996.124    20924000.323
        47.000          38.000
 111917491.190 8  87046948.387 7  20907127.344    20907127.068    20907129.353
        49.000          45.000
 20  5  4  0 12 30.0000000  0 10G22G 3G31G14G 9R 1G16G26G 4R 3
 119773074.33247  93329691.50745  22792053.529    22792052.528    22792054.845
        44.000          32.000
 111818863.41048  87131600.26248  21278420.195    21278420.460    21278425.712
        48.000          50.000
 123217148.35846  96013367.12045  23447442.095    23447442.441    23447444.887
        41.000          35.000
 129276897.63845 100735249.4254   24600573.905    24600561.396    24600584.025
        30.000           2.000
 122198816.83646  95219854.64346  23253655.548    23253655.801    23253660.626
        41.000          38.000
 124459222.240 6  96801595.424 5  23282659.611    23282669.111    23282677.795
        39.000          30.000
 110030399.62248  85737977.60746  20938086.492    20938086.082    20938089.410
        48.000          38.000
 110965489.79147  86466622.16548  21116028.019    21116027.824    21116034.176
        47.000          48.000
 109976688.85347  85696126.77346  20927858.943    20927859.100    20927862.821
        47.000          38.000
 111892381.476 8  87027418.614 7  20902436.549    20902436.528    20902438.499
        50.000          45.000
 20  5  4  0 13  0.0000000  0 10G22G 3G31G14G 9R 1G16G26G 4R 3
 119929888.97247  93451884.72045  22821894.554    22821893.337    22821895.253
        45.000          31.000
 111943812.22848  87228962.95648  21302197.069    21302197.404    21302202.757
        48.000          49.000
 123377068.25146  96137979.97145  23477873.676    23477873.947    23477877.010
        40.000          35.000
 129429492.62545                  24629610.595    24629619.960
        32.000
 122176505.90546  95202469.49946  23249409.953    23249409.962    23249415.301
        41.000          38.000
 124648272.280 6  96948634.274 5  23318026.323    23318035.376    23318043.290
        40.000          30.000
 110042893.91847  85747713.41746  20940464.177    20940463.776    20940466.933
        47.000          38.000
 111060199.68847  86540422.08248  21134050.907    21134050.629    21134056.902
        47.000          49.000
 109997274.08947  85712167.20846  20931776.196    20931776.282    20931779.996
        46.000          39.000
 111867634.599 8  87008171.045 7  20897813.177    20897812.955    20897815.366
        49.000          45.000
 20  5  4  0 13 30.0000000  0 10G22G 3G31G14G 9R 1G16G26G 4R 3
 120086976.32547  93574290.42945  22851787.124    22851786.281    22851787.839
        45.000          31.000
 112069270.51248  87326722.64148  21326071.212    21326071.432    21326076.704
        48.000          50.000
 123537042.81846  96262635.43145  23508315.595    23508316.104    23508319.109
        41.000          34.000
 129582223.43045                  24658676.113
        33.000
 122154290.29346  95185158.65846  23245182.513    23245182.242    23245187.696
        41.000          38.000
 124837535.963 6  97095839.331 4  23353428.356    23353440.112    23353449.278
        38.000          27.000
 110055987.65348  85757916.32546  20942955.769    20942955.590    20942958.533
        48.000          39.000
 111155493.50047  86614676.98648  21152184.608    21152184.620    21152190.762
        47.000          49.000
 110018146.00147  85728431.03246  20935748.059    20935748.020    20935751.757
        47.000          38.000
 111843252.236 8  86989206.981 7  20893258.361    20893258.187    20893260.461
        49.000          45.000
 20  5  4  0 14  0.0000000  0 10G22G 3G31G14G 9R 1G16G26G 4R 3
 118668925.15647  92469315.47045  22581941.008    22581940.355    22581941.565
        44.000          31.000
 110619826.46847  86197285.70648  21050251.302    21050251.439    21050256.707
        47.000          50.000
 122121661.84546  95159741.12845  23238978.299    23238978.131    23238981.159
        40.000          35.000
 128159681.22745                  24387975.375
        32.000
 120556756.60046  93940327.22046  22941181.883    22941181.892    22941187.526
        41.000          38.000
 123424460.939 6  95996780.902 5  23089086.158    23089094.996    23089103.882
        38.000          30.000
 108494268.97647  84540992.67746  20645770.771    20645770.415    20645773.585
        47.000          38.000
 109675959.01647  85461792.96248  20870638.941    20870638.595    20870644.867
        47.000          49.000
 108463892.62447  84517324.50546  20639983.165    20639983.363    20639987.210
        46.000          39.000
 110214430.735 8  85722345.805 7  20588981.008    20588980.599    20588983.075
        49.000          45.000
 20  5  4  0 14 30.0000000  0 10G22G 3G31G14G 9R 1G16G26G 4R 3
 118826551.89947  92592141.47345  22611936.324    22611935.475    22611937.141
        44.000          31.000
 110746299.36648  86295836.00148  21074318.004    21074318.390    21074323.808
        48.000          49.000
 122281742.81346  95284479.48645  23269440.799    23269440.510    23269443.271
        40.000          35.000
 128312684.32945                  24417088.912
        33.000
 120534737.27746  93923169.32146  22936991.372    22936991.444    22936997.115
        40.000          38.000
 123614146.338 6  96144313.925 5  23124569.008    23124581.097    23124588.816
        39.000          30.000
 108508568.83048  84552135.41846  20648491.873    20648491.528    20648494.391
        48.000          39.000
 109772418.15748  85536955.91348  20888994.447    20888994.145    20889000.393
        48.000          48.000
 108485343.56047  84534039.52246  20644065.079    20644065.401    20644069.312
        47.000          39.000
 110190789.638 8  85703958.286 7  20584564.609    20584564.525    20584566.579
        49.000          45.000
 20  5  4  0 15  0.0000000  0 10G22G 3G31G14G 9R 1G16G26G 4R 3
 118984447.90547  92715177.30745  22641982.765    22641981.855    22641983.669
        44.000          31.000
 110873280.26648  86394782.14248  21098481.817    21098482.098    21098487.498
        48.000          49.000
 122441878.46846  95409260.46946  23299913.439    23299913.571    23299916.538
        40.000          36.000
 128465826.16045                  24446230.735
        32.000
 120512821.79846  93906092.34146  22932820.854    22932820.588    22932826.410
        40.000          37.000
 123804042.523 6  96292010.896 5  23160091.855    23160103.667    23160112.678
        37.000          30.000
 108523478.17247  84563753.09546  20651329.451    20651328.791    20651331.891
        47.000          39.000
 109869461.48348  85612574.08348  20907460.765    20907460.812    20907466.879
        48.000          49.000
 108507089.70247  84550984.55746  20648203.384    20648203.590    20648207.487
        47.000          39.000
 110167528.061 8  85685865.946 7  20580219.119    20580219.184    20580221.388
        49.000          45.000
 20  5  4  0 15 30.0000000  0 10G22G 3G31G14G 9R 1G16G26G 4R 3
 119142611.13247  92838421.36345  22672080.842    22672079.835    22672081.012
        44.000          31.000
 111000767.38747  86494122.73748  21122741.768    21122742.011    21122747.548
        47.000          50.000
 122602067.88546  95534083.34346  23330396.619    23330396.563    23330399.382
        41.000          36.000
 128619106.61345                  24475399.853
        32.000
 120491011.71746  93889097.49246  22928670.347    22928670.243    22928675.878
        40.000          38.000
 123994147.148 6  96439869.976 5  23195657.183    23195666.757    23195676.649
        37.000          30.000
 108538999.36447  84575847.52846  20654282.766    20654282.282    20654285.440
        47.000          39.000
 109967087.87647  85688646.59048  20926038.401    20926038.245    20926044.763
        47.000          48.000
 108529132.68547  84568160.90946  20652398.001    20652398.244    20652402.105
        47.000          38.000
 110144649.914 8  85668071.831 7  20575945.458    20575945.139    20575947.281
        49.000          45.000
 20  5  4  0 16  0.0000000  0 10G22G 3G31G14G 9R 1G16G26G 4R 3
 119301038.60947  92961871.31945  22702228.283    22702227.423    22702229.098
        44.000          31.000
 111128758.38547  86593855.96248  21147097.443    21147097.799    21147103.463
        47.000          49.000
 122762309.26346  95658946.69646  23360889.608    23360889.635    23360892.500
        41.000          36.000
 128772524.48345                  24504594.526
        33.000
 120469308.11146  93872185.61446  22924540.730    22924540.654    22924545.871
        41.000          38.000
 124184457.371 6  96587889.036 5  23231257.467    23231269.635    23231278.397
        38.000          30.000
 108555133.25048  84588419.39246  20657352.980    20657352.589    20657355.471
        48.000          39.000
 110065295.50748  85765172.01348  20944726.939    20944726.652    20944732.985
        48.000          48.000
 108551473.53947  84585569.35846  20656649.348    20656649.646    20656653.370
        47.000          40.000
 110122158.116 8  85650578.204 7  20571743.804    20571743.532    20571745.877
        50.000          45.000
 20  5  4  0 16 30.0000000  0  9G22G 3G31G 9R 1G16G26G 4R 3
 119459742.82447  93085536.91945  22732428.650    22732427.762    22732429.520
        44.000          30.000
 111257266.79447  86693992.36648  21171551.931    21171552.160    21171557.818
        47.000          49.000
 122922616.52746  95783861.39846  23391394.929    23391395.078    23391398.136
        41.000          36.000
 120447727.95646  93855369.91946  22920433.962    22920434.046    22920439.272
        41.000          38.000
 124374986.713 6  96736078.433 5  23266900.084    23266912.262    23266921.065
        38.000          30.000
 108571897.53347  84601482.45646  20660543.065    20660542.419    20660545.764
        47.000          39.000
 110164098.50348  85842161.35748  20963528.401    20963528.338    20963534.605
        48.000          48.000
 108574129.14847  84603223.07546  20660960.346    20660960.891    20660964.711
        47.000          39.000
 110100072.445 8  85633400.460 7  20567617.437    20567617.916    20567620.175
        49.000          45.000
 20  5  4  0 17  0.0000000  0  9G22G 3G31G 9R 1G16G26G 4R 3
 119618704.15647  93209402.86845  22762678.348    22762677.197    22762678.505
        44.000          30.000
 111386273.22647  86794516.84148  21196100.746    21196101.411    21196106.949
        47.000          49.000
 123082971.17546  95908813.02745  23421909.643    23421909.477    23421912.426
        41.000          35.000
 120426255.24846  93838637.95446  22916347.596    22916347.744    22916352.984
        41.000          38.000
 124565714.694 6  96884422.365 4  23302580.320    23302591.719    23302599.206
        36.000          29.000
 108589276.49148  84615024.50246  20663850.040    20663849.715    20663852.858
        48.000          39.000
 110263478.07047  85919599.96848  20982439.514    20982439.346    20982445.982
        46.000          48.000
 108597083.63747  84621109.68046  20665329.117    20665329.044    20665332.907
        47.000          39.000
 110078378.512 8  85616527.393 7  20563565.107    20563565.372    20563567.821
        50.000          45.000
 20  5  4  0 17 30.0000000  0  9G22G 3G31G 9R 1G16G26G 4R 3
 119777918.97447  93333466.34045  22792975.719    22792974.442    22792976.225
        44.000          30.000
 111515774.62848  86895427.01048  21220744.260    21220744.676    21220750.268
        48.000          49.000
 123243370.86246  96033799.72945  23452433.199    23452432.605    23452435.504
        40.000          35.000
 120404890.44046  93821990.05846  22912282.275    22912282.165    22912287.342
        41.000          38.000
 124756637.903 5  97032918.126 4  23338294.340    23338307.423    23338315.732
        35.000          29.000
 108607270.87347  84629046.09146  20667274.398    20667273.999    20667277.106
        47.000          39.000
 110363431.70547  85997485.90948  21001460.160    21001460.094    21001466.441
        47.000          48.000
 108620337.38147  84639229.46746  20669753.876    20669753.915    20669757.867
        47.000          39.000
 110057079.007 8  85599961.101 7  20559586.502    20559586.243    20559588.882
        50.000          45.000
 20  5  4  0 18  0.0000000  0  9G22G 3G31G 9R 1G16G26G 4R 3
 119937386.15547  93457726.45545  22823321.460    22823320.518    22823321.797
        44.000          30.000
 111645770.12147  86996722.17848  21245481.616    21245481.855    21245487.515
        47.000          48.000
 123403815.79146  96158821.68945  23482963.984    23482964.082    23482967.243
        40.000          34.000
 120383636.16846  93805428.29046  22908237.904    22908237.557    22908242.976
        41.000          38.000
 124947754.966 6  97181564.650 4  23374048.313    23374059.952    23374068.413
        36.000          28.000
 108625883.48047  84643549.41346  20670816.296    20670815.783    20670819.038
        47.000          39.000
 110463959.11347  86075818.94348  21020589.671    21020589.587    21020596.211
        47.000          48.000
 108643892.98147  84657584.47846  20674236.350    20674236.431    20674240.308
        46.000          39.000
 110036178.391 8  85583705.066 7  20555681.721    20555682.014    20555684.485
        50.000          45.000
 20  5  4  0 18 30.0000000  0  9G22G 3G31G 9R 1G16G26G 4R 3
 120097098.73347  93582177.80045  22853713.815    22853713.071    22853714.193
        44.000          30.000
 111776253.30747  87098397.37148  21270311.810    21270311.881    21270317.600
        47.000          49.000
 123564300.28146  96283874.49545  23513503.396    23513503.543    23513506.292
        40.000          34.000
 120362489.54946  93788950.41046  22904213.546    22904213.566    22904219.201
        41.000          38.000
 125139059.180 6  97330356.757 4  23409830.011    23409848.012    23409856.662
        36.000          28.000
 108645111.93947  84658532.62146  20674475.299    20674474.688    20674478.017
        47.000          40.000
 110565054.47747  86154594.54648  21039827.770    21039827.641    21039834.008
        47.000          48.000
 108667747.51747  84676172.42246  20678775.700    20678775.798    20678779.533
        47.000          39.000
 110015676.161 8  85567758.876 7  20551851.968    20551851.828    20551854.748
        50.000          46.000
 20  5  4  0 19  0.0000000  0  9G22G 3G31G 9R 1G16G26G 4R 3
 120257062.99947  93706825.24845  22884153.557    22884152.475    22884154.254
        44.000          30.000
 111907231.17247  87200458.01648  21295235.733    21295236.180    21295241.946
        47.000          49.000
 123724831.79246  96408963.93145  23544051.513    23544051.468    23544054.724
        40.000          33.000
 120341461.12846  93772564.62946  22900212.064    22900211.922    22900217.596
        40.000          39.000
 125330557.213 6  97479299.626 4  23445659.976    23445672.293    23445679.945
        37.000          27.000
 108664966.96648  84674004.06546  20678253.491    20678253.035    20678256.387
        48.000          40.000
 110666725.27548  86233818.53448  21059175.088    21059174.853    21059181.410
        48.000          48.000
 108691911.42347  84695001.43346  20683373.831    20683374.113    20683377.893
        47.000          39.000
 109995584.893 8  85552132.326 7  20548098.725    20548098.735    20548101.527
        50.000          45.000
 20  5  4  0 19 30.0000000  0  9G22G 3G31G 9R 1G16G26G 4R 3
 120417274.60747  93831665.42645  22914640.819    22914640.018    22914641.453
        43.000          30.000
 112038699.81747  87302901.09948  21320253.734    21320253.935    21320259.705
        47.000          48.000
 123885407.40546  96534087.71945  23574608.274    23574607.842    23574611.300
        39.000          33.000
 120320550.50947  93756270.64846  22896232.756    22896232.904    22896238.572
        42.000          40.000
 125522244.641 6  97628389.774 4  23481518.381    23481530.270    23481537.524
        37.000          28.000
 108685448.12348  84689963.40546  20682150.959    20682150.546    20682153.874
        48.000          40.000
 110768968.19147  86313488.32448  21078630.992    21078631.071    21078637.491
        47.000          48.000
 108716384.33647  84714071.22646  20688030.904    20688030.964    20688034.728
        46.000          39.000
 109975906.666 8  85536827.033 7  20544422.734    20544422.635    20544425.238
        50.000          45.000
 20  5  4  0 20  0.0000000  0  9G22G 3G31G 9R 1G16G26G 4R 3
 120577728.54647  93956694.44845  22945174.616    22945173.714    22945175.533
        43.000          30.000
 112170654.78847  87405723.13548  21345363.812    21345364.192    21345369.963
        47.000          48.000
 124046023.49046  96659243.05345  23605171.962    23605172.043    23605175.300
        38.000          33.000
 120299756.95246  93740067.88146  22892276.222    22892276.501    22892281.551
        41.000          40.000
 125714116.387 5  97777623.301 4  23517407.406    23517424.035    23517433.129
        35.000          26.000
 108706554.90848  84706410.24146  20686167.704    20686167.089    20686170.197
        48.000          39.000
 110871779.35347  86393600.90848  21098195.716    21098195.646    21098201.922
        47.000          48.000
 108741165.43547  84733381.17046  20692746.560    20692746.595    20692750.581
        47.000          40.000
 109956642.559 8  85521843.841 7  20540823.809    20540823.705    20540826.399
        49.000          46.000
 20  5  4  0 20 30.0000000  0  9G22G 3G31G 9R 1G16G26G 4R 3
 120738435.52347  94081920.63244  22975756.189    22975755.099    22975757.006
        44.000          29.000
 112303107.11447  87508932.71948  21370568.607    21370569.057    21370574.731
        47.000          49.000
 124206691.97846  96784439.20545  23635746.310    23635746.179    23635749.574
        37.000          32.000
 120279094.96447  93723967.63346  22888344.391    22888344.526    22888349.341
        42.000          40.000
 125906183.657 4  97927008.941 4  23553335.440    23553355.724    23553363.888
        28.000          26.000
 108728302.14448  84723356.13146  20690305.772    20690305.421    20690308.695
        48.000          40.000
 110975170.30847  86474165.27548  21117870.170    21117870.067    21117876.535
        47.000          48.000
 108766269.21447  84752942.54746  20697523.888    20697523.751    20697527.782
        47.000          40.000
 109937809.605 8  85507195.975 7  20537305.930    20537305.340    20537308.161
        50.000          45.000
 20  5  4  0 21  0.0000000  0  8G22G 3G31G 9G16G26G 4R 3
 120899371.57647  94207325.32044  23006381.115    23006380.217    23006382.557
        43.000          29.000
 112436032.98348  87612511.29848  21395863.648    21395864.018    21395869.673
        48.000          48.000
 124367390.00446  96909658.39245  23666326.426    23666326.303    23666329.301
        38.000          32.000
 120258544.44747  93707954.25346  22884433.807    22884433.803    22884438.933
        42.000          40.000
 108750669.58748  84740785.30546  20694562.479    20694561.831    20694564.975
        48.000          39.000
 111079117.82047  86555163.32348  21137650.878    21137650.765    21137657.124
        47.000          48.000
 108791675.45347  84772739.60946  20702358.389    20702358.502    20702362.372
        47.000          40.000
 109919389.195 8  85492868.985 7  20533864.438    20533864.428    20533866.774
        50.000          46.000
 20  5  4  0 21 30.0000000  0  8G22G 3G31G 9G16G26G 4R 3
 121060541.48447  94332912.24644  23037050.650    23037049.958    23037051.597
        44.000          29.000
 112569437.97447  87716463.22148  21421250.055    21421250.173    21421255.756
        47.000          49.000
 124528124.26046  97034905.81445  23696914.142    23696913.506    23696916.190
        38.000          32.000
 120238114.66246  93692034.94646  22880545.998    22880546.006    22880551.332
        41.000          40.000
 108773666.64148  84758705.08546  20698938.524    20698937.848    20698941.232
        48.000          39.000
 111183628.01647  86636599.82248  21157538.021    21157538.200    21157544.774
        47.000          48.000
 108817393.35347  84792779.52446  20707252.282    20707252.550    20707256.312
        47.000          40.000
 109901392.937 8  85478871.895 7  20530502.674    20530502.563    20530504.912
        50.000          46.000
 20  5  4  0 22  0.0000000  0  8G22G 3G31G 9G16G26G 4R 3
 121221957.22247  94458690.70944  23067766.962    23067765.826    23067767.926
        42.000          29.000
 112703334.59747  87820798.23648  21446729.630    21446730.050    21446735.448
        47.000          48.000
 124688908.04846  97160191.81345  23727509.536    23727509.680    23727512.587
        39.000          32.000
 120217821.80147  93676222.33146  22876684.343    22876684.269    22876689.882
        42.000          40.000
 108797309.25748  84777127.89446  20703437.326    20703436.954    20703440.345
        48.000          39.000
 111288713.89447  86718484.90748  21177535.866    21177535.444    21177541.891
        46.000          48.000
 108843438.97447  84813074.80246  20712208.808    20712208.905    20712212.629
        47.000          39.000
 109883839.215 8  85465218.996 7  20527223.564    20527223.474    20527225.886
        50.000          46.000
 20  5  4  0 22 30.0000000  0  8G22G 3G31G 9G16G26G 4R 3
 121383609.51247  94584653.51244  23098528.131    23098527.695    23098529.550
        42.000          29.000
 112837713.82747  87925509.30548  21472301.376    21472301.625    21472306.979
        47.000          49.000
 124849733.45646  97285510.25645  23758113.741    23758113.676    23758116.644
        38.000          32.000
 120197660.50547  93660512.23946  22872848.297    22872847.622    22872853.216
        42.000          40.000
 108821592.27848  84796049.72346  20708058.365    20708058.005    20708061.104
        48.000          39.000
 111394366.97748  86800811.97648  21197640.919    21197640.824    21197646.948
        48.000          48.000
 108869806.93248  84833621.25546  20717226.324    20717226.584    20717230.303
        48.000          40.000
 109866724.916 8  85451907.867 7  20524027.032    20524026.576    20524028.778
        51.000          45.000
 20  5  4  0 23  0.0000000  0  8G22G 3G31G 9G16G26G 4R 3
 121545488.76847  94710793.15044  23129332.986    23129331.510    23129334.025
        43.000          28.000
 112972566.21547  88030589.07248  21497962.643    21497963.210    21497968.589
        47.000          48.000
 125010591.89746  97410854.45045  23788724.076    23788724.164    23788726.609
        39.000          31.000
 120177625.12546  93644900.26446  22869035.059    22869035.209    22869040.605
        41.000          40.000
 108846509.97347  84815466.10246  20712800.376    20712799.544    20712802.779
        47.000          40.000
 111500578.38247  86883574.10548  21217851.997    21217851.907    21217858.436
        47.000          48.000
 108896491.42447  84854414.35646  20722304.234    20722304.458    20722308.166
        47.000          40.000
 109850046.155 8  85438935.498 7  20520910.813    20520910.542    20520913.180
        50.000          46.000
 20  5  4  0 23 30.0000000  0  8G22G 3G31G 9G16G26G 4R 3
 121707597.60747  94837111.70344  23160181.195    23160180.068    23160182.364
        43.000          28.000
 113107895.07847  88136040.10848  21523714.916    21523715.297    21523720.893
        47.000          48.000
 125171487.87246  97536227.89045  23819341.529    23819342.096    23819344.622
        39.000          31.000
 120157722.63247  93629391.83346  22865248.074    22865247.917    22865253.653
        42.000          40.000
 108872069.05248  84835382.26846  20717663.876    20717663.520    20717666.569
        48.000          39.000
 111607351.90647  86966774.24348  21238170.495    21238170.297    21238176.845
        47.000          48.000
 108923499.40047  84875459.53146  20727443.554    20727443.678    20727447.563
        47.000          40.000
 109833812.043 8  85426308.968 7  20517877.831    20517877.969    20517880.560
        50.000          46.000
 20  5  4  0 24  0.0000000  0  8G22G 3G31G 9G16G26G 4R 3
 121869935.03747  94963608.37044  23191073.218    23191071.778    23191073.995
        42.000          28.000
 113243699.52547  88241861.73648  21549557.673    21549558.016    21549563.640
        47.000          48.000
 125332421.35546  97661630.56044  23849966.277    23849965.999    23849969.444
        39.000          28.000
 120137956.01747  93613989.28846  22861486.169    22861486.557    22861492.142
        42.000          41.000
 108898272.41648  84855800.46946  20722650.108    20722649.864    20722652.917
        49.000          40.000
 111714687.25047  87050412.16548  21258595.190    21258595.378    21258601.938
        47.000          48.000
 108950833.63847  84896758.92446  20732645.039    20732645.317    20732649.049
        47.000          40.000
 109818027.666 8  85414032.218 7  20514929.072    20514929.351    20514932.140
        51.000          46.000
 20  5  4  0 24 30.0000000  0  8G22G 3G31G 9G16G26G 4R 3
 122032491.41447  95090275.64744  23222006.173    23222005.118    23222007.431
        42.000          28.000
 113379970.25047  88348046.69548  21575489.309    21575489.467    21575495.052
        47.000          49.000
 125493384.20146  97787056.09343  23880596.788    23880596.464    23880598.188
        39.000          20.000
 120118319.75746  93598688.32146  22857750.161    22857749.827    22857755.574
        41.000          41.000
 108925114.53848  84876716.40646  20727757.988    20727757.511    20727760.837
        48.000          39.000
 111822575.60647  87134480.99748  21279125.778    21279125.839    21279132.487
        47.000          48.000
 108978488.56547  84918308.20746  20737907.724    20737907.899    20737911.808
        47.000          39.000
 109802689.493 8  85402102.527 7  20512063.806    20512063.886    20512066.600
        50.000          46.000
 20  5  4  0 25  0.0000000  0  8G22G 3G31G 9G16G26G 4R 3
 122195264.93047  95217112.14044  23252980.750    23252980.093    23252982.389
        42.000          28.000
 113516706.00847  88454594.01648  21601508.929    21601509.420    21601514.969
        47.000          48.000
 125654376.16746  97912504.32843  23911232.053    23911232.156    23911236.383
        38.000          20.000
 120098816.38247  93583490.89346  22854038.646    22854038.321    22854043.937
        42.000          41.000
 108952597.53748  84898131.72146  20732987.816    20732987.276    20732990.529
        49.000          39.000
 111931016.18948  87218980.14348  21299761.830    21299761.817    21299767.984
        48.000          48.000
 109006466.54347  84940109.21946  20743231.576    20743231.953    20743235.821
        47.000          40.000
 109787802.140 8  85390523.462 7  20509283.090    20509282.838    20509285.706
        50.000          46.000
 20  5  4  0 25 30.0000000  0  8G22G 3G31G 9G16G26G 4R 3
 122358260.95146  95344121.99244  23283997.986    23283997.251    23283999.245
        41.000          27.000
 113653912.35247  88561508.03248  21627618.838    21627618.909    21627624.491
        46.000          48.000
 125815404.34546  98037980.76343  23941875.402    23941874.320    23941877.990
        37.000          20.000
 120079455.34747  93568404.39046  22850353.595    22850353.639    22850359.507
        42.000          40.000
 108980730.88548  84920053.81046  20738341.589    20738341.105    20738344.118
        48.000          39.000
 112040015.14047  87303914.37547  21320503.215    21320503.335    21320509.822
        46.000          47.000
 109034776.91347  84962169.23646  20748619.042    20748619.278    20748623.124
        47.000          40.000
 109773377.033 8  85379303.935 7  20506588.280    20506587.959    20506590.995
        50.000          46.000
 20  5  4  0 26  0.0000000  0  8G22G 3G31G 9G16G26G 4R 3
 120946053.22147  94243700.35844  23015264.373    23015262.822    23015265.601
        42.000          27.000
 112216162.54147  87441183.48148  21354023.894    21354024.357    21354029.847
        47.000          48.000
 124401043.47246  96935881.29443  23672730.673    23672731.115    23672734.153
        36.000          20.000
 118484808.52047  92325822.45246  22546903.145    22546902.424    22546908.205
        42.000          40.000
 107434087.37048  83714877.03946  20444025.021    20444024.499    20444027.574
        48.000          39.000
 110574145.26247  86161678.10248  21041557.895    21041557.711    21041564.207
        47.000          48.000
 107487992.98147  83756883.04846  20454275.869    20454275.930    20454280.004
        47.000          40.000
 108154595.758 8  84120251.824 7  20204186.385    20204186.215    20204189.100
        51.000          46.000
 20  5  4  0 26 30.0000000  0  8G22G 3G31G 9G16G26G 4R 3
 121109475.10447  94371042.05444  23046362.900    23046361.239    23046362.825
        42.000          28.000
 112354292.19547  87548816.95548  21380309.153    21380309.569    21380314.955
        47.000          48.000
 124562128.85446  97061402.31543  23703383.854    23703383.558    23703387.158
        36.000          19.000
 118465725.83847  92310952.83746  22543270.889    22543271.071    22543276.927
        42.000          40.000
 107463514.00848  83737806.88546  20449624.577    20449624.143    20449627.273
        48.000          39.000
 110684244.55747  86247469.75048  21062508.894    21062508.750    21062515.398
        47.000          48.000
 107516961.35747  83779455.80746  20459788.394    20459788.393    20459792.337
        47.000          40.000
 108141095.086 8  84109751.293 7  20201664.527    20201664.105    20201667.015
        50.000          46.000
 20  5  4  0 27  0.0000000  0  8G22G 3G31G 9G16G26G 4R 3
