     2.11           OBSERVATION DATA    M (MIXED)           RINEX VERSION / TYPE
teqc  2008Oct2                          20220524 02:00:50UTCPGM / RUN BY / DATE
MSXP|IAx86-PII|bcc32 5.0|MSWin95->XP|486/DX+                COMMENT
BIT 2 OF LLI FLAGS DATA COLLECTED UNDER A/S CONDITION       COMMENT
-Unknown-                                                   MARKER NAME
-Unknown-           -Unknown-                               OBSERVER / AGENCY
235-1829            TPS E_GGD           2.3 Aug,01,2003 p2  REC # / TYPE / VERS
-Unknown-           -Unknown-                               ANT # / TYPE
  1240234.4577  4530662.4201  4302599.8359                  APPROX POSITION XYZ
        0.0000        0.0000        0.0000                  ANTENNA: DELTA H/E/N
     1     1                                                WAVELENGTH FACT L1/2
     7    L1    L2    C1    P1    P2    S1    S2            # / TYPES OF OBSERV
 SNR is mapped to RINEX snr flag value [0-9]                COMMENT
  L1 & L2: min(max(int(snr_dBHz/6), 0), 9)                  COMMENT
pseudorange smoothing corrections not applied               COMMENT
rx board ID = AGUS451XLHC                                   COMMENT
  2020     5     1     0     0    0.0000000     GPS         TIME OF FIRST OBS
    14                                                      LEAP SECONDS
                                                            END OF HEADER
 20  5  1  0  0  0.0000000  0 10G 9G22G26R 8G16G31G14G 3G 4R 7
 126422346.44446  98510930.56045  24057372.024    24057372.321    24057377.165
        39.000          33.000
 115418897.19647  89936795.02646  21963479.543    21963478.462    21963480.624
        47.000          36.000
 110097796.29448  85790491.15148  20950910.538    20950910.547    20950917.104
        48.000          49.000
 116071048.454 7  90277502.730 7  21721112.751    21721114.147    21721115.245
        46.000          42.000
 113163844.50247  88179630.79745  21534362.288    21534361.961    21534365.399
        45.000          35.000
 118399111.35347  92259049.05646  22530596.167    22530596.387    22530598.980
        43.000          41.000
 124956647.21846  97368816.88542  23778456.286    23778455.560    23778460.268
        36.000          15.000
 109368921.97948  85222525.34148  20812207.696    20812208.238    20812213.863
        49.000          52.000
 112352275.26747  87547224.83445  21379920.429    21379920.961    21379924.858
        46.000          35.000
 103044720.226 8  80145887.061 8  19283408.982    19283408.825    19283411.683
        52.000          49.000
 20  5  1  0  0 30.0000000  0 10G 9G22G26R 8G16G31G14G 3G 4R 7
 126398190.02246  98492107.37145  24052775.901    24052775.284    24052780.466
        37.000          33.000
 115560106.44647  90046828.19446  21990350.860    21990349.745    21990351.587
        47.000          36.000
 110163480.71948  85841673.82248  20963410.084    20963409.756    20963416.327
        48.000          49.000
 116035655.183 7  90249974.658    21714489.530    21714490.274    21714495.514
        46.000           1.000
 113150994.50747  88169617.80445  21531916.920    21531916.595    21531919.804
        46.000          35.000
 118555565.99847  92380961.74446  22560368.597    22560368.852    22560371.603
        43.000          41.000
 125103197.62445  97483011.94442  23806343.588    23806342.563    23806346.077
        35.000          15.000
 109467600.44948  85299417.64048  20830985.587    20830986.091    20830991.738
        49.000          52.000
 112361677.62847  87554551.35946  21381709.878    21381709.998    21381713.942
        46.000          36.000
 103099207.870 8  80188266.323    19293605.448    19293605.371    19293607.477
        52.000           1.000
 20  5  1  0  1  0.0000000  0 10G 9G22G26R 8G16G31G14G 3G 4R 7
 126374085.91446  98473324.94445  24048187.751    24048187.846    24048193.106
        38.000          32.000
 115701721.42147  90157177.51146  22017299.306    22017298.316    22017299.994
        46.000          36.000
 110229799.71748  85893350.96748  20976030.005    20976029.814    20976036.616
        48.000          50.000
 116000485.534 7                  21707907.695
        46.000
 113138639.17247  88159990.27945  21529566.352    21529565.616    21529569.074
        46.000          35.000
 118712169.90947  92502990.74246  22590169.222    22590169.268    22590171.992
        44.000          41.000
 125249920.27046  97597341.20842  23834263.651    23834262.162    23834268.503
        36.000          15.000
 109566873.39748  85376773.17448  20849876.751    20849877.076    20849882.769
        49.000          52.000
 112371316.07047  87562061.82946  21383543.610    21383544.072    21383548.173
        46.000          36.000
 103335428.224 8                  19303920.667
        52.000
 20  5  1  0  1 30.0000000  0 10G 9G22G26R 8G16G31G14G 3G 4R 7
 126350043.31546  98454590.46145  24043612.882    24043612.998    24043618.157
        38.000          33.000
 115843748.01047  90267847.56846  22044325.995    22044325.096    22044326.900
        47.000          36.000
 110296761.42747  85945528.92148  20988772.243    20988772.244    20988778.844
        47.000          49.000
 116209860.548 7                  21701369.520
        46.000
 113126789.94847  88150757.11945  21527310.736    21527310.617    21527314.203
        45.000          35.000
 118868929.52247  92625141.06446  22619999.884    22619999.843    22620002.477
        44.000          41.000
 125396823.11045  97711810.94442  23862218.410    23862218.363    23862222.018
        35.000          15.000
 109666748.31648  85454597.77548  20868882.531    20868882.757    20868888.327
        49.000          51.000
 112381200.01947  87569763.60846  21385424.724    21385424.929    21385428.928
        45.000          36.000
 103391290.099 8                  19314355.768
        52.000
 20  5  1  0  2  0.0000000  0 10G 9G22G26R 8G16G31G14G 3G 4R 7
 126326051.63446  98435895.63845  24039047.543    24039047.595    24039052.301
        38.000          32.000
 115986172.73047  90378827.84246  22071428.560    22071427.501    22071429.344
        47.000          36.000
 110364354.07548  85998198.52048  21001634.833    21001634.835    21001641.233
        48.000          49.000
 116175079.624 7                  21694874.717
        46.000
 113115437.62247  88141911.13945  21525150.171    21525150.203    21525153.808
        45.000          34.000
 119025831.26647  92747402.13946  22649856.658    22649857.188    22649859.926
        43.000          40.000
 125543894.30846  97826411.86242  23890204.865    23890204.394    23890209.098
        36.000          16.000
 109767212.72548  85532881.71848  20888000.067    20888000.500    20888006.075
        49.000          51.000
 112391319.13247  87577648.63946  21387350.222    21387350.308    21387354.499
        45.000          36.000
 103447786.408 8  80459385.921 8  19324910.085    19324909.981    19324911.321
        53.000          49.000
 20  5  1  0  2 30.0000000  0 10G 9G22G26R 8G16G31G14G 3G 4R 7
 126302116.28846  98417244.70345  24034492.709    24034493.082    24034497.963
        38.000          33.000
 116128997.91847  90490120.18346  22098607.217    22098606.441    22098608.163
        47.000          36.000
 110432581.93448  86051363.08348  21014617.860    21014617.844    21014624.647
        48.000          49.000
 116140533.037 7  90331538.337 7  21688423.316    21688424.492    21688426.311
        46.000          42.000
 113104589.41347  88133457.99145  21523086.290    21523085.672    21523089.439
        45.000          35.000
 119182877.88747  92869776.09746  22679742.008    22679742.360    22679745.037
        43.000          41.000
 125691137.69845  97941146.90742  23918224.999    23918224.062    23918228.907
        35.000          14.000
 109868270.08048  85611627.69448  20907230.552    20907231.074    20907236.629
        50.000          51.000
 112401679.04147  87585721.29346  21389321.765    21389321.725    21389326.040
        46.000          36.000
 103504923.354 8  80503825.748 8  19335583.669    19335583.714    19335586.581
        52.000          49.000
 20  5  1  0  3  0.0000000  0 10G 9G22G26R 8G16G31G14G 3G 4R 7
 126278234.56946  98398635.58445  24029948.671    24029948.753    24029953.793
        38.000          33.000
 116272217.58547  90601719.91645  22125861.241    22125860.161    22125861.880
        47.000          35.000
 110501441.17548  86105019.63148  21027721.856    21027721.504    21027728.012
        48.000          49.000
 116106220.661 7  90304850.928 7  21682015.610    21682017.249    21682018.994
        47.000          42.000
 113094244.67247  88125397.15245  21521117.988    21521117.031    21521120.717
        44.000          35.000
 119340064.11647  92992258.84746  22709653.377    22709653.736    22709656.372
        43.000          40.000
 125838549.26446  98056013.01642  23946277.582    23946276.582    23946281.091
        36.000          16.000
 109969915.81448  85690832.15148  20926573.063    20926573.598    20926579.138
        49.000          51.000
 112412277.31747  87593979.69546  21391338.235    21391338.422    21391342.909
        45.000          36.000
 103562699.291 8  80548762.580 8  19346376.810    19346376.540    19346379.344
        52.000          49.000
 20  5  1  0  3 30.0000000  0 10G 9G22G26R 8G16G31G14G 3G 4R 7
 124678982.51846  97152465.13945  23725620.702    23725621.415    23725626.155
        38.000          34.000
 114840409.90047  89486025.59245  21853396.935    21853395.980    21853398.135
        46.000          35.000
 108995509.64048  84931566.48648  20741152.229    20741152.169    20741158.668
        48.000          49.000
 114466764.977 7  89029718.721 7  21375859.638    21375860.614    21375862.337
        47.000          42.000
 111508981.81347  86890127.38945  21219452.102    21219451.878    21219455.267
        45.000          35.000
 117921968.96247  91887249.59846  22439799.113    22439799.409    22439802.189
        43.000          41.000
 124410709.49145  96943410.53942  23674567.960    23674565.909    23674572.125
        35.000          16.000
 108496728.09948  84542893.65648  20646234.958    20646235.368    20646240.945
        49.000          51.000
 110847691.30147  86374821.75946  21093607.554    21093607.775    21093612.248
        45.000          36.000
 102016300.665 8  79346008.079 8  19057496.495    19057496.164    19057499.201
        52.000          49.000
 20  5  1  0  4  0.0000000  0 10G 9G22G26R 8G16G31G14G 3G 4R 7
 124655208.54846  97133939.96445  23721097.533    23721097.082    23721101.984
        38.000          34.000
 114984409.36847  89598232.95545  21880799.451    21880798.354    21880800.217
        46.000          35.000
 109065628.30948  84986204.40848  20754495.480    20754495.547    20754501.927
        48.000          49.000
 114432927.419 7  89003400.608 7  21369540.326    21369541.404    21369543.601
        46.000          42.000
 111499649.80047  86882855.67845  21217676.739    21217676.055    21217679.529
        46.000          35.000
 118079426.05747  92009943.40746  22469762.627    22469762.763    22469765.097
        44.000          41.000
 124558454.08946  97058536.17242  23702682.739    23702681.384    23702688.036
        36.000          16.000
 108599545.02548  84623010.72848  20665800.352    20665800.691    20665806.324
        49.000          51.000
 110858767.41447  86383452.49646  21095715.147    21095715.676    21095719.964
        45.000          36.000
 102075356.534 8  79391940.412 8  19068528.606    19068528.439    19068531.455
        52.000          49.000
 20  5  1  0  4 30.0000000  0 10G 9G22G26R 8G16G31G14G 3G 4R 7
 124631490.22946  97115458.14645  23716583.137    23716583.321    23716588.901
        38.000          34.000
 115128795.80347  89710741.84945  21908275.295    21908274.199    21908276.009
        47.000          35.000
 109136376.50448  85041332.87548  20767958.505    20767958.450    20767964.790
        48.000          50.000
 114399332.315 7  88977271.070 7  21363266.996    21363268.193    21363269.982
        47.000          43.000
 111490828.40547  86875981.85445  21215997.699    21215997.555    21216000.866
        46.000          35.000
 118237015.97547  92132740.72246  22499750.588    22499750.724    22499753.466
        43.000          41.000
 124706364.78946  97173791.22442  23730829.162    23730830.169    23730833.929
        36.000          16.000
 108702946.22048  84703583.07448  20685476.876    20685477.187    20685483.003
        49.000          51.000
 110870084.50947  86392271.01946  21097869.252    21097869.214    21097873.398
        46.000          36.000
 102135055.017 8  79438372.551 8  19079680.930    19079680.673    19079683.847
        53.000          49.000
 20  5  1  0  5  0.0000000  0 10G 9G22G26R 8G16G31G14G 3G 4R 7
 124607835.03646  97097025.52445  23712082.125    23712081.519    23712087.793
        38.000          34.000
 115273573.21847  89823555.40145  21935825.168    21935824.392    21935826.242
        46.000          35.000
 109207760.42148  85096956.69748  20781542.253    20781542.311    20781548.702
        49.000          49.000
 114365989.237 7  88951337.565 7  21357040.303    21357041.532    21357043.482
        47.000          42.000
 111482526.78147  86869513.04845  21214418.250    21214417.590    21214421.234
        46.000          35.000
 118394743.74947  92255645.45146  22529765.536    22529765.624    22529767.965
        43.000          41.000
 124854447.65546  97289180.39842  23759009.199    23759007.766    23759012.512
        37.000          16.000
 108806937.12748  84784614.93548  20705265.505    20705265.879    20705271.795
        49.000          51.000
 110881650.30347  86401283.32446  21100069.823    21100070.117    21100074.126
        45.000          36.000
 102195405.018 8  79485311.431 8  19090954.758    19090954.597    19090957.547
        52.000          50.000
 20  5  1  0  5 30.0000000  0 10G 9G22G26R 8G16G31G14G 3G 4R 7
 124584242.43746  97078641.67145  23707592.489    23707592.229    23707598.323
        38.000          34.000
 115418737.86547  89936670.70145  21963449.559    21963448.089    21963450.389
        46.000          35.000
 109279778.13348  85153074.39648  20795246.906    20795246.833    20795253.186
        48.000          49.000
 114332899.828 7  88925601.351 7  21350860.950    21350862.272    21350863.901
        47.000          42.000
 111474746.12347  86863450.19245  21212937.673    21212937.025    21212940.758
        46.000          35.000
 118552605.79647  92378654.81046  22559805.471    22559805.581    22559808.526
        43.000          41.000
 125002700.80846  97404702.25642  23787219.887    23787220.362    23787225.107
        36.000          15.000
 108911515.13348  84866104.27948  20725166.164    20725166.395    20725172.304
        49.000          51.000
 110893464.52647  86410489.21546  21102318.053    21102318.268    21102322.275
        46.000          36.000
 102256405.844 8  79532756.508 8  19102350.155    19102350.078    19102353.149
        52.000          49.000
 20  5  1  0  6  0.0000000  0 10G 9G22G26R 8G16G31G14G 3G 4R 7
 124560710.79046  97060305.31745  23703113.905    23703114.155    23703120.338
        38.000          34.000
 115564285.08047  90050084.10545  21991145.887    21991144.895    21991146.999
        46.000          35.000
 109352426.65948  85209683.63548  20809071.232    20809071.291    20809077.746
        48.000          49.000
 114300064.991 7  88900063.145 7  21344728.759    21344729.866    21344732.054
        47.000          42.000
 111467486.47647  86857793.32645  21211556.350    21211555.744    21211559.260
        46.000          35.000
 118710597.88947  92501765.51046  22589870.601    22589870.712    22589873.286
        44.000          41.000
 125151121.20845  97520354.46742  23815463.344    23815462.564    23815465.814
        35.000          15.000
 109016676.47548  84948048.16848  20745177.629    20745177.991    20745183.875
        49.000          51.000
 110905525.76247  86419887.57946  21104613.106    21104613.431    21104617.540
        47.000          36.000
 102318056.956 8  79580707.355 8  19113867.137    19113866.884    19113869.970
        52.000          49.000
 20  5  1  0  6 30.0000000  0 10G 9G22G26R 8G16G31G14G 3G 4R 7
 124537247.63946  97042022.33745  23698649.053    23698649.352    23698655.456
        38.000          34.000
 115710219.18147  90163798.97445  22018916.371    22018915.390    22018917.216
        46.000          35.000
 109425712.05148  85266789.13448  20823017.137    20823017.234    20823023.598
        48.000          49.000
 114267494.117 7  88874730.227 7  21338647.330    21338647.589    21338649.650
        47.000          42.000
 111460757.17447  86852549.70646  21210275.627    21210275.245    21210278.609
        46.000          36.000
 118868724.78147  92624981.24446  22619961.560    22619961.390    22619963.628
        44.000          40.000
 125299714.69045  97636141.55442  23843739.856    23843739.328    23843743.051
        35.000          15.000
 109122426.49448  85030450.76448  20765301.351    20765301.631    20765307.385
        48.000          51.000
 110917841.68947  86429484.40046  21106956.853    21106956.986    21106961.008
        46.000          36.000
 102380366.142 8  79629170.045 8  19125507.231    19125506.914    19125509.902
        52.000          49.000
 20  5  1  0  7  0.0000000  0 10G 9G22G26R 8G16G31G14G 3G 4R 7
 124513844.55646  97023786.17645  23694196.198    23694195.890    23694201.769
        39.000          35.000
 115856528.17847  90277805.97345  22046757.865    22046757.013    22046758.825
        46.000          35.000
 109499624.47548  85324383.22348  20837082.071    20837082.043    20837088.741
        48.000          49.000
 114235180.955 7  88849597.782 7  21332612.319    21332613.720    21332615.393
        46.000          42.000
 111454551.09147  86847713.79445  21209094.721    21209094.046    21209097.677
        46.000          35.000
 119026975.32147  92748293.32446  22650075.155    22650075.527    22650077.907
        44.000          41.000
 125448471.61445  97752056.01942  23872047.641    23872047.033    23872053.452
        35.000          15.000
 109228754.62248  85113303.83948  20785534.933    20785535.220    20785540.921
        49.000          51.000
 110930404.13047  86439273.32046  21109347.269    21109347.778    21109351.577
        46.000          36.000
 102443325.608 8  79678138.502 8  19137268.431    19137268.314    19137271.147
        52.000          49.000
 20  5  1  0  7 30.0000000  0 10G 9G22G26R 8G16G31G14G 3G 4R 7
 124490507.26146  97005601.27645  23689755.231    23689755.006    23689760.836
        38.000          35.000
 116003214.45847  90392106.95545  22074671.344    22074670.472    22074672.725
        46.000          35.000
 109574168.03348  85382469.11448  20851267.489    20851267.410    20851273.815
        48.000          49.000
 114203133.406 7  88824671.897 7  21326628.143    21326628.866    21326630.480
        47.000          42.000
 111448875.68647  86843291.39646  21208014.752    21208014.222    21208017.421
        46.000          36.000
 119185352.02847  92871703.70646  22680213.268    22680213.557    22680216.057
        44.000          40.000
 125597396.12445  97868100.98642  23900387.269    23900385.839    23900390.565
        34.000          14.000
 109335664.25648  85196610.03548  20805879.130    20805879.428    20805885.147
        49.000          51.000
 110943218.91547  86449258.86646  21111786.015    21111786.266    21111790.201
        46.000          36.000
 102506941.438 8  79727617.471 8  19149152.280    19149152.191    19149155.067
        52.000          49.000
 20  5  1  0  8  0.0000000  0 10G 9G22G26R 8G16G31G14G 3G 4R 7
 124467228.25446  96987461.78045  23685324.998    23685325.179    23685331.034
        38.000          35.000
 116150267.32747  90506693.59045  22102654.713    22102653.825    22102655.785
        46.000          35.000
 109649333.81648  85441039.85048  20865571.040    20865570.878    20865577.452
        48.000          49.000
 114171345.765 7  88799948.180 7  21320691.958    21320692.541    21320694.420
        46.000          43.000
 111443725.25347  86839278.06946  21207034.555    21207034.118    21207037.525
        46.000          36.000
 119343844.88547  92995204.61646  22710373.314    22710373.816    22710375.982
        43.000          40.000
 125746479.34645  97984269.68942  23928756.181    23928753.435    23928761.526
        34.000          13.000
 109443145.69948  85280361.79748  20826332.314    20826332.581    20826338.269
        48.000          51.000
 110956278.82247  86459435.41146  21114271.436    21114271.407    21114275.246
        46.000          37.000
 102571206.607 8  79777601.481 8  19161157.444    19161157.453    19161160.516
        52.000          49.000
 20  5  1  0  8 30.0000000  0 10G 9G22G26R 8G16G31G14G 3G 4R 7
 124444014.46046  96969373.12645  23680907.757    23680907.706    23680913.292
        39.000          35.000
 116297690.10847  90621568.47545  22130708.512    22130707.613    22130709.520
        47.000          35.000
 109725127.19448  85500099.61648  20879994.034    20879993.994    20880000.359
        48.000          49.000
 114139827.544 7  88775434.007 7  21314805.623    21314806.925    21314808.931
        47.000          43.000
 111439108.09547  86835680.28546  21206156.006    21206155.451    21206159.094
        46.000          36.000
 119502458.21747  93118799.40846  22740556.814    22740556.841    22740558.845
        44.000          39.000
 125895726.64845  98100566.23942  23957157.342    23957157.815    23957160.833
        34.000          13.000
 109551203.66848  85364562.79148  20846895.032    20846895.316    20846901.024
        48.000          51.000
 110969591.02447  86469808.55746  21116804.686    21116804.731    21116808.629
        46.000          37.000
 102636128.694 8  79828096.421 8  19173285.740    19173285.514    19173288.453
        52.000          49.000
 20  5  1  0  9  0.0000000  0 10G 9G22G26R 8G16G31G14G 3G 4R 7
 124420875.22846  96951342.54845  23676504.404    23676504.253    23676510.015
        39.000          34.000
 116445489.00747  90736736.43245  22158833.606    22158832.668    22158834.646
        46.000          34.000
 109801555.85048  85559654.41348  20894537.871    20894537.708    20894544.098
        48.000          49.000
 114108590.396 7  88751138.445 7  21308972.920    21308973.984    21308975.669
        47.000          43.000
 111435034.87947  86832506.33246  21205380.466    21205380.503    21205383.896
        46.000          36.000
 119661198.45847  93242493.08546  22770763.934    22770764.253    22770766.528
        44.000          40.000
 126045146.02945  98216996.87242  23985591.042    23985589.516    23985596.105
        34.000          13.000
 109659845.12348  85449218.45748  20867568.725    20867569.009    20867574.830
        48.000          51.000
 110983164.96847  86480385.64346  21119387.354    21119387.705    21119391.897
        46.000          37.000
 102701717.297 8  79879109.767 8  19185538.433    19185537.992    19185541.043
        52.000          49.000
 20  5  1  0  9 30.0000000  0 10G 9G22G26R 8G16G31G14G 3G 4R 7
 124397796.86946  96933359.41645  23672112.759    23672112.668    23672118.089
        40.000          34.000
 116593646.72847  90852183.99145  22187026.778    22187026.194    22187028.089
        46.000          34.000
 109878604.45847  85619692.28848  20909200.126    20909199.795    20909206.214
        47.000          49.000
 114077622.410 8  88727052.231 7  21303189.094    21303190.997    21303193.173
        48.000          43.000
 111431493.69947  86829746.97346  21204706.904    21204706.436    21204710.179
        46.000          36.000
 119820049.20047  93366272.85146  22800992.377    22800992.433    22800995.096
        44.000          40.000
 126194722.09945  98333549.59442  24014055.226    24014054.789    24014058.615
        35.000          14.000
 109769053.98648  85534316.26048  20888350.297    20888350.745    20888356.553
        48.000          51.000
 110996987.12347  86491156.15946  21122017.937    21122017.925    21122022.148
        47.000          37.000
 102767958.898 8  79930630.994 8  19197912.458    19197912.371    19197915.565
        52.000          49.000
 20  5  1  0 10  0.0000000  0 10G 9G22G26R 8G16G31G14G 3G 4R 7
 124374796.43746  96915437.01945  23667735.804    23667736.003    23667741.095
        38.000          34.000
 116742176.91047  90967921.79145  22215291.464    22215290.473    22215292.303
        46.000          34.000
 109956288.44748  85680225.26148  20923982.390    20923982.421    20923989.021
        48.000          49.000
 114046942.958 8  88703190.422 7  21297461.093    21297461.395    21297463.788
        48.000          43.000
 111428502.94047  86827416.51546  21204137.899    21204137.248    21204140.920
        46.000          36.000
 119979024.40447  93490149.60446  22831244.545    22831244.477    22831246.796
        43.000          40.000
 126344470.48645  98450236.58142  24042551.636    24042551.193    24042553.707
        35.000          13.000
 109878845.04948  85619867.71848  20909243.029    20909243.514    20909249.147
        49.000          51.000
 111011074.83647  86502133.59046  21124698.613    21124698.690    21124702.784
        47.000          37.000
 102834871.416 8  79982674.053 8  19210412.268    19210412.356    19210415.254
        52.000          49.000
 20  5  1  0 10 30.0000000  0 10G 9G22G26R 8G16G31G14G 3G 4R 7
 124351872.93646  96897574.55345  23663373.753    23663373.484    23663378.683
        39.000          35.000
 116891075.44847  91083946.60845  22243625.929    22243624.728    22243626.784
        46.000          34.000
 110034605.12948  85741251.24648  20938885.670    20938885.646    20938892.254
        48.000          49.000
 114016553.403 7  88679554.103 7  21291785.292    21291786.831    21291788.800
        47.000          43.000
 111426062.78147  86825515.08046  21203673.467    21203672.824    21203676.470
        46.000          36.000
 120138120.30047  93614120.40246  22861519.242    22861519.503    22861521.987
        43.000          40.000
 126494388.60245  98567055.81742  24071079.014    24071079.721    24071083.354
        35.000          13.000
 109989214.79848  85705870.10448  20930245.731    20930246.137    20930251.750
        49.000          51.000
 111025427.22847  86513317.26846  21127429.803    21127429.992    21127433.865
        46.000          37.000
 102902453.857 8  80035238.158 8  19223037.118    19223037.279    19223040.391
        52.000          49.000
 20  5  1  0 11  0.0000000  0 10G 9G22G26R 8G16G31G14G 3G 4R 7
 124329009.47646  96879758.86645  23659022.988    23659022.599    23659028.132
        38.000          35.000
 117040321.82547  91200242.46745  22272026.137    22272025.567    22272027.569
        45.000          34.000
 110113535.85247  85802755.70448  20953905.374    20953905.393    20953912.358
        47.000          49.000
 113986438.655 7  88656131.506 7  21286161.442    21286162.648    21286164.860
        47.000          43.000
 111424158.19647  86824030.98346  21203310.822    21203310.408    21203314.053
        46.000          36.000
 120297317.44547  93738170.09846  22891813.250    22891813.398    22891816.203
        43.000          39.000
 126644457.99846  98683992.94542  24099636.231    24099634.470    24099638.336
        36.000          14.000
 110100144.00248  85792308.43348  20951355.086    20951355.348    20951360.901
        48.000          51.000
 111040027.57047  86524694.16046  21130208.450    21130208.413    21130212.343
        46.000          38.000
 102970689.131 8  80088310.024 8  19235784.418    19235784.075    19235787.213
        52.000          49.000
 20  5  1  0 11 30.0000000  0 10G 9G22G26R 8G16G31G14G 3G 4R 7
 124306210.54846  96861993.47245  23654684.306    23654684.035    23654690.049
        38.000          35.000
 117189916.92147  91316810.06045  22300493.504    22300492.440    22300494.682
        46.000          34.000
 110193083.39848  85864740.79948  20969042.866    20969042.935    20969049.751
        48.000          49.000
 113956605.654 7  88632928.060 7  21280590.517    21280591.820    21280593.434
        47.000          43.000
 111422794.95747  86822968.71146  21203051.517    21203051.138    21203054.738
        46.000          36.000
 120456617.53847  93862300.01146  22922127.232    22922127.447    22922130.200
        43.000          40.000
 126794681.74346  98801050.35342  24128224.602    24128223.733    24128226.700
        36.000          13.000
 110211634.67848  85879184.26848  20972570.908    20972571.317    20972576.819
        49.000          51.000
 111054880.56847  86536267.92246  21133034.745    21133034.833    21133038.649
        47.000          37.000
 103039582.520 8  80141893.753 8  19248654.421    19248654.261    19248657.110
        53.000          49.000
 20  5  1  0 12  0.0000000  0 10G 9G22G26R 8G16G31G14G 3G 4R 7
 124283482.72746  96844283.47645  23650359.113    23650359.250    23650365.125
        38.000          35.000
 117339864.17347  91433652.05845  22329027.456    22329026.586    22329028.718
        46.000          34.000
 110273252.46247  85927210.19948  20984298.512    20984298.682    20984305.502
        47.000          49.000
 113927063.066 7  88609950.485 7  21275073.079    21275074.733    21275076.441
        47.000          43.000
 111421981.05347  86822334.49246  21202897.058    21202896.580    21202899.780
        47.000          36.000
 120616024.43547  93986513.14646  22952460.949    22952461.449    22952464.416
        42.000          39.000
 126945064.70146  98918231.83242  24156840.243    24156838.863    24156844.152
        36.000          13.000
 110323690.85048  85966500.75048  20993894.536    20993894.884    20993900.401
        49.000          51.000
 111069992.92347  86548043.78246  21135910.308    21135910.361    21135914.531
        46.000          37.000
 103109140.661 8  80195994.518 8  19261648.151    19261648.179    19261651.249
        52.000          49.000
 20  5  1  0 12 30.0000000  0 10G 9G22G26R 8G16G31G14G 3G 4R 7
 124260826.52646  96826629.30045  23646048.762    23646048.043    23646053.583
        39.000          35.000
 117490160.25347  91550765.87245  22357628.097    22357627.288    22357629.115
        46.000          34.000
 110354041.81248  85990162.93848  20999672.334    20999672.172    20999679.083
        48.000          49.000
 113897813.415 7  88587200.751 7  21269611.961    21269612.613    21269614.263
        47.000          43.000
 111421717.97147  86822129.49346  21202846.610    21202846.136    21202849.738
        46.000          37.000
 120775535.71947  94110807.62246  22982814.833    22982815.363    22982817.952
        42.000          39.000
 127095605.98046  99035536.65342  24185487.578    24185486.399    24185492.149
        36.000          15.000
 110436310.60348  86054256.38448  21015325.289    21015325.691    21015331.255
        49.000          51.000
 111085365.36747  86560022.30646  21138835.733    21138835.345    21138839.771
        46.000          37.000
 103179364.270 8  80250612.862 8  19274766.624    19274766.509    19274769.628
        53.000          49.000
 20  5  1  0 13  0.0000000  0 10G 9G22G26R 8G16G31G14G 3G 4R 7
 124238236.60246  96809026.75345  23641749.385    23641749.127    23641754.727
        39.000          35.000
 117640796.41747  91668144.68345  22386293.399    22386292.196    22386294.395
        46.000          34.000
 110435444.21048  86053593.36848  21015162.459    21015162.670    21015169.246
        48.000          49.000
 113868853.813 8  88564676.615 7  21264203.666    21264204.917    21264206.109
        48.000          43.000
 111422002.08447  86822350.86846  21202900.269    21202900.207    21202903.957
        46.000          37.000
 120935143.28447  94235177.11246  23013187.405    23013187.691    23013190.511
        42.000          38.000
 127246298.66746  99152959.43242  24214161.866    24214163.213    24214167.085
        36.000          14.000
 110549485.96648  86142444.96548  21036861.821    21036862.197    21036867.855
        48.000          51.000
 111100992.64947  86572199.41046  21141809.371    21141809.335    21141813.557
        46.000          37.000
 103250248.024 8  80305744.661 8  19288008.114    19288008.222    19288011.149
        53.000          49.000
 20  5  1  0 13 30.0000000  0 10G 9G22G26R 8G16G31G14G 3G 4R 7
 124215713.38446  96791476.19545  23637463.203    23637462.917    23637468.964
        38.000          35.000
 117791769.55347  91785786.07645  22415022.323    22415021.507    22415023.775
        45.000          34.000
 110517458.12948  86117500.32048  21030769.619    21030769.458    21030776.072
        48.000          49.000
 113840186.533 8  88542379.834 7  21258850.822    21258852.033    21258852.943
        48.000          44.000
 111422834.81047  86822999.74846  21203059.105    21203058.690    21203062.309
        46.000          37.000
 121094844.66847  94359619.71646  23043577.874    23043577.595    23043580.741
        42.000          38.000
 127397141.08346  99270498.95442  24242867.806    24242866.696    24242871.064
        36.000          16.000
 110663214.76648  86231064.79448  21058503.654    21058504.098    21058509.835
        49.000          50.000
 111116875.31847  86584575.51946  21144831.814    21144831.765    21144835.779
        46.000          37.000
 103321791.973 8  80361389.940 8  19301373.268    19301373.249    19301375.887
        52.000          49.000
 20  5  1  0 14  0.0000000  0 10G 9G22G26R 8G16G31G14G 3G 4R 7
 124193279.13746  96773994.96846  23633194.170    23633194.226    23633199.764
        39.000          36.000
 117943098.27047  91903704.53545  22443819.347    22443818.445    22443820.389
        45.000          34.000
 110600104.01547  86181899.70848  21046496.538    21046496.380    21046503.088
        47.000          49.000
 113811836.644 8  88520329.916 7  21253556.521    21253557.593    21253559.050
        48.000          43.000
 111424239.69047  86824094.45846  21203326.429    21203326.101    21203329.753
        47.000          37.000
 121254659.74347  94484150.89046  23073989.623    23073990.101    23073992.850
        42.000          39.000
 127548154.26446  99388171.52442  24271605.293    24271604.461    24271608.606
        36.000          15.000
 110777516.78448  86320131.28548  21080254.614    21080255.092    21080260.831
        48.000          51.000
 111133035.87647  86597168.15646  21147906.887    21147907.145    21147911.149
        46.000          37.000
 103394019.536 8  80417566.914 8  19314866.321    19314866.123    19314868.829
        53.000          49.000
 20  5  1  0 14 30.0000000  0 10G 9G22G26R 8G16G31G14G 3G 4R 7
 124170920.86446  96756572.93346  23628939.769    23628939.802    23628945.449
        40.000          36.000
 118094766.48547  92021887.53545  22472680.849    22472679.848    22472682.024
        46.000          34.000
 110683366.83148  86246779.82248  21062340.847    21062340.932    21062347.459
        48.000          49.000
 113783793.070 8  88498518.233 7  21248319.216    21248320.698    21248322.453
        48.000          44.000
 111426205.00947  86825625.87046  21203700.459    21203700.363    21203703.771
        47.000          37.000
 121414572.62247  94608758.30346  23104420.195    23104420.484    23104423.019
        42.000          39.000
 127699323.70345  99505965.84142  24300371.387    24300370.434    24300374.383
        35.000          15.000
 110892376.24948  86409632.15148  21102111.575    21102112.074    21102117.865
        49.000          51.000
 111149461.42047  86609967.28246  21151032.729    21151032.963    21151036.702
        46.000          37.000
 103466917.028 8  80474264.953 8  19328484.070    19328483.909    19328486.946
        52.000          49.000
 20  5  1  0 15  0.0000000  0 10G 9G22G26R 8G16G31G14G 3G 4R 7
 122573216.49646  95511608.50046  23324907.273    23324906.936    23324912.265
        40.000          36.000
 116671354.00547  90912734.94345  22201814.567    22201813.504    22201815.763
        45.000          33.000
 109191826.08047  85084540.27848  20778509.833    20778509.993    20778516.546
        47.000          49.000
 112150680.704 8  87228319.726 7  20943346.596    20943348.182    20943350.287
        48.000          44.000
 109853310.89647  85599994.09146  20904388.855    20904388.460    20904391.821
        46.000          37.000
 119999164.50947  93505842.85246  22835077.200    22835077.127    22835079.915
        42.000          38.000
 126275231.47245  98396283.50342  24029374.946    24029374.963    24029379.898
        35.000          14.000
 109432373.13448  85271967.36848  20824282.230    20824282.707    20824288.552
        49.000          50.000
 109590731.37247  85395372.43846  20854416.132    20854416.308    20854420.379
        46.000          38.000
 101935673.267 8  79283297.569 8  19042434.739    19042434.661    19042437.808
        52.000          49.000
 20  5  1  0 15 30.0000000  0 10G 9G22G26R 8G16G31G14G 3G 4R 7
 122551012.69446  95494306.83246  23320681.799    23320681.670    23320686.778
        40.000          36.000
 116823692.19947  91031440.00145  22230803.238    22230802.059    22230804.566
        45.000          33.000
 109276319.32448  85150379.16348  20794588.780    20794588.508    20794595.194
        48.000          49.000
 112123258.402 8  87206991.259 7  20938226.126    20938227.036    20938229.443
        48.000          44.000
 109856403.27647  85602403.73846  20904977.183    20904976.968    20904980.372
        47.000          37.000
 120159267.19447  93630598.14546  22865543.335    22865543.542    22865546.367
        42.000          39.000
 126426710.86345  98514319.34442  24058199.917    24058199.310    24058206.198
        35.000          13.000
 109548342.11248  85362332.79348  20846350.509    20846350.892    20846356.692
        48.000          50.000
 109607689.82647  85408586.81346  20857643.314    20857643.469    20857647.583
        47.000          38.000
 102009913.399 8  79341039.879 8  19056303.250    19056303.462    19056306.471
        52.000          49.000
 20  5  1  0 16  0.0000000  0 10G 9G22G26R 8G16G31G14G 3G 4R 7
 122528886.27346  95477065.46346  23316471.136    23316470.971    23316475.958
        39.000          36.000
 116976359.97447  91150401.88745  22259855.050    22259854.296    22259856.609
        45.000          33.000
 109361424.85147  85216695.15748  20810783.496    20810783.594    20810790.226
        47.000          49.000
 112096150.305 8  87185907.179 7  20933163.767    20933165.132    20933167.303
        48.000          44.000
 109860061.06247  85605253.95946  20905673.322    20905672.858    20905676.265
        47.000          37.000
 120319460.49347  93755424.05946  22896027.557    22896027.420    22896030.013
        43.000          38.000
 126578342.76445  98632474.05842  24087056.185    24087056.226    24087060.351
        34.000          13.000
 109664861.95647  85453127.46048  20868523.533    20868523.891    20868529.691
        47.000          50.000
 109624915.13147  85422009.12346  20860921.246    20860921.283    20860925.412
        46.000          38.000
 102084824.919 8  79399304.378 8  19070297.605    19070297.288    19070300.568
        52.000          49.000
 20  5  1  0 16 30.0000000  0 10G 9G22G26R 8G16G31G14G 3G 4R 7
 122506838.70346  95459885.54646  23312275.213    23312274.972    23312280.324
        38.000          36.000
 117129355.62447  91269619.24945  22288969.324    22288968.297    22288970.545
        45.000          33.000
 109447142.07347  85283487.79348  20827094.919    20827094.971    20827101.534
        47.000          48.000
 112069360.053 8  87165070.314 7  20928160.451    20928161.642    20928164.077
        48.000          44.000
 109864286.93247  85608546.84246  20906477.753    20906477.208    20906480.373
        47.000          37.000
 120479743.24347  93880319.67146  22926528.212    22926528.437    22926531.054
        42.000          38.000
 126730127.18145  98750747.54542  24115938.728    24115939.745    24115946.565
        35.000          13.000
 109781931.36447  85544350.35948  20890800.941    20890801.473    20890807.218
        47.000          50.000
 109642408.87647  85435640.60646  20864249.989    20864250.259    20864254.392
        46.000          38.000
 102160408.967 8  79458091.957 8  19084417.368    19084417.126    19084420.213
        52.000          49.000
 20  5  1  0 17  0.0000000  0 10G 9G22G26R 8G16G31G14G 3G 4R 7
 122484869.46546  95442766.65445  23308094.597    23308094.118    23308099.774
        39.000          35.000
 117282674.79347  91389088.71745  22318145.265    22318144.155    22318146.532
        45.000          33.000
 109533468.26347  85350754.95148  20843522.401    20843522.455    20843529.067
        47.000          49.000
 112042889.157 8  87144481.827 7  20923217.518    20923218.823    20923220.595
        48.000          44.000
 109869081.35147  85612282.75646  20907390.042    20907389.395    20907392.701
        46.000          37.000
 120640112.21147  94005282.45946  22957045.352    22957045.639    22957048.301
        42.000          38.000
 126882061.69145  98869138.10142  24144851.525    24144850.402    24144856.711
        34.000          12.000
 109899546.95548  85635998.85948  20913182.600    20913183.064    20913188.783
        49.000          50.000
 109660170.54947  85449480.86446  20867630.536    20867630.474    20867634.195
        46.000          38.000
 102236664.960 8  79517402.158 8  19098662.586    19098662.445    19098665.478
        52.000          49.000
 20  5  1  0 17 30.0000000  0 10G 9G22G26R 8G16G31G14G 3G 4R 7
 122462991.64846  95425719.00545  23303930.810    23303930.742    23303936.443
        39.000          35.000
 117436326.86147  91508817.57545  22347383.938    22347383.202    22347385.315
        45.000          33.000
 109620414.42348  85418505.20448  20860067.881    20860067.634    20860074.318
        48.000          49.000
 112016753.104 8  87124153.783 7  20918336.483    20918338.076    20918339.694
        48.000          44.000
 109874458.26047  85616472.54246  20908412.862    20908412.544    20908416.008
        47.000          37.000
 120800577.76347  94130320.52746  22987580.789    22987581.256    22987583.852
        42.000          37.000
 127034157.67945  98987654.33242  24173794.350    24173793.005    24173797.451
        35.000          13.000
 110017719.07448  85728081.01248  20935670.147    20935670.531    20935676.201
        48.000          50.000
 109678213.52047  85463540.32246  20871063.959    20871063.868    20871067.884
        46.000          38.000
 102313606.056 8  79577245.218 8  19113035.732    19113035.796    19113038.766
        53.000          49.000
 20  5  1  0 18  0.0000000  0 10G 9G22G26R 8G16G31G14G 3G 4R 7
 122441190.35746  95408730.98946  23299782.338    23299781.925    23299788.026
        38.000          36.000
 117590293.19047  91628791.31945  22376682.533    22376681.761    22376684.198
        45.000          33.000
 109707963.47248  85486725.23948  20876727.871    20876727.947    20876734.332
        48.000          49.000
 111990939.059 8  87104076.186 7  20913515.858    20913517.352    20913519.236
        48.000          44.000
 109880404.12547  85621105.68746  20909544.322    20909543.987    20909547.392
        47.000          37.000
 120961122.28747  94255420.12746  23018131.850    23018131.876    23018134.296
        42.000          37.000
 127186398.48545  99106283.52442  24202766.202    24202763.052    24202770.352
        34.000          13.000
 110136430.00248  85820583.01948  20958260.034    20958260.348    20958266.158
        49.000          50.000
 109696522.85647  85477807.33746  20874547.849    20874547.716    20874551.959
        46.000          38.000
 102391216.996 8  79637609.266 8  19127534.548    19127534.165    19127537.231
        53.000          49.000
 20  5  1  0 18 30.0000000  0 10G 9G22G26R 8G16G31G14G 3G 4R 7
 122419463.89346  95391801.27345  23295648.766    23295647.694    23295653.578
        40.000          35.000
 117744568.43447  91749005.77345  22406040.404    22406039.483    22406041.751
        45.000          33.000
 109796111.46748  85555411.98548  20893501.698    20893501.904    20893508.373
        48.000          49.000
 111965447.223 8  87084249.202 7  20908755.200    20908756.980    20908758.485
        48.000          44.000
 109886918.09247  85626181.50346  20910783.868    20910783.415    20910787.046
        47.000          37.000
 121121741.23347  94380577.71446  23048696.798    23048696.713    23048699.256
        43.000          39.000
 127338780.92845  99225023.03141  24231763.492    24231762.792    24231765.409
        34.000          11.000
 110255675.14248  85913501.29648  20980951.700    20980951.953    20980957.742
        48.000          50.000
 109715097.01847  85492280.70046  20878082.141    20878082.361    20878086.501
        47.000          38.000
 102469495.591 8  79698492.605 8  19142157.229    19142157.286    19142160.255
        53.000          49.000
 20  5  1  0 19  0.0000000  0 10G 9G22G26R 8G16G31G14G 3G 4R 7
 122397822.59146  95374937.92646  23291530.617    23291529.707    23291535.580
        40.000          36.000
 117899159.21347  91869466.10845  22435458.201    22435456.931    22435459.447
        44.000          32.000
 109884866.52247  85624571.76448  20910391.469    20910391.295    20910397.910
        47.000          49.000
 111940290.513 8  87064682.863 7  20904058.104    20904059.254    20904060.739
        48.000          44.000
 109894011.42447  85631708.77646  20912133.813    20912133.377    20912136.988
        47.000          37.000
 121282442.24947  94505799.24546  23079276.834    23079277.366    23079279.556
        42.000          38.000
 127491313.62245  99343879.59942  24260788.453    24260787.805    24260790.132
        34.000          12.000
 110375461.97548  86006841.66848  21003746.519    21003746.699    21003752.382
        48.000          50.000
 109733946.45247  85506968.56546  20881669.106    20881669.135    20881673.568
        46.000          38.000
 102548452.076 8  79759903.195 8  19156907.188    19156906.819    19156909.981
        52.000          49.000
 20  5  1  0 19 30.0000000  0 10G 9G22G26R 8G16G31G14G 3G 4R 7
 122376270.26746  95358143.90046  23287429.368    23287428.785    23287434.306
        40.000          36.000
 118054065.69347  91990172.43145  22464935.633    22464934.601    22464937.003
        44.000          32.000
 109974230.15148  85694205.75548  20927396.508    20927396.603    20927403.151
        48.000          49.000
 111915474.805 8  87045381.755 7  20899423.946    20899425.039    20899426.700
        48.000          44.000
 109901689.11647  85637691.38846  20913594.942    20913594.359    20913597.971
        47.000          38.000
 121443226.18147  94631085.40246  23109873.391    23109873.171    23109875.840
        42.000          37.000
 127643998.47745  99462854.76041  24289843.248    24289845.088    24289847.528
        33.000          11.000
 110495791.32148  86100604.77848  21026644.305    21026644.706    21026650.339
        48.000          50.000
 109753075.05847  85521873.97046  20885309.184    20885309.391    20885313.713
        46.000          38.000
 102628090.092 8  79821843.852 8  19171784.169    19171784.032    19171787.148
        52.000          49.000
 20  5  1  0 20  0.0000000  0 10G 9G22G26R 8G16G31G14G 3G 4R 7
 122354797.26346  95341411.68746  23283343.015    23283342.857    23283348.280
        40.000          37.000
 118209274.37447  92111114.23145  22494470.769    22494469.774    22494472.384
        44.000          32.000
 110064190.40147  85764304.65148  20944515.579    20944515.418    20944522.068
        47.000          49.000
 111890992.404 8  87026339.886 7  20894852.447    20894853.261    20894854.989
        48.000          44.000
 109909942.33647  85644122.47246  20915165.500    20915165.030    20915168.591
        47.000          38.000
 121604080.69947  94756426.55646  23140482.723    23140482.674    23140485.453
        42.000          37.000
 127796824.04845  99581939.54041  24318924.589    24318925.883    24318929.719
        33.000          10.000
 110616650.67548  86194780.88248  21049643.371    21049643.497    21049649.113
        48.000          50.000
 109772473.32647  85536989.49746  20889000.793    20889000.640    20889005.020
        46.000          38.000
 102708399.369 8  79884306.604 8  19186786.651    19186786.573    19186789.544
        52.000          49.000
 20  5  1  0 20 30.0000000  0 10G 9G22G26R 8G16G31G14G 3G 4R 7
 122333409.36446  95324745.79046  23279272.785    23279272.853    23279278.258
        40.000          37.000
 118364787.44947  92232293.23245  22524063.669    22524062.811    22524065.777
        44.000          32.000
 110154750.69648  85834871.10648  20961748.512    20961748.534    20961755.200
        48.000          49.000
 111866851.508 8  87007563.627 7  20890343.567    20890345.047    20890347.008
        48.000          44.000
 109918777.58347  85651007.07946  20916846.888    20916846.384    20916849.937
        47.000          38.000
 121765008.91847  94881825.12846  23171106.433    23171106.629    23171109.359
        42.000          37.000
 127949794.39045  99701137.13341  24348035.243    24348032.436    24348040.954
        33.000           9.000
 110738042.74648  86289372.08848  21072743.180    21072743.714    21072749.341
        49.000          50.000
 109792147.04247  85552319.66446  20892743.974    20892744.483    20892748.553
        46.000          38.000
 102789385.250 8  79947295.601 8  19201915.644    19201915.549    19201918.490
        53.000          49.000
 20  5  1  0 21  0.0000000  0 10G 9G22G26R 8G16G31G14G 3G 4R 7
 122312095.27346  95308137.40446  23275217.638    23275217.348    23275222.282
        41.000          38.000
 118520589.85647  92353697.68645  22553712.250    22553710.951    22553713.792
        44.000          32.000
 110245897.39047  85905894.50248  20979093.123    20979093.197    20979099.870
        47.000          48.000
 111843042.693 8  86989045.654 7  20885897.852    20885898.896    20885900.803
        48.000          45.000
 109928184.42147  85658337.08146  20918636.642    20918636.466    20918639.912
        47.000          38.000
 121925996.50847  95007269.96046  23201741.480    23201741.418    23201744.388
        42.000          38.000
 128102896.46745  99820437.3784   24377167.885    24377165.453    24377173.005
        32.000           5.000
 110859953.29848  86384367.30848  21095942.018    21095942.400    21095948.135
        48.000          50.000
 109812085.02847  85567855.75846  20896538.730    20896538.746    20896542.760
        47.000          38.000
 102871035.835 8  80010801.598 8  19217168.726    19217168.422    19217171.363
        53.000          50.000
 20  5  1  0 21 30.0000000  0 10G 9G22G26R 8G16G31G14G 3G 4R 7
 122290868.93046  95291597.39446  23271177.486    23271178.108    23271182.906
        41.000          38.000
 118676691.51147  92475335.31145  22583417.620    22583416.519    22583419.068
        44.000          32.000
 110337641.94248  85977383.76048  20996551.762    20996551.635    20996558.333
        48.000          49.000
 111819582.189 8  86970798.588 7  20881516.677    20881517.776    20881519.790
        48.000          45.000
 109938177.64047  85666124.00546  20920538.384    20920538.125    20920541.450
        47.000          38.000
 122087055.03647  95132770.07146  23232389.772    23232389.784    23232392.532
        42.000          37.000
 128256142.34145  99939849.69541  24406331.481    24406325.855    24406333.335
        30.000           7.000
 110982393.15848  86479774.97248  21119241.598    21119241.934    21119247.635
        49.000          49.000
 109832301.25847  85583608.65646  20900385.518    20900385.744    20900389.739
        47.000          38.000
 102953364.707 8  80074835.147 8  19232548.407    19232548.221    19232551.295
        52.000          49.000
 20  5  1  0 22  0.0000000  0 10G 9G22G26R 8G16G31G14G 3G 4R 7
 122269733.58646  95275128.30346  23267156.213    23267156.175    23267161.090
        41.000          38.000
 118833092.17647  92597205.94145  22613179.627    22613178.908    22613181.238
        45.000          32.000
 110429985.29248  86049339.61348  21014124.059    21014123.930    21014130.621
        48.000          49.000
 111796475.633 8  86952826.814 7  20877201.998    20877203.362    20877204.410
        49.000          44.000
 109948761.24248  85674370.96146  20922552.191    20922551.817    20922555.569
        48.000          38.000
 122248184.71647  95258325.63946  23263051.600    23263051.804    23263054.470
        42.000          37.000
 128409533.48645 100059375.2004   24435519.534    24435527.241    24435522.660
        30.000           4.000
 111105362.63748  86575595.33048  21142641.971    21142642.224    21142647.933
        48.000          50.000
 109852799.11847  85599581.01646  20904286.188    20904286.161    20904290.375
        46.000          38.000
 103036374.714 8  80139398.475 8  19248055.410    19248055.059    19248058.229
        52.000          49.000
 20  5  1  0 22 30.0000000  0 10G 9G22G26R 8G16G31G14G 3G 4R 7
 122248690.83946  95258731.35646  23263151.701    23263151.436    23263156.791
        41.000          38.000
 118989789.42547  92719307.67445  22642998.406    22642997.264    22642999.367
        44.000          32.000
 110522926.46948  86121761.30848  21031810.192    21031810.175    21031816.799
        48.000          49.000
 111773726.818 8  86935133.294 7  20872953.494    20872954.820    20872956.425
        49.000          44.000
 109959937.86747  85683080.02146  20924679.135    20924678.696    20924682.172
        47.000          38.000
 122409384.56047  95383935.87046  23293726.551    23293727.032    23293729.956
        42.000          36.000
 128563069.69245                  24464739.107
        31.000
 111228860.15547  86671827.14148  21166142.571    21166143.015    21166148.796
        47.000          50.000
 109873580.25347  85615774.10646  20908240.632    20908240.617    20908244.958
        45.000          38.000
 103120067.164 8  80204492.583 8  19263689.577    19263689.654    19263692.665
        52.000          49.000
 20  5  1  0 23  0.0000000  0 10G 9G22G26R 8G16G31G14G 3G 4R 7
 122227743.98546  95242409.13546  23259165.352    23259165.385    23259170.829
        41.000          38.000
 119146783.00947  92841640.31745  22672872.729    22672871.911    22672874.189
        44.000          32.000
 110616466.32748  86194649.50548  21049610.060    21049610.109    21049616.921
        48.000          49.000
 111751340.847 8  86917721.979 7  20868772.805    20868774.069    20868775.858
        48.000          44.000
 109971711.30147  85692254.12446  20926919.731    20926918.996    20926922.628
        47.000          38.000
 122570655.07347  95509601.18246  23324415.564    23324415.842    23324418.555
        42.000          36.000
 128716752.41345                  24493981.616
        30.000
 111352885.91648  86768470.57248  21189744.188    21189744.410    21189750.150
        48.000          50.000
 109894647.99247  85632190.52146  20912249.370    20912249.626    20912254.049
        47.000          38.000
 103204444.578 8  80270119.439 8  19279452.250    19279451.792    19279455.057
        52.000          49.000
 20  5  1  0 23 30.0000000  0 10G 9G22G26R 8G16G31G14G 3G 4R 7
 122206885.62246  95226155.86446  23255195.881    23255196.121    23255201.433
        41.000          38.000
 119304061.39047  92964194.87945  22702802.245    22702801.550    22702803.530
        44.000          32.000
 110710594.90847  86267996.44848  21067522.395    21067522.140    21067528.859
        47.000          49.000
 111729312.813 8  86900589.058 7  20864658.720    20864660.161    20864662.102
        48.000          44.000
 109984074.90647  85701888.09446  20929272.087    20929271.749    20929275.435
        47.000          38.000
 122731986.08346  95635313.62246  23355116.135    23355116.203    23355119.066
        41.000          36.000
 128870572.40345                  24523253.479
        30.000
 111477429.37848  86865517.40548  21213444.035    21213444.393    21213450.007
        48.000          50.000
 109915994.96147  85648824.52746  20916311.727    20916311.617    20916316.222
        47.000          38.000
 103289498.733 8  80336272.654 8  19295340.820    19295340.842    19295343.941
        52.000          50.000
 20  5  1  0 24  0.0000000  0 10G 9G22G26R 8G16G31G14G 3G 4R 7
 122186126.43946  95209979.88046  23251245.851    23251246.016    23251250.938
        41.000          38.000
 119461631.44347  93086976.70845  22732786.694    22732786.103    22732788.221
        45.000          32.000
 110805320.36047  86341808.48948  21085547.907    21085547.972    21085554.574
        47.000          49.000
 111707655.596 8  86883744.551 7  20860615.405    20860616.071    20860617.923
        48.000          44.000
 109997040.06347  85711990.80846  20931739.421    20931739.000    20931742.573
        47.000          38.000
 122893385.60746  95761079.44446  23385829.625    23385829.531    23385832.582
        41.000          36.000
 129024538.80345                  24552551.776
        31.000
 111602498.08547  86962973.52348  21237243.812    21237244.254    21237249.721
        47.000          50.000
 109937631.96447  85665684.52446  20920429.032    20920429.122    20920433.536
        46.000          39.000
 103375239.938 8  80402960.236 8  19311358.296    19311358.189    19311361.099
        52.000          49.000
 20  5  1  0 24 30.0000000  0 10G 9G22G26R 8G16G31G14G 3G 4R 7
 122165469.22046  95193883.34146  23247315.167    23247315.060    23247320.102
        41.000          38.000
 119619492.23747  93209985.10345  22762826.758    22762826.082    22762828.258
        45.000          32.000
 110900642.81648  86416085.72848  21103687.344    21103687.301    21103693.914
        48.000          49.000
 111686373.868 8  86867192.091 7  20856641.294    20856642.033    20856643.542
        48.000          44.000
 110010609.94748  85722564.74546  20934321.663    20934321.453    20934324.717
        48.000          39.000
 123054853.52946  95886898.56246  23416556.282    23416555.975    23416558.925
        41.000          36.000
 129178651.81745                  24581876.957
        32.000
 111728091.56648  87060838.55448  21261143.323    21261143.899    21261149.406
        48.000          49.000
 109959561.75447  85682772.67446  20924602.353    20924602.441    20924606.583
        46.000          39.000
 103461670.224 8  80470183.773 8  19327503.841    19327503.776    19327507.100
        52.000          49.000
 20  5  1  0 25  0.0000000  0 10G 9G22G26R 8G16G31G14G 3G 4R 7
 122144913.55046  95177865.93446  23243403.442    23243403.373    23243408.525
        41.000          38.000
 119777639.27547  93333216.54845  22792921.496    22792919.945    22792922.469
        44.000          31.000
 110996559.34547  86490825.87748  21121939.494    21121939.474    21121945.973
        46.000          48.000
 111665469.525 8  86850933.158 7  20852737.091    20852738.529    20852739.868
        49.000          45.000
 110024784.97647  85733610.21946  20937019.365    20937018.759    20937022.460
        47.000          38.000
 123216386.53446  96012768.39346  23447294.333    23447294.835    23447297.574
        41.000          36.000
 129332909.39445                  24611233.640
        31.000
 111854206.29748  87159109.74748  21285142.175    21285142.702    21285148.341
        48.000          49.000
